timestamp,latitude,longitude,altitude,mean_snr,sat_count,mean_elevation,mean_azimuth,roll,pitch,yaw,is_inclined
1725105224,18.5633983,73.8332167,513.9,,0,,,60.0,-64.0,99.0,1
1725105225,18.5633983,73.8332167,513.9,22.78421052631579,95,32.126315789473686,156.34736842105264,169.0,-72.0,171.0,1
1725105226,18.5633983,73.8332167,513.9,22.055319148936167,94,32.37234042553192,156.63829787234042,-177.0,-60.0,189.0,1
1725105227,18.5633983,73.8332167,513.9,20.88421052631579,95,32.189473684210526,157.01052631578946,-178.0,-48.0,187.0,1
1725105228,18.5633983,73.8332167,513.9,19.546315789473685,95,31.726315789473684,156.02105263157895,-178.0,-46.0,187.0,1
1725105229,18.5633983,73.8332167,513.9,19.702105263157897,95,31.652631578947368,155.43157894736842,-177.0,-43.0,187.0,1
1725105230,18.5633983333,73.8332166667,513.9,19.361538461538462,91,32.05494505494506,152.8021978021978,-177.0,-38.0,186.0,1
1725105231,18.5633983,73.8332167,513.9,18.794505494505493,91,32.05494505494506,152.8021978021978,-177.0,-38.0,184.0,1
1725105232,18.5633983,73.8332167,513.9,18.577173913043477,92,31.967391304347824,154.6304347826087,-177.0,-42.0,184.0,1
1725105233,18.5633983,73.8332167,513.9,18.606521739130436,92,31.72826086956522,154.8804347826087,-177.0,-43.0,183.0,1
1725105234,18.5633983,73.8332167,513.9,18.729347826086954,92,31.73913043478261,154.8804347826087,-179.0,-37.0,181.0,1
1725105235,18.5633983333,73.8332166667,513.9,20.861290322580647,93,32.096774193548384,156.55913978494624,179.0,-37.0,179.0,1
1725105236,18.5633983,73.8332167,513.9,21.570526315789472,95,31.810526315789474,158.4842105263158,179.0,-37.0,179.0,1
1725105237,18.5633983333,73.8332166667,513.9,21.77319587628866,97,31.54639175257732,159.02061855670104,179.0,-37.0,180.0,1
1725105238,18.5633983,73.8332167,513.9,22.3875,96,31.604166666666668,157.33333333333334,179.0,-37.0,180.0,1
1725105239,18.5633983,73.8332167,513.9,22.610416666666666,96,31.21875,155.78125,179.0,-37.0,180.0,1
1725105240,18.5633983,73.8332167,513.9,22.537499999999998,96,31.145833333333332,155.66666666666666,179.0,-37.0,180.0,1
1725105241,18.5633983333,73.8332166667,513.9,22.68191489361702,94,31.393617021276597,154.19148936170214,179.0,-37.0,180.0,1
1725105242,18.5633983,73.8332167,513.9,22.665263157894735,95,31.021052631578947,154.05263157894737,179.0,-37.0,180.0,1
1725105243,18.5633983333,73.8332166667,513.9,22.71157894736842,95,31.021052631578947,154.05263157894737,179.0,-37.0,179.0,1
1725105244,18.5633983,73.8332167,513.9,22.55744680851064,94,31.21276595744681,154.31914893617022,179.0,-37.0,180.0,1
1725105245,18.5633983,73.8332167,513.9,23.065591397849463,93,31.483870967741936,154.90322580645162,179.0,-37.0,179.0,1
1725105246,18.5633983,73.8332167,513.9,23.646236559139783,93,31.989247311827956,154.34408602150538,179.0,-37.0,179.0,1
1725105247,18.5633983333,73.8332166667,513.9,23.447311827956987,93,31.989247311827956,154.34408602150538,179.0,-37.0,179.0,1
1725105248,18.5633983333,73.8332166667,513.9,23.492553191489364,94,32.287234042553195,154.38297872340425,179.0,-37.0,180.0,1
1725105249,18.5633983,73.8332167,513.9,23.488297872340425,94,32.287234042553195,154.38297872340425,179.0,-37.0,180.0,1
1725105250,18.5633983333,73.8332166667,513.9,23.524468085106385,94,32.297872340425535,154.37234042553192,179.0,-37.0,180.0,1
1725105251,18.5633983333,73.8332166667,513.9,23.5,94,32.308510638297875,154.38297872340425,179.0,-37.0,180.0,1
1725105252,18.5633983,73.8332167,513.9,23.571578947368423,95,32.31578947368421,156.25263157894736,179.0,-37.0,180.0,1
1725105253,18.5633983333,73.8332166667,513.9,23.632631578947368,95,32.31578947368421,156.25263157894736,179.0,-37.0,180.0,1
1725105254,18.5633983333,73.8332166667,513.9,23.85473684210526,95,32.31578947368421,156.25263157894736,179.0,-37.0,180.0,1
1725105255,18.5633983333,73.8332166667,513.9,23.74526315789474,95,32.31578947368421,156.25263157894736,179.0,-37.0,180.0,1
1725105256,18.5633983,73.8332167,513.9,23.83894736842105,95,32.242105263157896,156.43157894736842,179.0,-37.0,180.0,1
1725105257,18.5633983,73.8332167,513.9,23.736842105263158,95,32.242105263157896,156.43157894736842,179.0,-37.0,179.0,1
1725105258,18.5633983,73.8332167,513.9,23.869473684210526,95,32.16842105263158,156.22105263157894,179.0,-37.0,180.0,1
1725105259,18.5633983,73.8332167,513.9,23.64526315789474,95,32.16842105263158,156.22105263157894,179.0,-37.0,180.0,1
1725105260,18.5633983,73.8332167,513.9,23.583157894736843,95,32.463157894736845,156.02105263157895,179.0,-37.0,180.0,1
1725105261,18.5633983,73.8332167,513.9,23.72421052631579,95,32.463157894736845,156.02105263157895,179.0,-37.0,180.0,1
1725105262,18.5633983,73.8332167,513.9,23.67263157894737,95,32.463157894736845,156.02105263157895,179.0,-37.0,180.0,1
1725105263,18.5633983,73.8332167,513.9,23.73578947368421,95,32.463157894736845,156.02105263157895,179.0,-37.0,180.0,1
1725105264,18.5633983333,73.8332166667,513.9,23.779999999999998,95,32.463157894736845,156.02105263157895,179.0,-37.0,180.0,1
1725105265,18.5633983,73.8332167,513.9,23.778947368421054,95,32.463157894736845,156.01052631578946,179.0,-37.0,180.0,1
1725105266,18.5633983,73.8332167,513.9,23.806315789473683,95,32.23157894736842,156.25263157894736,179.0,-37.0,179.0,1
1725105267,18.5633983,73.8332167,513.9,23.736842105263158,95,32.23157894736842,156.25263157894736,179.0,-37.0,179.0,1
1725105268,18.5633983,73.8332167,513.9,23.771578947368422,95,31.821052631578947,157.6315789473684,179.0,-37.0,180.0,1
1725105269,18.5633983,73.8332167,513.9,23.75263157894737,95,31.821052631578947,157.6315789473684,179.0,-37.0,180.0,1
1725105270,18.5633983,73.8332167,513.9,23.766315789473687,95,31.431578947368422,156.06315789473683,179.0,-37.0,179.0,1
1725105271,18.5633983333,73.8332166667,513.9,23.667368421052632,95,31.431578947368422,156.06315789473683,179.0,-37.0,180.0,1
1725105272,18.5633983,73.8332167,513.9,23.606315789473683,95,31.431578947368422,156.05263157894737,179.0,-37.0,180.0,1
1725105273,18.5633983,73.8332167,513.9,23.633684210526315,95,31.45263157894737,155.98947368421054,179.0,-37.0,180.0,1
1725105274,18.5633983,73.8332167,513.9,23.617894736842103,95,31.473684210526315,156.01052631578946,179.0,-37.0,180.0,1
1725105275,18.5633983333,73.8332166667,513.9,23.62,95,31.08421052631579,153.37894736842105,179.0,-37.0,180.0,1
1725105276,18.5633983,73.8332167,513.9,23.50736842105263,95,31.08421052631579,153.37894736842105,179.0,-37.0,180.0,1
1725105277,18.5633983,73.8332167,513.9,23.609473684210528,95,30.894736842105264,150.6315789473684,179.0,-37.0,180.0,1
1725105278,18.5633983333,73.8332166667,513.9,23.54315789473684,95,30.905263157894737,150.62105263157895,179.0,-37.0,180.0,1
1725105279,18.5633983,73.8332167,513.9,23.43894736842105,95,30.8,149.6421052631579,179.0,-37.0,180.0,1
1725105280,18.5633983,73.8332167,513.9,23.39578947368421,95,30.8,149.6421052631579,179.0,-37.0,180.0,1
1725105281,18.5633983,73.8332167,513.9,23.255789473684214,95,30.8,149.6421052631579,179.0,-37.0,180.0,1
1725105282,18.5633983,73.8332167,513.9,23.44105263157895,95,30.8,149.6421052631579,179.0,-37.0,180.0,1
1725105283,18.5633983333,73.8332166667,513.9,23.442105263157895,95,30.8,149.6421052631579,179.0,-37.0,180.0,1
1725105284,18.5633983,73.8332167,513.9,23.64421052631579,95,30.8,149.6421052631579,179.0,-37.0,179.0,1
1725105285,18.5633983,73.8332167,513.9,23.54105263157895,95,31.010526315789473,152.4,179.0,-37.0,179.0,1
1725105286,18.5633983,73.8332167,513.9,23.58,95,31.010526315789473,152.3578947368421,179.0,-37.0,180.0,1
1725105287,18.5633983,73.8332167,513.9,23.637894736842103,95,31.010526315789473,152.3578947368421,179.0,-37.0,180.0,1
1725105288,18.5633983,73.8332167,513.9,23.56736842105263,95,31.705263157894738,154.56842105263158,179.0,-37.0,180.0,1
1725105289,18.5633983,73.8332167,513.9,23.544210526315787,95,31.705263157894738,154.56842105263158,179.0,-37.0,180.0,1
1725105290,18.5633983333,73.8332166667,513.9,23.570526315789472,95,32.38947368421053,156.16842105263157,179.0,-37.0,179.0,1
1725105291,18.5633983,73.8332167,513.9,23.68631578947368,95,32.37894736842105,156.1578947368421,179.0,-37.0,180.0,1
1725105292,18.5633983,73.8332167,513.9,23.282105263157895,95,32.37894736842105,156.1578947368421,179.0,-37.0,180.0,1
1725105293,18.5633983333,73.8332166667,513.9,23.61578947368421,95,32.37894736842105,156.1578947368421,179.0,-37.0,180.0,1
1725105294,18.5633983333,73.8332166667,513.9,23.677894736842106,95,32.37894736842105,156.1578947368421,179.0,-37.0,180.0,1
1725105295,18.5633983333,73.8332166667,513.9,23.61578947368421,95,32.37894736842105,156.1578947368421,179.0,-37.0,180.0,1
1725105296,18.5633983,73.8332167,513.9,23.489473684210527,95,32.357894736842105,156.13684210526316,179.0,-37.0,180.0,1
1725105297,18.5633983,73.8332167,513.9,23.570526315789472,95,32.28421052631579,156.29473684210527,179.0,-37.0,180.0,1
1725105298,18.5633983333,73.8332166667,513.9,23.667368421052632,95,32.28421052631579,156.29473684210527,179.0,-37.0,180.0,1
1725105299,18.5633983333,73.8332166667,513.9,23.45263157894737,95,32.21052631578947,156.07368421052632,179.0,-37.0,180.0,1
1725105300,18.5633983,73.8332167,513.9,23.56105263157895,95,32.21052631578947,156.07368421052632,179.0,-37.0,180.0,1
1725105301,18.5633983333,73.8332166667,513.9,23.461052631578948,95,32.2,156.07368421052632,179.0,-37.0,180.0,1
1725105302,18.5633983,73.8332167,513.9,23.582291666666666,96,31.864583333333332,155.57291666666666,179.0,-37.0,179.0,1
1725105303,18.5633983,73.8332167,513.9,23.528125,96,32.15625,155.375,179.0,-37.0,179.0,1
1725105304,18.5633983,73.8332167,513.9,23.46666666666667,96,32.15625,155.375,179.0,-37.0,180.0,1
1725105305,18.5633983,73.8332167,513.9,23.459374999999998,96,32.15625,155.375,179.0,-37.0,179.0,1
1725105306,18.5633983333,73.8332166667,513.9,23.420833333333334,96,31.927083333333332,155.61458333333334,179.0,-37.0,180.0,1
1725105307,18.5633983333,73.8332166667,513.9,23.483333333333334,96,31.927083333333332,155.61458333333334,179.0,-37.0,180.0,1
1725105308,18.5633983,73.8332167,513.9,23.3625,96,31.520833333333332,156.97916666666666,179.0,-37.0,179.0,1
1725105309,18.5633983,73.8332167,513.9,23.490624999999998,96,31.510416666666668,156.97916666666666,179.0,-37.0,180.0,1
1725105310,18.5633983,73.8332167,513.9,23.441666666666666,96,31.510416666666668,156.97916666666666,179.0,-37.0,180.0,1
1725105311,18.5633983,73.8332167,513.9,23.498947368421053,95,31.48421052631579,155.1263157894737,179.0,-37.0,179.0,1
1725105312,18.5633983,73.8332167,513.9,23.57894736842105,95,31.094736842105263,153.55789473684212,179.0,-37.0,180.0,1
1725105313,18.5633983,73.8332167,513.9,23.444791666666664,96,31.125,155.46875,179.0,-37.0,180.0,1
1725105314,18.5633983,73.8332167,513.9,23.58125,96,31.125,155.46875,179.0,-37.0,180.0,1
1725105315,18.5633983,73.8332167,513.9,23.432291666666668,96,31.135416666666668,155.46875,179.0,-37.0,180.0,1
1725105316,18.5633983333,73.8332166667,513.9,23.413541666666664,96,30.75,152.86458333333334,179.0,-37.0,180.0,1
1725105317,18.5633983,73.8332167,513.9,23.483333333333334,96,30.552083333333332,150.13541666666666,179.0,-37.0,180.0,1
1725105318,18.5633983333,73.8332166667,513.9,23.523958333333336,96,30.552083333333332,150.14583333333334,179.0,-37.0,180.0,1
1725105319,18.5633983,73.8332167,513.9,23.671578947368424,95,30.842105263157894,150.57894736842104,179.0,-37.0,180.0,1
1725105320,18.5633983,73.8332167,513.9,23.658947368421053,95,30.842105263157894,150.56842105263158,179.0,-37.0,180.0,1
1725105321,18.5633983,73.8332167,513.9,23.614736842105263,95,30.821052631578947,150.54736842105262,179.0,-37.0,180.0,1
1725105322,18.5633983333,73.8332166667,513.9,23.67263157894737,95,30.705263157894738,149.55789473684212,179.0,-37.0,180.0,1
1725105323,18.5633983,73.8332167,513.9,23.71157894736842,95,30.705263157894738,149.55789473684212,179.0,-37.0,179.0,1
1725105324,18.5633983,73.8332167,513.9,23.756842105263157,95,30.705263157894738,149.55789473684212,179.0,-37.0,180.0,1
1725105325,18.5633983333,73.8332166667,513.9,23.68421052631579,95,30.705263157894738,149.55789473684212,179.0,-37.0,180.0,1
1725105326,18.5633983,73.8332167,513.9,23.73894736842105,95,30.705263157894738,149.55789473684212,179.0,-37.0,180.0,1
1725105327,18.5633983333,73.8332166667,513.9,23.76421052631579,95,30.705263157894738,149.55789473684212,179.0,-37.0,180.0,1
1725105328,18.5633983333,73.8332166667,513.9,23.63157894736842,95,30.705263157894738,149.57894736842104,179.0,-37.0,179.0,1
1725105329,18.5633983,73.8332167,513.9,23.59263157894737,95,30.705263157894738,149.57894736842104,179.0,-37.0,180.0,1
1725105330,18.5633983,73.8332167,513.9,23.41157894736842,95,30.68421052631579,149.55789473684212,179.0,-37.0,179.0,1
1725105331,18.5633983333,73.8332166667,513.9,23.486315789473682,95,30.68421052631579,149.55789473684212,179.0,-37.0,179.0,1
1725105332,18.5633983,73.8332167,513.9,23.294736842105262,95,30.4,146.17894736842106,179.0,-37.0,180.0,1
1725105333,18.5633983333,73.8332166667,513.9,23.45263157894737,95,30.68421052631579,149.55789473684212,179.0,-37.0,179.0,1
1725105334,18.5633983333,73.8332166667,513.9,23.453684210526315,95,30.68421052631579,149.55789473684212,179.0,-37.0,179.0,1
1725105335,18.5633983,73.8332167,513.9,23.670526315789473,95,30.894736842105264,152.31578947368422,179.0,-37.0,180.0,1
1725105336,18.5633983,73.8332167,513.9,23.917894736842104,95,30.894736842105264,152.31578947368422,179.0,-37.0,180.0,1
1725105337,18.5633983,73.8332167,513.9,23.846315789473685,95,30.894736842105264,152.31578947368422,179.0,-37.0,180.0,1
1725105338,18.5633983,73.8332167,513.9,23.95263157894737,95,30.873684210526317,152.33684210526314,179.0,-37.0,180.0,1
1725105339,18.5633983333,73.8332166667,513.9,23.871578947368423,95,30.873684210526317,152.33684210526314,179.0,-37.0,180.0,1
1725105340,18.5633983333,73.8332166667,513.9,23.965263157894736,95,32.27368421052632,156.14736842105262,179.0,-37.0,179.0,1
1725105341,18.5633983,73.8332167,513.9,23.88421052631579,95,32.27368421052632,156.14736842105262,179.0,-37.0,179.0,1
1725105342,18.5633983,73.8332167,513.9,23.942105263157895,95,32.27368421052632,156.14736842105262,179.0,-37.0,180.0,1
1725105343,18.5633983,73.8332167,513.9,23.87263157894737,95,32.27368421052632,156.14736842105262,179.0,-37.0,179.0,1
1725105344,18.5633983,73.8332167,513.9,23.877894736842105,95,32.27368421052632,156.14736842105262,179.0,-37.0,180.0,1
1725105345,18.5633983,73.8332167,513.9,23.702083333333334,96,31.947916666666668,157.75,179.0,-37.0,179.0,1
1725105346,18.5633983,73.8332167,513.9,23.723958333333332,96,31.9375,157.77083333333334,179.0,-37.0,180.0,1
1725105347,18.5633983333,73.8332166667,513.9,23.777083333333334,96,31.9375,157.80208333333334,179.0,-37.0,179.0,1
1725105348,18.5633983,73.8332167,513.9,23.675,96,31.947916666666668,157.8125,179.0,-37.0,179.0,1
1725105349,18.5633983,73.8332167,513.9,23.704166666666666,96,31.802083333333332,157.77083333333334,179.0,-37.0,180.0,1
1725105350,18.5633983,73.8332167,513.9,23.641666666666666,96,31.802083333333332,157.77083333333334,179.0,-37.0,180.0,1
1725105351,18.5633983,73.8332167,513.9,23.289583333333336,96,31.802083333333332,157.77083333333334,179.0,-37.0,180.0,1
1725105352,18.5633983,73.8332167,513.9,23.425,96,31.802083333333332,157.77083333333334,179.0,-37.0,179.0,1
1725105353,18.5633983,73.8332167,513.9,23.471875,96,32.09375,157.57291666666666,179.0,-37.0,180.0,1
1725105354,18.5633983,73.8332167,513.9,23.344791666666666,96,32.09375,157.57291666666666,179.0,-37.0,180.0,1
1725105355,18.5633983,73.8332167,513.9,23.333333333333332,96,32.09375,157.57291666666666,179.0,-37.0,179.0,1
1725105356,18.5633983,73.8332167,513.9,23.444791666666664,96,32.09375,157.57291666666666,179.0,-37.0,180.0,1
1725105357,18.5633983333,73.8332166667,513.9,23.489583333333332,96,32.072916666666664,157.58333333333334,179.0,-37.0,179.0,1
1725105358,18.5633983,73.8332167,513.9,23.226041666666664,96,31.427083333333332,159.19791666666666,179.0,-37.0,180.0,1
1725105359,18.5633983,73.8332167,513.9,23.397916666666664,96,31.4375,159.21875,179.0,-37.0,180.0,1
1725105360,18.5633983,73.8332167,513.9,23.353125000000002,96,31.4375,159.21875,179.0,-37.0,180.0,1
1725105361,18.5633983,73.8332167,513.9,23.527083333333334,96,31.4375,159.21875,179.0,-37.0,180.0,1
1725105362,18.5633983,73.8332167,513.9,23.31855670103093,97,31.24742268041237,158.90721649484536,179.0,-37.0,180.0,1
1725105363,18.5633983333,73.8332166667,513.9,23.3,97,30.8659793814433,157.37113402061857,179.0,-37.0,180.0,1
1725105364,18.5633983333,73.8332166667,513.9,23.25360824742268,97,30.8659793814433,157.37113402061857,179.0,-37.0,180.0,1
1725105365,18.5633983333,73.8332166667,513.9,23.464948453608248,97,30.8659793814433,157.37113402061857,179.0,-37.0,180.0,1
1725105366,18.5633983333,73.8332166667,513.9,23.490721649484534,97,30.8659793814433,157.37113402061857,179.0,-37.0,180.0,1
1725105367,18.5633983,73.8332167,513.9,23.601041666666664,96,31.052083333333332,157.66666666666666,179.0,-37.0,179.0,1
1725105368,18.5633983333,73.8332166667,513.9,23.573195876288658,97,31.175257731958762,156.95876288659792,179.0,-37.0,180.0,1
1725105369,18.5633983,73.8332167,513.9,23.543298969072165,97,31.175257731958762,156.95876288659792,179.0,-37.0,180.0,1
1725105370,18.5633983333,73.8332166667,513.9,23.608247422680414,97,31.175257731958762,156.95876288659792,179.0,-37.0,179.0,1
1725105371,18.5633983,73.8332167,513.9,23.60721649484536,97,31.175257731958762,156.95876288659792,179.0,-37.0,180.0,1
1725105372,18.5633983,73.8332167,513.9,23.599999999999998,97,31.7319587628866,157.55670103092783,179.0,-37.0,179.0,1
1725105373,18.5633983,73.8332167,513.9,23.47422680412371,97,31.7319587628866,157.55670103092783,179.0,-37.0,179.0,1
1725105374,18.5633983333,73.8332166667,513.9,23.41443298969072,97,31.7319587628866,157.55670103092783,179.0,-37.0,180.0,1
1725105375,18.5633983,73.8332167,513.9,23.503092783505156,97,31.7319587628866,157.55670103092783,179.0,-37.0,180.0,1
1725105376,18.5633983,73.8332167,513.9,23.523711340206187,97,31.742268041237114,157.55670103092783,179.0,-37.0,180.0,1
1725105377,18.5633983,73.8332167,513.9,23.65416666666667,96,31.9375,157.86458333333334,179.0,-37.0,179.0,1
1725105378,18.5633983,73.8332167,513.9,23.598958333333332,96,31.864583333333332,158.04166666666666,179.0,-37.0,180.0,1
1725105379,18.5633983,73.8332167,513.9,23.471134020618553,97,31.670103092783506,157.7422680412371,179.0,-37.0,180.0,1
1725105380,18.5633983333,73.8332166667,513.9,23.624742268041235,97,31.670103092783506,157.7319587628866,179.0,-37.0,180.0,1
1725105381,18.5633983333,73.8332166667,513.9,23.54226804123711,97,31.670103092783506,157.7319587628866,179.0,-37.0,179.0,1
1725105382,18.5633983,73.8332167,513.9,23.468041237113404,97,31.587628865979383,157.5257731958763,179.0,-37.0,180.0,1
1725105383,18.5633983333,73.8332166667,513.9,23.50618556701031,97,31.5979381443299,157.56701030927834,179.0,-37.0,180.0,1
1725105384,18.5633983333,73.8332166667,513.9,23.52268041237113,97,31.567010309278352,157.56701030927834,179.0,-37.0,179.0,1
1725105385,18.5633983,73.8332167,513.9,23.450515463917522,97,31.567010309278352,157.56701030927834,179.0,-37.0,180.0,1
1725105386,18.5633983333,73.8332166667,513.9,23.535051546391752,97,31.824742268041238,157.37113402061857,179.0,-37.0,179.0,1
1725105387,18.5633983333,73.8332166667,513.9,23.57010309278351,97,31.5979381443299,157.60824742268042,179.0,-37.0,179.0,1
1725105388,18.5633983,73.8332167,513.9,23.61958762886598,97,31.5979381443299,157.60824742268042,179.0,-37.0,180.0,1
1725105389,18.5633983,73.8332167,513.9,23.60618556701031,97,31.5979381443299,157.60824742268042,179.0,-37.0,179.0,1
1725105390,18.5633983,73.8332167,513.9,23.47216494845361,97,31.577319587628867,157.62886597938143,179.0,-37.0,179.0,1
1725105391,18.5633983,73.8332167,513.9,23.572164948453608,97,31.577319587628867,157.62886597938143,179.0,-37.0,179.0,1
1725105392,18.5633983,73.8332167,513.9,23.52783505154639,97,31.185567010309278,158.98969072164948,179.0,-37.0,179.0,1
1725105393,18.5633983,73.8332167,513.9,23.66185567010309,97,31.164948453608247,158.98969072164948,179.0,-37.0,179.0,1
1725105394,18.5633983,73.8332167,513.9,23.444329896907217,97,31.185567010309278,159.03092783505156,179.0,-37.0,179.0,1
1725105395,18.5633983,73.8332167,513.9,23.397938144329895,97,30.783505154639176,157.49484536082474,179.0,-37.0,180.0,1
1725105396,18.5633983,73.8332167,513.9,23.463917525773194,97,30.4020618556701,154.91752577319588,179.0,-37.0,180.0,1
1725105397,18.5633983,73.8332167,513.9,23.437113402061858,97,30.4020618556701,154.91752577319588,179.0,-37.0,179.0,1
1725105398,18.5633983,73.8332167,513.9,23.329896907216494,97,30.4020618556701,154.91752577319588,179.0,-37.0,180.0,1
1725105399,18.5633983,73.8332167,513.9,23.307216494845363,97,30.4020618556701,154.91752577319588,179.0,-37.0,179.0,1
1725105400,18.5633983,73.8332167,513.9,23.29175257731959,97,30.412371134020617,154.91752577319588,179.0,-37.0,180.0,1
1725105401,18.5633983,73.8332167,513.9,23.42886597938144,97,30.216494845360824,152.2164948453608,179.0,-37.0,180.0,1
1725105402,18.5633983333,73.8332166667,513.9,23.529896907216497,97,30.237113402061855,152.23711340206185,179.0,-37.0,180.0,1
1725105403,18.5633983,73.8332167,513.9,23.545360824742268,97,30.237113402061855,152.22680412371133,179.0,-37.0,180.0,1
1725105404,18.5633983,73.8332167,513.9,23.49278350515464,97,30.123711340206185,151.2577319587629,179.0,-37.0,179.0,1
1725105405,18.5633983,73.8332167,513.9,23.540206185567012,97,30.123711340206185,151.2577319587629,179.0,-37.0,180.0,1
1725105406,18.5633983,73.8332167,513.9,23.562886597938142,97,30.123711340206185,151.2577319587629,179.0,-37.0,180.0,1
1725105407,18.5633983,73.8332167,513.9,23.680208333333336,96,30.364583333333332,151.78125,179.0,-37.0,179.0,1
1725105408,18.5633983,73.8332167,513.9,23.670833333333334,96,30.364583333333332,151.80208333333334,179.0,-37.0,180.0,1
1725105409,18.5633983,73.8332167,513.9,23.576288659793814,97,30.329896907216494,153.95876288659792,179.0,-37.0,180.0,1
1725105410,18.5633983,73.8332167,513.9,23.624742268041235,97,31.02061855670103,156.1340206185567,179.0,-37.0,180.0,1
1725105411,18.5633983,73.8332167,513.9,23.576288659793814,97,31.0,156.1958762886598,179.0,-37.0,180.0,1
1725105412,18.5633983,73.8332167,513.9,23.47938144329897,97,31.0,156.18556701030928,179.0,-37.0,179.0,1
1725105413,18.5633983,73.8332167,513.9,23.47938144329897,97,31.0,156.18556701030928,179.0,-37.0,180.0,1
1725105414,18.5633983,73.8332167,513.9,23.595876288659795,97,31.670103092783506,157.75257731958763,179.0,-37.0,180.0,1
1725105415,18.5633983333,73.8332166667,513.9,23.625773195876288,97,31.670103092783506,157.75257731958763,179.0,-37.0,179.0,1
1725105416,18.5633983333,73.8332166667,513.9,23.576288659793814,97,31.670103092783506,157.75257731958763,179.0,-37.0,180.0,1
1725105417,18.5633983,73.8332167,513.9,23.702083333333334,96,31.947916666666668,158.34375,179.0,-37.0,180.0,1
1725105418,18.5633983,73.8332167,513.9,23.711458333333336,96,31.947916666666668,158.34375,179.0,-37.0,180.0,1
1725105419,18.5633983,73.8332167,513.9,23.734375,96,31.875,158.52083333333334,179.0,-37.0,179.0,1
1725105420,18.5633983,73.8332167,513.9,23.610416666666666,96,31.875,158.52083333333334,179.0,-37.0,180.0,1
1725105421,18.5633983,73.8332167,513.9,23.90833333333333,96,31.875,158.52083333333334,179.0,-37.0,180.0,1
1725105422,18.5633983333,73.8332166667,513.9,23.934375,96,31.875,158.52083333333334,179.0,-37.0,180.0,1
1725105423,18.5633983,73.8332167,513.9,23.885416666666668,96,31.802083333333332,158.30208333333334,179.0,-37.0,180.0,1
1725105424,18.5633983,73.8332167,513.9,23.910416666666666,96,31.802083333333332,158.30208333333334,179.0,-37.0,179.0,1
1725105425,18.5633983333,73.8332166667,513.9,23.82604166666667,96,31.802083333333332,158.30208333333334,179.0,-37.0,180.0,1
1725105426,18.5633983,73.8332167,513.9,23.787499999999998,96,31.8125,158.30208333333334,179.0,-37.0,180.0,1
1725105427,18.5633983,73.8332167,513.9,23.729166666666668,96,32.114583333333336,158.10416666666666,179.0,-37.0,179.0,1
1725105428,18.5633983,73.8332167,513.9,23.759375000000002,96,31.885416666666668,158.35416666666666,179.0,-37.0,180.0,1
1725105429,18.5633983,73.8332167,513.9,23.663541666666664,96,31.885416666666668,158.35416666666666,179.0,-37.0,179.0,1
1725105430,18.5633983,73.8332167,513.9,23.727083333333336,96,31.885416666666668,158.35416666666666,179.0,-37.0,179.0,1
1725105431,18.5633983,73.8332167,513.9,23.726041666666664,96,31.885416666666668,158.35416666666666,179.0,-37.0,180.0,1
1725105432,18.5633983,73.8332167,513.9,23.741666666666664,96,31.479166666666668,159.71875,179.0,-37.0,180.0,1
1725105433,18.5633983,73.8332167,513.9,23.802083333333332,96,31.479166666666668,159.71875,179.0,-37.0,180.0,1
1725105434,18.5633983,73.8332167,513.9,23.693749999999998,96,31.489583333333332,159.71875,179.0,-37.0,179.0,1
1725105435,18.5633983,73.8332167,513.9,23.7625,96,31.489583333333332,159.71875,179.0,-37.0,180.0,1
1725105436,18.5633983333,73.8332166667,513.9,23.6875,96,31.489583333333332,159.71875,179.0,-37.0,180.0,1
1725105437,18.5633983,73.8332167,513.9,23.797916666666666,96,30.71875,155.5625,179.0,-37.0,180.0,1
1725105438,18.5633983333,73.8332166667,513.9,23.707291666666666,96,30.71875,155.5625,179.0,-37.0,179.0,1
1725105439,18.5633983,73.8332167,513.9,23.608333333333334,96,30.71875,155.5625,179.0,-37.0,180.0,1
1725105440,18.5633983,73.8332167,513.9,23.710416666666664,96,30.71875,155.5625,179.0,-37.0,180.0,1
1725105441,18.5633983,73.8332167,513.9,23.702083333333334,96,30.520833333333332,152.82291666666666,179.0,-37.0,179.0,1
1725105442,18.5633983,73.8332167,513.9,23.730208333333334,96,30.520833333333332,152.82291666666666,179.0,-37.0,180.0,1
1725105443,18.5633983,73.8332167,513.9,23.804166666666664,96,30.520833333333332,152.82291666666666,179.0,-37.0,179.0,1
1725105444,18.5633983,73.8332167,513.9,23.680208333333336,96,30.520833333333332,152.82291666666666,179.0,-37.0,179.0,1
1725105445,18.5633983,73.8332167,513.9,23.764583333333334,96,30.520833333333332,152.82291666666666,179.0,-37.0,179.0,1
1725105446,18.5633983333,73.8332166667,513.9,23.532291666666666,96,30.40625,151.84375,179.0,-37.0,179.0,1
1725105447,18.5633983333,73.8332166667,513.9,23.63854166666667,96,30.40625,151.84375,179.0,-37.0,179.0,1
1725105448,18.5633983333,73.8332166667,513.9,23.646874999999998,96,30.395833333333332,151.82291666666666,179.0,-37.0,180.0,1
1725105449,18.5633983,73.8332167,513.9,23.76875,96,30.416666666666668,151.73958333333334,179.0,-37.0,179.0,1
1725105450,18.5633983,73.8332167,513.9,23.663541666666664,96,30.4375,151.76041666666666,179.0,-37.0,180.0,1
1725105451,18.5633983,73.8332167,513.9,23.599999999999998,96,30.4375,151.76041666666666,179.0,-37.0,180.0,1
1725105452,18.5633983,73.8332167,513.9,23.586458333333336,96,30.4375,151.76041666666666,179.0,-37.0,180.0,1
1725105453,18.5633983,73.8332167,513.9,23.653125,96,30.447916666666668,151.77083333333334,179.0,-37.0,179.0,1
1725105454,18.5633983,73.8332167,513.9,23.422916666666666,96,30.447916666666668,151.76041666666666,179.0,-37.0,180.0,1
1725105455,18.5633983,73.8332167,513.9,23.462500000000002,96,30.458333333333332,151.77083333333334,179.0,-37.0,179.0,1
1725105456,18.5633983,73.8332167,513.9,23.557291666666668,96,30.458333333333332,151.77083333333334,179.0,-37.0,179.0,1
1725105457,18.5633983,73.8332167,513.9,23.45104166666667,96,30.458333333333332,151.77083333333334,179.0,-37.0,180.0,1
1725105458,18.5633983,73.8332167,513.9,23.401041666666668,96,30.458333333333332,151.77083333333334,179.0,-37.0,180.0,1
1725105459,18.5633983,73.8332167,513.9,23.764583333333334,96,30.666666666666668,154.5,179.0,-37.0,180.0,1
1725105460,18.5633983,73.8332167,513.9,23.691666666666666,96,30.666666666666668,154.5,179.0,-37.0,179.0,1
1725105461,18.5633983,73.8332167,513.9,23.758333333333336,96,30.666666666666668,154.5,179.0,-37.0,179.0,1
1725105462,18.5633983,73.8332167,513.9,23.704166666666666,96,31.354166666666668,156.65625,179.0,-37.0,179.0,1
1725105463,18.5633983333,73.8332166667,513.9,23.3875,96,31.354166666666668,156.65625,179.0,-37.0,180.0,1
1725105464,18.5633983333,73.8332166667,513.9,23.444791666666664,96,31.354166666666668,156.65625,179.0,-37.0,180.0,1
1725105465,18.5633983333,73.8332166667,513.9,23.476041666666664,96,32.03125,158.23958333333334,179.0,-37.0,180.0,1
1725105466,18.5633983,73.8332167,513.9,23.339583333333334,96,32.03125,158.23958333333334,179.0,-37.0,180.0,1
1725105467,18.5633983,73.8332167,513.9,23.599999999999998,96,32.03125,158.22916666666666,179.0,-37.0,180.0,1
1725105468,18.5633983,73.8332167,513.9,23.665625000000002,96,32.03125,158.22916666666666,179.0,-37.0,180.0,1
1725105469,18.5633983,73.8332167,513.9,23.645833333333332,96,32.03125,158.22916666666666,179.0,-37.0,179.0,1
1725105470,18.5633983,73.8332167,513.9,23.587500000000002,96,32.03125,158.22916666666666,179.0,-37.0,180.0,1
1725105471,18.5633983333,73.8332166667,513.9,23.53125,96,31.958333333333332,158.40625,179.0,-37.0,180.0,1
1725105472,18.5633983,73.8332167,513.9,23.789583333333336,96,31.9375,158.38541666666666,179.0,-37.0,179.0,1
1725105473,18.5633983,73.8332167,513.9,23.702083333333334,96,31.958333333333332,158.34375,179.0,-37.0,179.0,1
1725105474,18.5633983333,73.8332166667,513.9,23.88,95,32.21052631578947,159.2421052631579,179.0,-37.0,180.0,1
1725105475,18.5633983,73.8332167,513.9,23.94736842105263,95,32.21052631578947,159.2421052631579,179.0,-37.0,180.0,1
1725105476,18.5633983333,73.8332166667,513.9,23.974736842105262,95,32.21052631578947,159.2421052631579,179.0,-37.0,180.0,1
1725105477,18.5633983,73.8332167,513.9,24.051578947368423,95,32.50526315789474,159.05263157894737,179.0,-37.0,179.0,1
1725105478,18.5633983,73.8332167,513.9,24.00421052631579,95,32.50526315789474,159.06315789473683,179.0,-37.0,179.0,1
1725105479,18.5633983,73.8332167,513.9,24.126315789473683,95,32.50526315789474,159.06315789473683,179.0,-37.0,180.0,1
1725105480,18.5633983,73.8332167,513.9,24.065263157894734,95,32.27368421052632,159.30526315789473,179.0,-37.0,180.0,1
1725105481,18.5633983,73.8332167,513.9,24.137894736842103,95,32.27368421052632,159.30526315789473,179.0,-37.0,180.0,1
1725105482,18.5633983,73.8332167,513.9,24.012631578947367,95,32.27368421052632,159.31578947368422,179.0,-37.0,180.0,1
1725105483,18.5633983,73.8332167,513.9,24.01578947368421,95,31.86315789473684,160.69473684210527,179.0,-37.0,180.0,1
1725105484,18.5633983,73.8332167,513.9,24.173684210526314,95,31.86315789473684,160.69473684210527,179.0,-37.0,180.0,1
1725105485,18.5633983333,73.8332166667,513.9,24.222105263157893,95,31.86315789473684,160.69473684210527,179.0,-37.0,179.0,1
1725105486,18.5633983333,73.8332166667,513.9,24.18631578947368,95,31.86315789473684,160.69473684210527,179.0,-37.0,180.0,1
1725105487,18.5633983,73.8332167,513.9,24.13684210526316,95,31.473684210526315,159.1263157894737,179.0,-37.0,179.0,1
1725105488,18.5633983,73.8332167,513.9,24.152631578947368,95,31.473684210526315,159.1263157894737,179.0,-37.0,179.0,1
1725105489,18.5633983,73.8332167,513.9,24.112631578947365,95,31.49473684210526,159.14736842105262,179.0,-37.0,179.0,1
1725105490,18.5633983333,73.8332166667,513.9,24.116666666666664,96,31.270833333333332,160.95833333333334,179.0,-37.0,179.0,1
1725105491,18.5633983333,73.8332166667,513.9,23.895833333333332,96,31.270833333333332,160.97916666666666,179.0,-37.0,179.0,1
1725105492,18.5633983333,73.8332166667,513.9,23.992708333333336,96,31.760416666666668,160.4375,179.0,-37.0,180.0,1
1725105493,18.5633983,73.8332167,513.9,23.823958333333334,96,31.760416666666668,160.4375,179.0,-37.0,180.0,1
1725105494,18.5633983,73.8332167,513.9,23.868750000000002,96,31.770833333333332,160.44791666666666,179.0,-37.0,179.0,1
1725105495,18.5633983333,73.8332166667,513.9,23.863541666666666,96,31.770833333333332,160.42708333333334,179.0,-37.0,179.0,1
1725105496,18.5633983,73.8332167,513.9,23.771874999999998,96,32.322916666666664,161.02083333333334,179.0,-37.0,180.0,1
1725105497,18.5633983,73.8332167,513.9,23.870833333333334,96,32.322916666666664,161.02083333333334,179.0,-37.0,179.0,1
1725105498,18.5633983,73.8332167,513.9,23.815625,96,32.322916666666664,161.02083333333334,179.0,-37.0,180.0,1
1725105499,18.5633983,73.8332167,513.9,23.698958333333334,96,32.322916666666664,161.02083333333334,179.0,-37.0,179.0,1
1725105500,18.5633983,73.8332167,513.9,23.684375,96,32.322916666666664,161.02083333333334,179.0,-37.0,180.0,1
1725105501,18.5633983,73.8332167,513.9,23.85473684210526,95,32.37894736842105,159.32631578947368,179.0,-37.0,180.0,1
1725105502,18.5633983,73.8332167,513.9,23.83894736842105,95,32.305263157894736,159.50526315789475,179.0,-37.0,180.0,1
1725105503,18.5633983,73.8332167,513.9,23.914736842105263,95,32.305263157894736,159.50526315789475,179.0,-37.0,180.0,1
1725105504,18.5633983,73.8332167,513.9,23.7625,96,32.25,161.23958333333334,179.0,-37.0,180.0,1
1725105505,18.5633983,73.8332167,513.9,23.772916666666664,96,32.177083333333336,161.02083333333334,179.0,-37.0,179.0,1
1725105506,18.5633983,73.8332167,513.9,23.68541666666667,96,32.15625,161.0,179.0,-37.0,179.0,1
1725105507,18.5633983333,73.8332166667,513.9,23.995833333333334,96,32.15625,161.0,179.0,-37.0,180.0,1
1725105508,18.5633983,73.8332167,513.9,24.022916666666664,96,32.447916666666664,160.80208333333334,179.0,-37.0,179.0,1
1725105509,18.5633983,73.8332167,513.9,24.099999999999998,96,32.447916666666664,160.80208333333334,179.0,-37.0,179.0,1
1725105510,18.5633983,73.8332167,513.9,24.05,96,32.447916666666664,160.80208333333334,179.0,-37.0,179.0,1
1725105511,18.5633983333,73.8332166667,513.9,24.037499999999998,96,32.21875,161.04166666666666,179.0,-37.0,179.0,1
1725105512,18.5633983333,73.8332166667,513.9,24.007291666666664,96,32.21875,161.04166666666666,179.0,-37.0,179.0,1
1725105513,18.5633983,73.8332167,513.9,24.079166666666666,96,32.21875,161.04166666666666,179.0,-37.0,180.0,1
1725105514,18.5633983,73.8332167,513.9,23.984375,96,32.21875,161.05208333333334,179.0,-37.0,180.0,1
1725105515,18.5633983,73.8332167,513.9,23.675,96,31.8125,162.41666666666666,179.0,-37.0,180.0,1
1725105516,18.5633983,73.8332167,513.9,23.292708333333334,96,31.833333333333332,162.41666666666666,179.0,-37.0,179.0,1
1725105517,18.5633983333,73.8332166667,513.9,23.273958333333336,96,31.447916666666668,160.86458333333334,179.0,-37.0,180.0,1
1725105518,18.5633983333,73.8332166667,513.9,23.2375,96,31.447916666666668,160.86458333333334,179.0,-37.0,180.0,1
1725105519,18.5633983,73.8332167,513.9,23.251041666666666,96,31.447916666666668,160.86458333333334,179.0,-37.0,180.0,1
1725105520,18.5633983333,73.8332166667,513.9,23.428124999999998,96,31.0625,158.26041666666666,179.0,-37.0,180.0,1
1725105521,18.5633983333,73.8332166667,513.9,23.784375,96,31.0625,158.26041666666666,179.0,-37.0,180.0,1
1725105522,18.5633983,73.8332167,513.9,23.932291666666668,96,31.052083333333332,158.27083333333334,179.0,-37.0,180.0,1
1725105523,18.5633983333,73.8332166667,513.9,23.965625,96,31.052083333333332,158.30208333333334,179.0,-37.0,180.0,1
1725105524,18.5633983,73.8332167,513.9,23.905208333333334,96,30.864583333333332,155.58333333333334,179.0,-37.0,180.0,1
1725105525,18.5633983,73.8332167,513.9,23.863541666666666,96,30.864583333333332,155.58333333333334,179.0,-37.0,179.0,1
1725105526,18.5633983333,73.8332166667,513.9,23.911458333333332,96,30.864583333333332,155.58333333333334,179.0,-37.0,180.0,1
1725105527,18.5633983,73.8332167,513.9,23.963541666666668,96,30.75,154.60416666666666,179.0,-37.0,180.0,1
1725105528,18.5633983,73.8332167,513.9,23.82164948453608,97,30.515463917525775,156.3298969072165,179.0,-37.0,180.0,1
1725105529,18.5633983,73.8332167,513.9,23.920618556701033,97,30.515463917525775,156.3298969072165,179.0,-37.0,180.0,1
1725105530,18.5633983,73.8332167,513.9,23.917525773195877,97,30.515463917525775,156.3298969072165,179.0,-37.0,179.0,1
1725105531,18.5633983333,73.8332166667,513.9,23.975257731958763,97,30.515463917525775,156.3298969072165,179.0,-37.0,180.0,1
1725105532,18.5633983333,73.8332166667,513.9,24.229166666666668,96,30.78125,156.89583333333334,179.0,-37.0,180.0,1
1725105533,18.5633983,73.8332167,513.9,24.055670103092783,97,31.391752577319586,161.1958762886598,179.0,-37.0,179.0,1
1725105534,18.5633983333,73.8332166667,513.9,24.0020618556701,97,31.371134020618555,161.1958762886598,179.0,-37.0,180.0,1
1725105535,18.5633983,73.8332167,513.9,24.030927835051546,97,31.38144329896907,161.2164948453608,179.0,-37.0,180.0,1
1725105536,18.5633983333,73.8332166667,513.9,24.043298969072165,97,31.38144329896907,161.2164948453608,179.0,-37.0,180.0,1
1725105537,18.5633983,73.8332167,513.9,24.18958333333333,96,32.104166666666664,161.125,179.0,-37.0,180.0,1
1725105538,18.5633983,73.8332167,513.9,24.098969072164948,97,32.05154639175258,162.7835051546392,179.0,-37.0,180.0,1
1725105539,18.5633983333,73.8332166667,513.9,24.082474226804123,97,32.05154639175258,162.7835051546392,179.0,-37.0,179.0,1
1725105540,18.5633983,73.8332167,513.9,24.010309278350515,97,32.05154639175258,162.7835051546392,179.0,-37.0,180.0,1
1725105541,18.5633983,73.8332167,513.9,23.991752577319584,97,32.05154639175258,162.7835051546392,179.0,-37.0,179.0,1
1725105542,18.5633983333,73.8332166667,513.9,24.16701030927835,97,31.97938144329897,162.95876288659792,179.0,-37.0,179.0,1
1725105543,18.5633983,73.8332167,513.9,24.33298969072165,97,31.97938144329897,162.95876288659792,179.0,-37.0,180.0,1
1725105544,18.5633983,73.8332167,513.9,24.285567010309276,97,31.97938144329897,162.95876288659792,179.0,-37.0,180.0,1
1725105545,18.5633983,73.8332167,513.9,24.289690721649485,97,31.97938144329897,162.95876288659792,179.0,-37.0,180.0,1
1725105546,18.5633983,73.8332167,513.9,24.27422680412371,97,31.90721649484536,162.7422680412371,179.0,-37.0,179.0,1
1725105547,18.5633983333,73.8332166667,513.9,24.383333333333336,96,31.958333333333332,161.08333333333334,179.0,-37.0,179.0,1
1725105548,18.5633983333,73.8332166667,513.9,24.361855670103093,97,31.90721649484536,162.7422680412371,179.0,-37.0,179.0,1
1725105549,18.5633983333,73.8332166667,513.9,24.348453608247425,97,31.90721649484536,162.7422680412371,179.0,-37.0,180.0,1
1725105550,18.5633983333,73.8332166667,513.9,24.060824742268043,97,31.90721649484536,162.7422680412371,179.0,-37.0,180.0,1
1725105551,18.5633983333,73.8332166667,513.9,24.229896907216496,97,31.896907216494846,162.75257731958763,179.0,-37.0,180.0,1
1725105552,18.5633983,73.8332167,513.9,24.347422680412368,97,31.95876288659794,162.79381443298968,179.0,-37.0,180.0,1
1725105553,18.5633983,73.8332167,513.9,24.261855670103095,97,31.948453608247423,162.79381443298968,179.0,-37.0,179.0,1
1725105554,18.5633983,73.8332167,513.9,24.18144329896907,97,31.948453608247423,162.8041237113402,179.0,-37.0,179.0,1
1725105555,18.5633983,73.8332167,513.9,24.326804123711337,97,31.556701030927837,164.15463917525773,179.0,-37.0,179.0,1
1725105556,18.5633983333,73.8332166667,513.9,24.235051546391755,97,31.556701030927837,164.1443298969072,179.0,-37.0,180.0,1
1725105557,18.5633983,73.8332167,513.9,24.22577319587629,97,31.556701030927837,164.1443298969072,179.0,-37.0,179.0,1
1725105558,18.5633983333,73.8332166667,513.9,24.176288659793812,97,31.556701030927837,164.1443298969072,179.0,-37.0,180.0,1
1725105559,18.5633983,73.8332167,513.9,24.244329896907214,97,31.567010309278352,164.17525773195877,179.0,-37.0,180.0,1
1725105560,18.5633983,73.8332167,513.9,24.33917525773196,97,31.54639175257732,164.17525773195877,179.0,-37.0,180.0,1
1725105561,18.5633983,73.8332167,513.9,24.216494845360824,97,31.54639175257732,164.18556701030928,179.0,-37.0,180.0,1
1725105562,18.5633983,73.8332167,513.9,23.822680412371135,97,30.762886597938145,160.0721649484536,179.0,-37.0,180.0,1
1725105563,18.5633983,73.8332167,513.9,23.74020618556701,97,30.75257731958763,160.08247422680412,179.0,-37.0,179.0,1
1725105564,18.5633983,73.8332167,513.9,23.836082474226803,97,30.556701030927837,157.38144329896906,179.0,-37.0,180.0,1
1725105565,18.5633983,73.8332167,513.9,22.503092783505156,97,30.556701030927837,157.38144329896906,179.0,-37.0,180.0,1
1725105566,18.5633983,73.8332167,513.9,23.003092783505156,97,30.536082474226806,157.4020618556701,179.0,-37.0,179.0,1
1725105567,18.5633983,73.8332167,513.9,22.954639175257732,97,30.536082474226806,157.4020618556701,179.0,-37.0,180.0,1
1725105568,18.5633983,73.8332167,513.9,22.984536082474225,97,30.54639175257732,157.41237113402062,179.0,-37.0,180.0,1
1725105569,18.5633983,73.8332167,513.9,23.09381443298969,97,30.50515463917526,157.43298969072166,179.0,-37.0,180.0,1
1725105570,18.5633983,73.8332167,513.9,23.517525773195874,97,30.52577319587629,157.4742268041237,179.0,-37.0,180.0,1
1725105571,18.5633983,73.8332167,513.9,23.235051546391755,97,30.391752577319586,156.50515463917526,179.0,-37.0,180.0,1
1725105572,18.5633983333,73.8332166667,513.9,23.625773195876288,97,30.391752577319586,156.50515463917526,179.0,-37.0,180.0,1
1725105573,18.5633983333,73.8332166667,513.9,23.556701030927837,97,30.391752577319586,156.50515463917526,179.0,-37.0,180.0,1
1725105574,18.5633983,73.8332167,513.9,23.573195876288658,97,30.391752577319586,156.50515463917526,179.0,-37.0,180.0,1
1725105575,18.5633983,73.8332167,513.9,23.769072164948454,97,30.391752577319586,156.50515463917526,179.0,-37.0,179.0,1
1725105576,18.5633983333,73.8332166667,513.9,23.81855670103093,97,30.391752577319586,156.49484536082474,179.0,-37.0,180.0,1
1725105577,18.5633983,73.8332167,513.9,23.69896907216495,97,30.391752577319586,156.49484536082474,179.0,-37.0,180.0,1
1725105578,18.5633983,73.8332167,513.9,23.647959183673468,98,30.20408163265306,156.64285714285714,179.0,-37.0,180.0,1
1725105579,18.5633983,73.8332167,513.9,23.864285714285714,98,30.20408163265306,156.6326530612245,179.0,-37.0,180.0,1
1725105580,18.5633983333,73.8332166667,513.9,23.88877551020408,98,30.20408163265306,156.6326530612245,179.0,-37.0,179.0,1
1725105581,18.5633983,73.8332167,513.9,24.123711340206185,97,30.371134020618555,157.8556701030928,179.0,-37.0,179.0,1
1725105582,18.5633983,73.8332167,513.9,24.079381443298967,97,30.371134020618555,157.8556701030928,179.0,-37.0,180.0,1
1725105583,18.5633983333,73.8332166667,513.9,24.080412371134024,97,30.577319587628867,160.55670103092783,179.0,-37.0,179.0,1
1725105584,18.5633983333,73.8332166667,513.9,24.098969072164948,97,30.577319587628867,160.55670103092783,179.0,-37.0,179.0,1
1725105585,18.5633983333,73.8332166667,513.9,24.00721649484536,97,30.577319587628867,160.55670103092783,179.0,-37.0,179.0,1
1725105586,18.5633983333,73.8332166667,513.9,24.088541666666668,96,30.8125,160.44791666666666,179.0,-37.0,180.0,1
1725105587,18.5633983,73.8332167,513.9,24.12708333333333,96,31.5,162.67708333333334,179.0,-37.0,180.0,1
1725105588,18.5633983,73.8332167,513.9,24.00515463917526,97,31.278350515463917,162.75257731958763,179.0,-37.0,179.0,1
1725105589,18.5633983,73.8332167,513.9,24.02061855670103,97,31.278350515463917,162.75257731958763,179.0,-37.0,179.0,1
1725105590,18.5633983333,73.8332166667,513.9,24.096875,96,32.177083333333336,164.25,179.0,-37.0,179.0,1
1725105591,18.5633983,73.8332167,513.9,24.289583333333336,96,32.177083333333336,164.25,179.0,-37.0,180.0,1
1725105592,18.5633983,73.8332167,513.9,24.185567010309278,97,31.948453608247423,164.31958762886597,179.0,-37.0,180.0,1
1725105593,18.5633983333,73.8332166667,513.9,24.11958762886598,97,31.948453608247423,164.31958762886597,179.0,-37.0,179.0,1
1725105594,18.5633983,73.8332167,513.9,24.056701030927837,97,31.948453608247423,164.31958762886597,179.0,-37.0,180.0,1
1725105595,18.5633983333,73.8332166667,513.9,24.15463917525773,97,31.948453608247423,164.31958762886597,179.0,-37.0,180.0,1
1725105596,18.5633983,73.8332167,513.9,24.185567010309278,97,31.876288659793815,164.49484536082474,179.0,-37.0,180.0,1
1725105597,18.5633983,73.8332167,513.9,24.024742268041237,97,31.876288659793815,164.49484536082474,179.0,-37.0,179.0,1
1725105598,18.5633983,73.8332167,513.9,24.003092783505156,97,31.876288659793815,164.49484536082474,179.0,-37.0,180.0,1
1725105599,18.5633983,73.8332167,513.9,24.073195876288658,97,31.876288659793815,164.49484536082474,179.0,-37.0,180.0,1
1725105600,18.5633983333,73.8332166667,513.9,24.063917525773196,97,31.804123711340207,164.27835051546393,179.0,-37.0,180.0,1
1725105601,18.5633983,73.8332167,513.9,23.92886597938144,97,32.09278350515464,164.08247422680412,179.0,-37.0,180.0,1
1725105602,18.5633983,73.8332167,513.9,23.895876288659796,97,32.103092783505154,164.0721649484536,179.0,-37.0,180.0,1
1725105603,18.5633983,73.8332167,513.9,23.609278350515464,97,32.103092783505154,164.08247422680412,179.0,-37.0,180.0,1
1725105604,18.5633983,73.8332167,513.9,23.72474226804124,97,32.103092783505154,164.08247422680412,179.0,-37.0,180.0,1
1725105605,18.5633983,73.8332167,513.9,23.695876288659793,97,32.103092783505154,164.08247422680412,179.0,-37.0,180.0,1
1725105606,18.5633983333,73.8332166667,513.9,23.776288659793817,97,31.876288659793815,164.31958762886597,179.0,-37.0,180.0,1
1725105607,18.5633983333,73.8332166667,513.9,24.054639175257734,97,31.876288659793815,164.31958762886597,179.0,-37.0,180.0,1
1725105608,18.5633983,73.8332167,513.9,24.035051546391752,97,31.876288659793815,164.31958762886597,179.0,-37.0,180.0,1
1725105609,18.5633983,73.8332167,513.9,24.010309278350515,97,31.47422680412371,165.6701030927835,179.0,-37.0,180.0,1
1725105610,18.5633983,73.8332167,513.9,24.125,96,31.3125,164.0625,179.0,-37.0,180.0,1
1725105611,18.5633983,73.8332167,513.9,23.99381443298969,97,31.09278350515464,164.1340206185567,179.0,-37.0,180.0,1
1725105612,18.5633983,73.8332167,513.9,23.915463917525773,97,31.09278350515464,164.1340206185567,179.0,-37.0,180.0,1
1725105613,18.5633983,73.8332167,513.9,24.009278350515466,97,31.09278350515464,164.1340206185567,179.0,-37.0,180.0,1
1725105614,18.5633983333,73.8332166667,513.9,24.057731958762886,97,31.09278350515464,164.1340206185567,179.0,-37.0,180.0,1
1725105615,18.5633983333,73.8332166667,513.9,24.01443298969072,97,31.09278350515464,164.1340206185567,179.0,-37.0,180.0,1
1725105616,18.5633983,73.8332167,513.9,23.95257731958763,97,30.917525773195877,164.2577319587629,179.0,-37.0,179.0,1
1725105617,18.5633983,73.8332167,513.9,23.959793814432988,97,30.917525773195877,164.24742268041237,179.0,-37.0,180.0,1
1725105618,18.5633983,73.8332167,513.9,23.776288659793817,97,31.4020618556701,163.70103092783506,179.0,-37.0,179.0,1
1725105619,18.5633983,73.8332167,513.9,23.916666666666668,96,31.625,163.625,179.0,-37.0,179.0,1
1725105620,18.5633983,73.8332167,513.9,23.775000000000002,96,32.1875,164.22916666666666,179.0,-37.0,180.0,1
1725105621,18.5633983333,73.8332166667,513.9,23.714583333333334,96,32.1875,164.22916666666666,179.0,-37.0,180.0,1
1725105622,18.5633983,73.8332167,513.9,23.77916666666667,96,32.1875,164.22916666666666,179.0,-37.0,180.0,1
1725105623,18.5633983,73.8332167,513.9,23.965979381443297,97,31.95876288659794,164.29896907216494,179.0,-37.0,180.0,1
1725105624,18.5633983,73.8332167,513.9,23.7659793814433,97,31.948453608247423,164.28865979381445,179.0,-37.0,179.0,1
1725105625,18.5633983,73.8332167,513.9,23.744791666666668,96,32.020833333333336,162.58333333333334,179.0,-37.0,180.0,1
1725105626,18.5633983,73.8332167,513.9,23.479166666666668,96,32.020833333333336,162.60416666666666,179.0,-37.0,180.0,1
1725105627,18.5633983,73.8332167,513.9,23.45,96,32.020833333333336,162.60416666666666,179.0,-37.0,180.0,1
1725105628,18.5633983,73.8332167,513.9,23.397916666666664,96,31.947916666666668,162.78125,179.0,-37.0,179.0,1
1725105629,18.5633983,73.8332167,513.9,23.45360824742268,97,31.824742268041238,164.2164948453608,179.0,-37.0,180.0,1
1725105630,18.5633983333,73.8332166667,513.9,23.573958333333334,96,31.895833333333332,162.55208333333334,179.0,-37.0,180.0,1
1725105631,18.5633983,73.8332167,513.9,24.172916666666666,96,31.90625,162.5625,179.0,-37.0,179.0,1
1725105632,18.5633983333,73.8332166667,513.9,23.610309278350513,97,31.855670103092784,164.20618556701032,179.0,-37.0,180.0,1
1725105633,18.5633983,73.8332167,513.9,24.213402061855668,97,31.855670103092784,164.20618556701032,179.0,-37.0,180.0,1
1725105634,18.5633983,73.8332167,513.9,24.255670103092786,97,31.855670103092784,164.20618556701032,179.0,-37.0,180.0,1
1725105635,18.5633983,73.8332167,513.9,24.40824742268041,97,32.144329896907216,164.01030927835052,179.0,-37.0,180.0,1
1725105636,18.5633983333,73.8332166667,513.9,24.68041237113402,97,32.144329896907216,164.01030927835052,179.0,-37.0,179.0,1
1725105637,18.5633983,73.8332167,513.9,24.743298969072164,97,31.917525773195877,164.24742268041237,179.0,-37.0,180.0,1
1725105638,18.5633983333,73.8332166667,513.9,24.70625,96,32.135416666666664,164.14583333333334,179.0,-37.0,180.0,1
1725105639,18.5633983333,73.8332166667,513.9,24.764583333333334,96,31.729166666666668,165.51041666666666,179.0,-37.0,180.0,1
1725105640,18.5633983,73.8332167,513.9,24.736082474226805,97,31.515463917525775,165.55670103092783,179.0,-37.0,180.0,1
1725105641,18.5633983,73.8332167,513.9,24.691752577319587,97,31.515463917525775,165.55670103092783,179.0,-37.0,180.0,1
1725105642,18.5633983,73.8332167,513.9,24.582474226804123,97,31.515463917525775,165.55670103092783,179.0,-37.0,180.0,1
1725105643,18.5633983,73.8332167,513.9,24.79381443298969,97,31.50515463917526,165.53608247422682,179.0,-37.0,180.0,1
1725105644,18.5633983333,73.8332166667,513.9,24.562886597938142,97,31.123711340206185,164.0,179.0,-37.0,180.0,1
1725105645,18.5633983333,73.8332166667,513.9,24.598969072164948,97,31.123711340206185,164.0,179.0,-37.0,180.0,1
1725105646,18.5633983333,73.8332166667,513.9,24.563917525773196,97,30.742268041237114,161.42268041237114,179.0,-37.0,180.0,1
1725105647,18.5633983,73.8332167,513.9,24.50103092783505,97,30.742268041237114,161.42268041237114,179.0,-37.0,180.0,1
1725105648,18.5633983,73.8332167,513.9,24.630927835051544,97,30.52577319587629,158.70103092783506,179.0,-37.0,180.0,1
1725105649,18.5633983,73.8332167,513.9,24.596907216494845,97,30.52577319587629,158.68041237113403,179.0,-37.0,180.0,1
1725105650,18.5633983333,73.8332166667,513.9,24.463917525773194,97,30.52577319587629,158.68041237113403,179.0,-37.0,180.0,1
1725105651,18.5633983,73.8332167,513.9,24.38144329896907,97,30.52577319587629,158.68041237113403,179.0,-37.0,180.0,1
1725105652,18.5633983333,73.8332166667,513.9,24.305154639175257,97,30.52577319587629,158.68041237113403,179.0,-37.0,180.0,1
1725105653,18.5633983,73.8332167,513.9,24.38041237113402,97,30.4020618556701,157.72164948453607,179.0,-37.0,180.0,1
1725105654,18.5633983,73.8332167,513.9,24.569791666666664,96,30.708333333333332,158.23958333333334,179.0,-37.0,180.0,1
1725105655,18.5633983,73.8332167,513.9,24.57604166666667,96,30.708333333333332,158.23958333333334,179.0,-37.0,180.0,1
1725105656,18.5633983,73.8332167,513.9,24.667708333333334,96,30.708333333333332,158.21875,179.0,-37.0,180.0,1
1725105657,18.5633983,73.8332167,513.9,24.578125,96,30.708333333333332,158.21875,179.0,-37.0,180.0,1
1725105658,18.5633983333,73.8332166667,513.9,24.366666666666664,96,30.916666666666668,160.94791666666666,179.0,-37.0,180.0,1
1725105659,18.5633983,73.8332167,513.9,24.673684210526314,95,31.821052631578947,163.47368421052633,179.0,-37.0,180.0,1
1725105660,18.5633983,73.8332167,513.9,24.66315789473684,95,32.50526315789474,165.07368421052632,179.0,-37.0,180.0,1
1725105661,18.5633983333,73.8332166667,513.9,24.65416666666667,96,32.28125,164.72916666666666,179.0,-37.0,179.0,1
1725105662,18.5633983,73.8332167,513.9,24.633333333333336,96,32.28125,164.72916666666666,179.0,-37.0,179.0,1
1725105663,18.5633983,73.8332167,513.9,24.53125,96,32.28125,164.72916666666666,179.0,-37.0,179.0,1
1725105664,18.5633983,73.8332167,513.9,24.537499999999998,96,32.28125,164.72916666666666,179.0,-37.0,179.0,1
1725105665,18.5633983333,73.8332166667,513.9,24.801041666666666,96,32.28125,164.75,179.0,-37.0,180.0,1
1725105666,18.5633983,73.8332167,513.9,24.733333333333334,96,32.28125,164.75,179.0,-37.0,180.0,1
1725105667,18.5633983333,73.8332166667,513.9,24.681250000000002,96,32.302083333333336,164.77083333333334,179.0,-37.0,180.0,1
1725105668,18.5633983,73.8332167,513.9,24.70721649484536,97,31.948453608247423,165.5979381443299,179.0,-37.0,179.0,1
1725105669,18.5633983,73.8332167,513.9,24.761458333333334,96,32.229166666666664,164.94791666666666,179.0,-37.0,180.0,1
1725105670,18.5633983333,73.8332166667,513.9,24.70104166666667,96,32.15625,164.73958333333334,179.0,-37.0,180.0,1
1725105671,18.5633983,73.8332167,513.9,24.65979381443299,97,31.855670103092784,165.37113402061857,179.0,-37.0,180.0,1
1725105672,18.5633983,73.8332167,513.9,24.438144329896907,97,31.855670103092784,165.36082474226805,179.0,-37.0,179.0,1
1725105673,18.5633983333,73.8332166667,513.9,24.461855670103095,97,31.835051546391753,165.340206185567,179.0,-37.0,180.0,1
1725105674,18.5633983,73.8332167,513.9,24.702061855670102,97,31.835051546391753,165.340206185567,179.0,-37.0,180.0,1
1725105675,18.5633983333,73.8332166667,513.9,24.688659793814434,97,31.835051546391753,165.340206185567,179.0,-37.0,180.0,1
1725105676,18.5633983,73.8332167,513.9,24.942708333333332,96,32.052083333333336,165.69791666666666,179.0,-37.0,180.0,1
1725105677,18.5633983,73.8332167,513.9,24.805154639175257,97,31.896907216494846,165.38144329896906,179.0,-37.0,180.0,1
1725105678,18.5633983,73.8332167,513.9,24.80103092783505,97,31.896907216494846,165.38144329896906,179.0,-37.0,180.0,1
1725105679,18.5633983,73.8332167,513.9,24.983505154639175,97,31.49484536082474,166.7319587628866,179.0,-37.0,180.0,1
1725105680,18.5633983333,73.8332166667,513.9,24.855670103092784,97,31.49484536082474,166.75257731958763,179.0,-37.0,180.0,1
1725105681,18.5633983333,73.8332166667,513.9,24.910309278350518,97,31.49484536082474,166.75257731958763,179.0,-37.0,180.0,1
1725105682,18.5633983333,73.8332166667,513.9,24.964948453608248,97,31.47422680412371,166.75257731958763,179.0,-37.0,180.0,1
1725105683,18.5633983,73.8332167,513.9,24.916494845360827,97,31.47422680412371,166.75257731958763,179.0,-37.0,180.0,1
1725105684,18.5633983,73.8332167,513.9,24.842268041237112,97,31.47422680412371,166.75257731958763,179.0,-37.0,180.0,1
1725105685,18.5633983,73.8332167,513.9,24.900000000000002,97,31.47422680412371,166.75257731958763,179.0,-37.0,180.0,1
1725105686,18.5633983,73.8332167,513.9,24.901030927835052,97,30.711340206185568,162.63917525773195,179.0,-37.0,179.0,1
1725105687,18.5633983,73.8332167,513.9,24.927835051546392,97,30.711340206185568,162.63917525773195,179.0,-37.0,180.0,1
1725105688,18.5633983,73.8332167,513.9,24.862886597938143,97,30.711340206185568,162.63917525773195,179.0,-37.0,180.0,1
1725105689,18.5633983333,73.8332166667,513.9,24.964583333333334,96,30.71875,160.23958333333334,179.0,-37.0,179.0,1
1725105690,18.5633983,73.8332167,513.9,24.98229166666667,96,30.71875,160.25,179.0,-37.0,180.0,1
1725105691,18.5633983,73.8332167,513.9,25.06458333333333,96,30.71875,160.25,179.0,-37.0,180.0,1
1725105692,18.5633983333,73.8332166667,513.9,24.934375,96,30.739583333333332,160.25,179.0,-37.0,180.0,1
1725105693,18.5633983333,73.8332166667,513.9,24.96666666666667,96,30.739583333333332,160.25,179.0,-37.0,180.0,1
1725105694,18.5633983,73.8332167,513.9,25.057291666666668,96,30.739583333333332,160.25,179.0,-37.0,179.0,1
1725105695,18.5633983,73.8332167,513.9,24.93541666666667,96,30.625,159.27083333333334,179.0,-37.0,180.0,1
1725105696,18.5633983,73.8332167,513.9,24.988541666666666,96,30.625,159.27083333333334,179.0,-37.0,180.0,1
1725105697,18.5633983,73.8332167,513.9,24.98229166666667,96,30.625,159.26041666666666,179.0,-37.0,180.0,1
1725105698,18.5633983,73.8332167,513.9,24.973958333333332,96,30.614583333333332,159.27083333333334,179.0,-37.0,180.0,1
1725105699,18.5633983,73.8332167,513.9,24.95104166666667,96,30.614583333333332,159.30208333333334,179.0,-37.0,180.0,1
1725105700,18.5633983,73.8332167,513.9,24.878125,96,30.625,159.3125,179.0,-37.0,180.0,1
1725105701,18.5633983333,73.8332166667,513.9,24.729896907216496,97,30.31958762886598,161.04123711340208,179.0,-37.0,180.0,1
1725105702,18.5633983333,73.8332166667,513.9,24.686597938144327,97,30.31958762886598,161.04123711340208,179.0,-37.0,180.0,1
1725105703,18.5633983,73.8332167,513.9,24.656701030927834,97,30.31958762886598,161.04123711340208,179.0,-37.0,180.0,1
1725105704,18.5633983,73.8332167,513.9,24.77938144329897,97,30.31958762886598,161.04123711340208,179.0,-37.0,180.0,1
1725105705,18.5633983,73.8332167,513.9,24.777319587628867,97,30.31958762886598,161.04123711340208,179.0,-37.0,180.0,1
1725105706,18.5633983,73.8332167,513.9,24.81855670103093,97,30.31958762886598,161.04123711340208,179.0,-37.0,179.0,1
1725105707,18.5633983,73.8332167,513.9,24.728865979381442,97,30.31958762886598,161.04123711340208,179.0,-37.0,180.0,1
1725105708,18.5633983,73.8332167,513.9,24.685567010309278,97,30.52577319587629,163.7422680412371,179.0,-37.0,180.0,1
1725105709,18.5633983,73.8332167,513.9,24.804123711340207,97,30.515463917525775,163.7422680412371,179.0,-37.0,180.0,1
1725105710,18.5633983,73.8332167,513.9,24.92577319587629,97,31.175257731958762,165.90721649484536,179.0,-37.0,180.0,1
1725105711,18.5633983,73.8332167,513.9,24.964948453608248,97,31.195876288659793,165.9278350515464,179.0,-37.0,180.0,1
1725105712,18.5633983333,73.8332166667,513.9,24.571428571428573,98,30.887755102040817,166.40816326530611,179.0,-37.0,180.0,1
1725105713,18.5633983,73.8332167,513.9,24.581632653061224,98,30.887755102040817,166.40816326530611,179.0,-37.0,179.0,1
1725105714,18.5633983,73.8332167,513.9,24.569387755102042,98,31.551020408163264,167.9591836734694,179.0,-37.0,180.0,1
1725105715,18.5633983,73.8332167,513.9,24.563265306122446,98,31.551020408163264,167.9591836734694,179.0,-37.0,180.0,1
1725105716,18.5633983,73.8332167,513.9,24.621428571428574,98,31.551020408163264,167.9591836734694,179.0,-37.0,180.0,1
1725105717,18.5633983333,73.8332166667,513.9,24.5,98,31.551020408163264,167.9591836734694,179.0,-37.0,180.0,1
1725105718,18.5633983,73.8332167,513.9,24.343877551020405,98,31.551020408163264,167.9591836734694,179.0,-37.0,180.0,1
1725105719,18.5633983333,73.8332166667,513.9,24.532653061224487,98,31.479591836734695,168.1326530612245,179.0,-37.0,179.0,1
1725105720,18.5633983,73.8332167,513.9,24.552040816326528,98,31.479591836734695,168.1326530612245,179.0,-37.0,180.0,1
1725105721,18.5633983333,73.8332166667,513.9,24.55816326530612,98,31.479591836734695,168.1326530612245,179.0,-37.0,180.0,1
1725105722,18.5633983333,73.8332166667,513.9,24.525510204081634,98,31.479591836734695,168.1326530612245,179.0,-37.0,180.0,1
1725105723,18.5633983,73.8332167,513.9,24.489795918367346,98,31.479591836734695,168.1326530612245,179.0,-37.0,180.0,1
1725105724,18.5633983,73.8332167,513.9,24.5765306122449,98,31.408163265306122,167.91836734693877,179.0,-37.0,179.0,1
1725105725,18.5633983,73.8332167,513.9,24.59591836734694,98,31.408163265306122,167.91836734693877,179.0,-37.0,180.0,1
1725105726,18.5633983,73.8332167,513.9,24.652040816326533,98,31.693877551020407,167.72448979591837,179.0,-37.0,179.0,1
1725105727,18.5633983,73.8332167,513.9,24.571428571428573,98,31.693877551020407,167.72448979591837,179.0,-37.0,180.0,1
1725105728,18.5633983,73.8332167,513.9,24.501020408163264,98,31.479591836734695,167.94897959183675,179.0,-37.0,180.0,1
1725105729,18.5633983,73.8332167,513.9,24.462244897959184,98,31.479591836734695,167.9591836734694,179.0,-37.0,180.0,1
1725105730,18.5633983,73.8332167,513.9,24.668367346938776,98,31.46938775510204,167.9591836734694,179.0,-37.0,179.0,1
1725105731,18.5633983,73.8332167,513.9,24.497959183673473,98,31.46938775510204,167.94897959183675,179.0,-37.0,180.0,1
1725105732,18.5633983333,73.8332166667,513.9,24.45612244897959,98,31.46938775510204,167.9387755102041,179.0,-37.0,179.0,1
1725105733,18.5633983,73.8332167,513.9,24.51938775510204,98,31.071428571428573,169.27551020408163,179.0,-37.0,179.0,1
1725105734,18.5633983333,73.8332166667,513.9,24.470408163265304,98,31.06122448979592,169.28571428571428,179.0,-37.0,179.0,1
1725105735,18.5633983,73.8332167,513.9,24.570408163265306,98,30.693877551020407,167.81632653061226,179.0,-37.0,179.0,1
1725105736,18.5633983333,73.8332166667,513.9,24.516326530612243,98,30.6734693877551,167.81632653061226,179.0,-37.0,180.0,1
1725105737,18.5633983333,73.8332166667,513.9,24.498979591836736,98,30.5,167.9387755102041,179.0,-37.0,180.0,1
1725105738,18.5633983,73.8332167,513.9,24.483673469387757,98,30.479591836734695,167.9387755102041,179.0,-37.0,180.0,1
