timestamp,latitude,longitude,altitude,mean_snr,sat_count,mean_elevation,roll,pitch,yaw,is_inclined
1725102825,18.5633962,73.833218,514.0,,0,,1.0,-36.0,5.0,1
1725102826,18.5633966,73.8332182,514.0,14.198148148148148,162,33.06172839506173,1.0,-36.0,5.0,1
1725102827,18.5633968,73.8332182,514.0,16.896470588235296,85,33.576470588235296,1.0,-36.0,5.0,1
1725102829,18.5633967,73.8332183,514.0,18.24712643678161,87,33.55172413793103,1.0,-36.0,5.0,1
1725102830,18.5633967,73.8332183,514.0,18.470454545454547,88,33.48863636363637,1.0,-36.0,5.0,1
1725102831,18.5633967,73.8332183,514.0,18.801136363636363,88,33.48863636363637,1.0,-36.0,5.0,1
1725102832,18.5633967,73.8332183,514.0,18.75681818181818,88,33.28409090909091,1.0,-36.0,5.0,1
1725102833,18.5633967,73.8332183,514.0,20.142045454545453,88,33.90909090909091,1.0,-36.0,5.0,1
1725102834,18.5633967,73.8332183,514.0,21.41,90,33.7,1.0,-36.0,5.0,1
1725102835,18.5633967,73.8332183,514.0,21.775555555555556,90,33.58888888888889,1.0,-36.0,5.0,1
1725102836,18.5633967,73.8332183,514.0,22.021978021978022,91,32.65934065934066,1.0,-36.0,5.0,1
1725102837,18.5633967,73.8332183,514.0,21.95054945054945,91,32.65934065934066,1.0,-36.0,5.0,1
1725102838,18.5633967,73.8332183,514.0,21.955319148936173,94,32.47872340425532,1.0,-36.0,5.0,1
1725102839,18.5633967,73.8332183,514.0,21.92736842105263,95,32.43157894736842,1.0,-36.0,5.0,1
1725102840,18.5633967,73.8332183,514.0,22.10842105263158,95,32.43157894736842,1.0,-36.0,5.0,1
1725102841,18.5633966667,73.8332183333,514.0,22.05894736842105,95,32.11578947368421,1.0,-36.0,5.0,1
1725102842,18.5633967,73.8332183,514.0,22.27052631578947,95,32.11578947368421,1.0,-36.0,5.0,1
1725102843,18.5633967,73.8332183,514.0,22.118947368421054,95,32.11578947368421,1.0,-36.0,5.0,1
1725102844,18.5633967,73.8332183,514.0,22.066666666666666,96,32.020833333333336,1.0,-36.0,5.0,1
1725102845,18.5633967,73.8332183,514.0,22.286458333333332,96,32.395833333333336,1.0,-36.0,5.0,1
1725102846,18.5633967,73.8332183,514.0,22.675257731958762,97,32.154639175257735,1.0,-36.0,5.0,1
1725102847,18.5633967,73.8332183,514.0,22.419587628865976,97,32.154639175257735,1.0,-36.0,5.0,1
1725102848,18.5633967,73.8332183,514.0,22.610416666666666,96,32.25,1.0,-36.0,5.0,1
1725102849,18.5633967,73.8332183,514.0,22.587500000000002,96,32.25,1.0,-36.0,5.0,1
1725102850,18.5633967,73.8332183,514.0,23.035051546391752,97,32.0,1.0,-36.0,5.0,1
1725102851,18.5633967,73.8332183,514.0,23.195876288659793,97,32.56701030927835,1.0,-36.0,4.0,1
1725102852,18.5633966667,73.8332183333,514.0,23.133673469387755,98,32.316326530612244,1.0,-36.0,4.0,1
1725102853,18.5633967,73.8332183,514.0,23.00408163265306,98,32.316326530612244,1.0,-36.0,5.0,1
1725102854,18.5633967,73.8332183,514.0,23.077551020408162,98,32.316326530612244,1.0,-36.0,5.0,1
1725102855,18.5634065,73.8332212,514.0,23.335714285714285,98,32.61224489795919,1.0,-36.0,4.0,1
1725102856,18.563408,73.8332216,513.9,23.368367346938776,98,32.61224489795919,1.0,-36.0,5.0,1
1725102857,18.5634083,73.8332217,514.0,23.097959183673467,98,32.61224489795919,1.0,-36.0,4.0,1
1725102858,18.5634083,73.8332217,514.0,23.341237113402062,97,32.71134020618557,1.0,-36.0,5.0,1
1725102859,18.5634083,73.8332217,514.0,23.419587628865976,97,32.71134020618557,1.0,-36.0,5.0,1
1725102860,18.5634083,73.8332217,514.0,24.383505154639174,97,32.71134020618557,1.0,-36.0,4.0,1
1725102861,18.5634083,73.8332217,514.0,24.432291666666668,96,32.739583333333336,1.0,-36.0,4.0,1
1725102862,18.5634083,73.8332217,514.0,24.395876288659796,97,32.48453608247423,1.0,-36.0,4.0,1
1725102863,18.5634083,73.8332217,514.0,24.330927835051547,97,32.50515463917526,1.0,-36.0,4.0,1
1725102864,18.5634083,73.8332217,514.0,24.20412371134021,97,31.804123711340207,1.0,-36.0,4.0,1
1725102865,18.5634083,73.8332217,514.0,24.465625,96,32.052083333333336,1.0,-36.0,4.0,1
1725102866,18.5634083,73.8332217,514.0,24.120833333333334,96,32.052083333333336,1.0,-36.0,4.0,1
1725102867,18.5634083,73.8332217,514.0,24.38865979381443,97,31.804123711340207,1.0,-36.0,4.0,1
1725102868,18.5634083,73.8332217,514.0,24.99896907216495,97,31.804123711340207,1.0,-36.0,4.0,1
1725102869,18.5634083,73.8332217,514.0,24.61855670103093,97,31.804123711340207,1.0,-36.0,4.0,1
1725102870,18.5634083,73.8332217,514.0,24.529896907216497,97,31.536082474226806,1.0,-36.0,4.0,1
1725102871,18.5634083,73.8332217,514.0,24.703125,96,31.78125,1.0,-36.0,4.0,1
1725102872,18.5634083,73.8332217,514.0,24.595876288659795,97,31.690721649484537,1.0,-36.0,4.0,1
1725102873,18.5634083,73.8332217,514.0,24.623711340206185,97,31.690721649484537,1.0,-36.0,4.0,1
1725102874,18.5634083,73.8332217,514.0,24.633673469387755,98,31.06122448979592,1.0,-36.0,4.0,1
1725102875,18.5634083,73.8332217,514.0,24.836734693877553,98,31.06122448979592,1.0,-36.0,4.0,1
1725102876,18.5634083,73.8332217,514.0,24.8765306122449,98,31.06122448979592,1.0,-36.0,4.0,1
1725102877,18.5634083,73.8332217,514.0,24.98144329896907,97,31.298969072164947,1.0,-36.0,4.0,1
1725102878,18.5634083,73.8332217,514.0,24.70612244897959,98,31.06122448979592,1.0,-36.0,4.0,1
1725102879,18.5634083,73.8332217,514.0,24.666326530612245,98,31.06122448979592,1.0,-36.0,4.0,1
1725102880,18.5634083,73.8332217,514.0,24.666326530612245,98,30.948979591836736,1.0,-36.0,4.0,1
1725102881,18.5634083,73.8332217,514.0,24.59591836734694,98,30.948979591836736,1.0,-36.0,4.0,1
1725102882,18.5634083,73.8332217,514.0,24.80918367346939,98,30.948979591836736,1.0,-36.0,4.0,1
1725102883,18.5634083,73.8332217,514.0,24.65959595959596,99,30.656565656565657,1.0,-36.0,4.0,1
1725102884,18.5634083,73.8332217,514.0,24.61111111111111,99,30.656565656565657,1.0,-36.0,4.0,1
1725102885,18.5634083,73.8332217,514.0,24.75050505050505,99,30.656565656565657,1.0,-36.0,4.0,1
1725102886,18.5634083,73.8332217,514.0,24.731313131313133,99,31.91919191919192,1.0,-36.0,4.0,1
1725102887,18.5634083,73.8332217,514.0,24.655555555555555,99,31.91919191919192,1.0,-36.0,4.0,1
1725102888,18.5634083,73.8332217,514.0,24.69090909090909,99,31.91919191919192,1.0,-36.0,4.0,1
1725102889,18.5634083,73.8332217,514.0,24.886868686868688,99,31.91919191919192,1.0,-36.0,4.0,1
1725102890,18.5634083,73.8332217,514.0,24.963636363636365,99,31.91919191919192,1.0,-36.0,4.0,1
1725102891,18.5634083,73.8332217,514.0,24.879,100,31.66,1.0,-36.0,4.0,1
1725102892,18.5634083,73.8332217,514.0,24.906999999999996,100,32.04,1.0,-36.0,4.0,1
1725102893,18.5634083,73.8332217,514.0,25.247,100,32.24,1.0,-36.0,4.0,1
1725102894,18.5634083,73.8332217,514.0,25.288,100,32.24,1.0,-36.0,4.0,1
1725102895,18.5634083,73.8332217,514.0,25.131999999999998,100,31.84,1.0,-36.0,4.0,1
1725102896,18.5634083,73.8332217,514.0,25.19,100,31.83,1.0,-36.0,4.0,1
1725102897,18.5634083,73.8332217,514.0,25.244,100,31.84,1.0,-36.0,4.0,1
1725102898,18.5634083,73.8332217,514.0,25.354,100,31.84,1.0,-36.0,4.0,1
1725102899,18.5634083,73.8332217,514.0,25.264,100,31.84,1.0,-36.0,4.0,1
1725102900,18.5634083,73.8332217,514.0,25.271,100,31.84,1.0,-36.0,4.0,1
1725102901,18.5634083,73.8332217,514.0,25.283,100,31.45,1.0,-36.0,4.0,1
1725102902,18.5634083,73.8332217,514.0,25.173000000000002,100,31.45,1.0,-36.0,4.0,1
1725102903,18.5634083,73.8332217,514.0,24.993000000000002,100,31.45,1.0,-36.0,4.0,1
1725102904,18.5634083,73.8332217,514.0,25.199,100,31.45,1.0,-36.0,4.0,1
1725102905,18.5634083,73.8332217,514.0,25.249000000000002,100,30.9,1.0,-36.0,4.0,1
1725102906,18.5634083,73.8332217,514.0,25.11,100,30.9,1.0,-36.0,4.0,1
1725102907,18.5634083,73.8332217,514.0,25.0,100,30.89,1.0,-36.0,4.0,1
1725102908,18.5634083,73.8332217,514.0,25.061999999999998,100,30.88,1.0,-36.0,4.0,1
1725102909,18.5634083,73.8332217,514.0,25.074747474747475,99,31.181818181818183,1.0,-36.0,4.0,1
1725102910,18.5634083,73.8332217,514.0,25.076767676767677,99,30.98989898989899,1.0,-36.0,4.0,1
1725102911,18.5634083,73.8332217,514.0,25.20808080808081,99,30.98989898989899,1.0,-36.0,4.0,1
1725102912,18.5634083,73.8332217,514.0,25.135353535353538,99,30.97979797979798,1.0,-36.0,4.0,1
1725102913,18.5634083,73.8332217,514.0,25.293939393939393,99,30.97979797979798,1.0,-36.0,4.0,1
1725102914,18.5634083,73.8332217,514.0,25.354545454545455,99,30.97979797979798,1.0,-36.0,4.0,1
1725102915,18.5634083,73.8332217,514.0,25.304040404040403,99,30.67676767676768,1.0,-36.0,4.0,1
1725102916,18.5634083,73.8332217,514.0,25.344444444444445,99,30.67676767676768,1.0,-36.0,4.0,1
1725102917,18.5634083,73.8332217,514.0,25.204040404040402,99,30.67676767676768,1.0,-36.0,4.0,1
1725102918,18.5634083,73.8332217,514.0,25.25050505050505,99,30.67676767676768,1.0,-36.0,4.0,1
1725102919,18.5634083,73.8332217,514.0,25.312121212121212,99,30.67676767676768,1.0,-36.0,4.0,1
1725102920,18.5634083,73.8332217,514.0,25.276767676767676,99,30.67676767676768,1.0,-36.0,4.0,1
1725102921,18.5634083,73.8332217,514.0,25.14242424242424,99,30.67676767676768,1.0,-36.0,4.0,1
1725102922,18.5634083,73.8332217,514.0,25.179797979797982,99,30.67676767676768,1.0,-36.0,4.0,1
1725102923,18.5634083,73.8332217,514.0,25.348484848484848,99,30.67676767676768,1.0,-36.0,4.0,1
1725102924,18.5634083,73.8332217,514.0,25.504040404040406,99,30.67676767676768,1.0,-36.0,4.0,1
1725102925,18.5634083,73.8332217,514.0,25.374747474747473,99,30.67676767676768,1.0,-36.0,4.0,1
1725102926,18.5634083,73.8332217,514.0,25.4,99,30.67676767676768,1.0,-36.0,4.0,1
1725102927,18.5634083,73.8332217,514.0,25.2979797979798,99,30.67676767676768,1.0,-36.0,4.0,1
1725102928,18.5634083,73.8332217,514.0,25.229292929292928,99,30.67676767676768,1.0,-36.0,4.0,1
1725102929,18.5634083,73.8332217,514.0,25.229292929292928,99,30.67676767676768,1.0,-36.0,4.0,1
1725102930,18.5634083,73.8332217,514.0,25.211111111111112,99,30.67676767676768,1.0,-36.0,4.0,1
1725102931,18.5634083,73.8332217,514.0,25.143434343434343,99,30.67676767676768,1.0,-36.0,4.0,1
1725102932,18.5634083,73.8332217,514.0,25.17676767676768,99,30.67676767676768,1.0,-36.0,4.0,1
1725102933,18.5634083,73.8332217,514.0,25.227272727272727,99,30.68686868686869,1.0,-36.0,4.0,1
1725102934,18.5634083,73.8332217,514.0,25.196969696969695,99,30.67676767676768,1.0,-36.0,4.0,1
1725102935,18.5634083,73.8332217,514.0,25.06969696969697,99,31.343434343434343,1.0,-36.0,4.0,1
1725102936,18.5634083,73.8332217,514.0,25.064646464646465,99,31.92929292929293,1.0,-36.0,4.0,1
1725102937,18.5634083,73.8332217,514.0,24.802020202020202,99,31.91919191919192,1.0,-36.0,4.0,1
1725102938,18.5634083,73.8332217,514.0,25.185858585858586,99,31.91919191919192,1.0,-36.0,4.0,1
1725102939,18.5634083,73.8332217,514.0,25.16060606060606,99,31.91919191919192,1.0,-36.0,4.0,1
1725102940,18.5634083,73.8332217,514.0,25.120202020202022,99,31.8989898989899,1.0,-36.0,4.0,1
1725102941,18.5634083,73.8332217,514.0,25.08080808080808,99,32.484848484848484,1.0,-36.0,4.0,1
1725102942,18.5634083,73.8332217,514.0,25.01010101010101,99,32.282828282828284,1.0,-36.0,4.0,1
1725102943,18.5634083,73.8332217,514.0,24.884848484848483,99,32.464646464646464,1.0,-36.0,4.0,1
1725102944,18.5634083,73.8332217,514.0,24.964646464646464,99,32.282828282828284,1.0,-36.0,4.0,1
1725102945,18.5634083,73.8332217,514.0,24.924242424242426,99,32.04040404040404,1.0,-36.0,4.0,1
1725102946,18.5634083,73.8332217,514.0,24.84040404040404,99,32.04040404040404,1.0,-36.0,4.0,1
1725102947,18.5634083,73.8332217,514.0,24.91919191919192,99,32.04040404040404,1.0,-36.0,4.0,1
1725102948,18.5634083,73.8332217,514.0,24.84949494949495,99,32.04040404040404,1.0,-36.0,4.0,1
1725102949,18.5634083,73.8332217,514.0,25.006060606060604,99,32.04040404040404,1.0,-36.0,4.0,1
1725102950,18.5634083,73.8332217,514.0,24.91717171717172,99,31.656565656565657,1.0,-36.0,4.0,1
1725102951,18.5634083,73.8332217,514.0,24.862626262626264,99,31.656565656565657,1.0,-36.0,4.0,1
1725102952,18.5634083,73.8332217,514.0,24.80909090909091,99,31.67676767676768,1.0,-36.0,4.0,1
1725102953,18.5634083,73.8332217,514.0,24.688888888888886,99,31.67676767676768,1.0,-36.0,4.0,1
1725102954,18.5634083,73.8332217,514.0,24.814141414141414,99,31.12121212121212,1.0,-36.0,4.0,1
1725102955,18.5634083,73.8332217,514.0,24.838383838383837,99,31.12121212121212,1.0,-36.0,4.0,1
1725102956,18.5634083,73.8332217,514.0,24.903030303030302,99,31.12121212121212,1.0,-36.0,4.0,1
1725102957,18.5634083,73.8332217,514.0,24.876767676767678,99,31.1010101010101,1.0,-36.0,4.0,1
1725102958,18.5634083,73.8332217,514.0,24.87777777777778,99,31.1010101010101,1.0,-36.0,4.0,1
1725102959,18.5634083,73.8332217,514.0,25.014141414141417,99,31.595959595959595,1.0,-36.0,4.0,1
1725102960,18.5634083,73.8332217,514.0,24.902020202020203,99,31.595959595959595,1.0,-36.0,4.0,1
1725102961,18.5634083,73.8332217,514.0,25.05252525252525,99,31.595959595959595,1.0,-36.0,4.0,1
1725102962,18.5634083,73.8332217,514.0,24.98181818181818,99,31.575757575757574,1.0,-36.0,4.0,1
1725102963,18.5634083,73.8332217,514.0,24.904040404040405,99,32.45454545454545,1.0,-36.0,4.0,1
1725102964,18.5634083,73.8332217,514.0,24.78787878787879,99,32.45454545454545,1.0,-36.0,4.0,1
1725102965,18.5634083,73.8332217,514.0,24.799999999999997,99,32.45454545454545,1.0,-36.0,4.0,1
1725102966,18.5634083,73.8332217,514.0,24.994,100,32.15,1.0,-36.0,4.0,1
1725102967,18.5634083,73.8332217,514.0,24.962,100,32.15,1.0,-36.0,4.0,1
1725102968,18.5634083,73.8332217,514.0,24.910999999999998,100,31.97,1.0,-36.0,4.0,1
1725102969,18.5634083,73.8332217,514.0,25.048000000000002,100,31.97,1.0,-36.0,4.0,1
1725102970,18.5634083,73.8332217,514.0,25.186999999999998,100,31.97,1.0,-36.0,4.0,1
1725102971,18.5634083,73.8332217,514.0,25.164,100,31.97,1.0,-36.0,4.0,1
1725102972,18.5634083,73.8332217,514.0,25.12,100,31.97,1.0,-36.0,4.0,1
1725102973,18.5634083,73.8332217,514.0,24.974,100,31.36,1.0,-36.0,4.0,1
1725102974,18.5634083,73.8332217,514.0,25.131,100,31.36,1.0,-36.0,4.0,1
1725102975,18.5634083,73.8332217,514.0,24.848000000000003,100,31.36,1.0,-36.0,4.0,1
1725102976,18.5634083,73.8332217,514.0,24.826,100,31.36,1.0,-36.0,4.0,1
1725102977,18.5634083,73.8332217,514.0,24.588,100,31.08,1.0,-36.0,4.0,1
1725102978,18.5634083,73.8332217,514.0,24.675,100,31.08,1.0,-36.0,4.0,1
1725102979,18.5634083,73.8332217,514.0,24.811999999999998,100,31.08,1.0,-36.0,4.0,1
1725102980,18.5634083,73.8332217,514.0,24.846,100,31.08,1.0,-36.0,4.0,1
1725102981,18.5634083,73.8332217,514.0,24.879,100,31.08,1.0,-36.0,4.0,1
1725102982,18.5634083,73.8332217,514.0,24.729,100,30.88,1.0,-36.0,4.0,1
1725102983,18.5634083,73.8332217,514.0,24.83030303030303,99,30.92929292929293,1.0,-36.0,4.0,1
1725102984,18.5634083,73.8332217,514.0,24.9,99,30.939393939393938,1.0,-36.0,4.0,1
1725102985,18.5634083,73.8332217,514.0,24.817171717171718,99,30.939393939393938,1.0,-36.0,4.0,1
1725102986,18.5634083,73.8332217,514.0,24.834343434343435,99,30.747474747474747,1.0,-36.0,4.0,1
1725102987,18.5634083,73.8332217,514.0,24.903030303030302,99,30.747474747474747,1.0,-36.0,4.0,1
1725102988,18.5634083,73.8332217,514.0,24.843434343434343,99,30.747474747474747,1.0,-36.0,4.0,1
1725102989,18.5634083,73.8332217,514.0,24.854545454545455,99,30.747474747474747,1.0,-36.0,4.0,1
1725102990,18.5634083,73.8332217,514.0,24.77777777777778,99,30.747474747474747,1.0,-36.0,4.0,1
1725102991,18.5634083,73.8332217,514.0,24.832323232323233,99,30.757575757575758,1.0,-36.0,4.0,1
1725102992,18.5634083,73.8332217,514.0,24.545,100,30.27,1.0,-36.0,4.0,1
1725102993,18.5634083,73.8332217,514.0,24.374000000000002,100,30.36,1.0,-36.0,4.0,1
1725102994,18.5634083,73.8332217,514.0,24.285999999999998,100,30.36,1.0,-36.0,4.0,1
1725102995,18.5634083,73.8332217,514.0,24.351999999999997,100,30.36,1.0,-36.0,4.0,1
1725102996,18.5634083,73.8332217,514.0,24.392,100,30.36,1.0,-36.0,4.0,1
1725102997,18.5634083,73.8332217,514.0,24.408,100,30.36,1.0,-36.0,4.0,1
1725102998,18.5634083,73.8332217,514.0,24.316999999999997,100,30.36,1.0,-36.0,4.0,1
1725102999,18.5634083,73.8332217,514.0,24.256999999999998,100,30.4,1.0,-36.0,4.0,1
1725103000,18.5634083,73.8332217,514.0,23.678,100,31.67,1.0,-36.0,4.0,1
1725103001,18.5634083,73.8332217,514.0,23.956999999999997,100,31.67,1.0,-36.0,4.0,1
1725103002,18.5634083,73.8332217,514.0,24.171,100,31.67,1.0,-36.0,4.0,1
1725103003,18.5634083,73.8332217,514.0,24.228,100,32.26,1.0,-36.0,4.0,1
1725103004,18.5634083,73.8332217,514.0,24.266,100,32.26,1.0,-36.0,4.0,1
1725103005,18.5634083,73.8332217,514.0,24.27,100,32.26,1.0,-36.0,4.0,1
1725103006,18.5634083,73.8332217,514.0,24.353,100,32.24,1.0,-36.0,4.0,1
1725103007,18.5634083,73.8332217,514.0,24.505,100,32.24,1.0,-36.0,4.0,1
1725103008,18.5634083,73.8332217,514.0,24.271,100,32.24,1.0,-36.0,4.0,1
1725103009,18.5634083,73.8332217,514.0,24.38,100,31.84,1.0,-36.0,4.0,1
1725103010,18.5634083,73.8332217,514.0,24.375,100,31.84,1.0,-36.0,4.0,1
1725103011,18.5634083,73.8332217,514.0,24.445999999999998,100,31.84,1.0,-36.0,4.0,1
1725103012,18.5634083,73.8332217,514.0,24.328000000000003,100,31.46,1.0,-36.0,4.0,1
1725103013,18.5634083,73.8332217,514.0,24.318,100,31.46,1.0,-36.0,4.0,1
1725103014,18.5634083,73.8332217,514.0,24.385,100,31.46,1.0,-36.0,4.0,1
1725103015,18.5634083,73.8332217,514.0,24.444000000000003,100,31.46,1.0,-36.0,4.0,1
1725103016,18.5634083,73.8332217,514.0,24.25,100,31.46,1.0,-36.0,4.0,1
1725103017,18.5634083,73.8332217,514.0,24.46,100,31.46,1.0,-36.0,4.0,1
1725103018,18.5634083,73.8332217,514.0,24.331999999999997,100,31.46,1.0,-36.0,4.0,1
1725103019,18.5634083,73.8332217,514.0,24.31,100,30.91,1.0,-36.0,4.0,1
1725103020,18.5634083,73.8332217,514.0,24.241999999999997,100,30.91,1.0,-36.0,4.0,1
1725103021,18.5634083,73.8332217,514.0,24.230693069306934,101,30.504950495049506,1.0,-36.0,4.0,1
1725103022,18.5634083,73.8332217,514.0,24.38118811881188,101,30.485148514851485,1.0,-36.0,4.0,1
1725103023,18.5634083,73.8332217,514.0,24.412871287128713,101,30.485148514851485,1.0,-36.0,4.0,1
1725103024,18.5634083,73.8332217,514.0,24.387128712871288,101,30.475247524752476,1.0,-36.0,4.0,1
1725103025,18.5634083,73.8332217,514.0,24.139603960396038,101,30.475247524752476,1.0,-36.0,4.0,1
1725103026,18.5634083,73.8332217,514.0,24.083168316831685,101,30.475247524752476,1.0,-36.0,4.0,1
1725103027,18.5634083,73.8332217,514.0,24.166336633663366,101,30.455445544554454,1.0,-36.0,4.0,1
1725103028,18.5634083,73.8332217,514.0,24.288118811881187,101,30.435643564356436,1.0,-36.0,4.0,1
1725103029,18.5634083,73.8332217,514.0,24.23168316831683,101,30.138613861386137,1.0,-36.0,4.0,1
1725103030,18.5634083,73.8332217,514.0,24.32376237623762,101,30.138613861386137,1.0,-36.0,4.0,1
1725103031,18.5634083,73.8332217,514.0,24.094059405940595,101,30.138613861386137,1.0,-36.0,4.0,1
1725103032,18.5634083,73.8332217,514.0,24.245544554455446,101,30.138613861386137,1.0,-36.0,4.0,1
1725103033,18.5634083,73.8332217,514.0,24.223762376237623,101,30.138613861386137,1.0,-36.0,4.0,1
1725103034,18.5634083,73.8332217,514.0,23.97128712871287,101,30.138613861386137,1.0,-36.0,4.0,1
1725103035,18.5634083,73.8332217,514.0,24.248514851485147,101,30.138613861386137,1.0,-36.0,4.0,1
1725103036,18.5634083,73.8332217,514.0,24.086138613861383,101,30.138613861386137,1.0,-36.0,4.0,1
1725103037,18.5634083,73.8332217,514.0,24.138613861386137,101,30.138613861386137,1.0,-36.0,4.0,1
1725103038,18.5634083,73.8332217,514.0,24.0970297029703,101,30.138613861386137,1.0,-36.0,4.0,1
1725103039,18.5634083,73.8332217,514.0,24.180198019801978,101,30.138613861386137,1.0,-36.0,4.0,1
1725103040,18.5634083,73.8332217,514.0,24.045544554455443,101,30.138613861386137,1.0,-36.0,4.0,1
1725103041,18.5634083,73.8332217,514.0,24.09009900990099,101,30.138613861386137,1.0,-36.0,4.0,1
1725103042,18.5634083,73.8332217,514.0,24.104950495049504,101,29.940594059405942,1.0,-36.0,4.0,1
1725103043,18.5634083,73.8332217,514.0,24.099009900990097,101,30.138613861386137,1.0,-36.0,4.0,1
1725103044,18.5634083,73.8332217,514.0,24.07920792079208,101,30.14851485148515,1.0,-36.0,4.0,1
1725103045,18.5634083,73.8332217,514.0,24.194059405940592,101,30.128712871287128,1.0,-36.0,4.0,1
1725103046,18.5634083,73.8332217,514.0,24.02970297029703,101,30.128712871287128,1.0,-36.0,4.0,1
1725103047,18.5634083,73.8332217,514.0,23.95841584158416,101,30.10891089108911,1.0,-36.0,4.0,1
1725103048,18.5634083,73.8332217,514.0,23.81188118811881,101,30.10891089108911,1.0,-36.0,4.0,1
1725103049,18.5634083,73.8332217,514.0,24.024,100,31.65,1.0,-36.0,4.0,1
1725103050,18.5634083,73.8332217,514.0,23.938000000000002,100,31.65,1.0,-36.0,4.0,1
1725103051,18.5634083,73.8332217,514.0,23.668000000000003,100,31.65,1.0,-36.0,4.0,1
1725103052,18.5634083,73.8332217,514.0,24.006999999999998,100,32.23,1.0,-36.0,4.0,1
1725103053,18.5634083,73.8332217,514.0,23.894000000000002,100,32.23,1.0,-36.0,4.0,1
1725103054,18.5634083,73.8332217,514.0,23.997,100,32.23,1.0,-36.0,4.0,1
1725103055,18.5634083,73.8332217,514.0,24.039,100,32.23,1.0,-36.0,4.0,1
1725103056,18.5634083,73.8332217,514.0,24.016,100,32.23,1.0,-36.0,4.0,1
1725103057,18.5634083,73.8332217,514.0,24.08,100,32.23,1.0,-36.0,4.0,1
1725103058,18.5634083,73.8332217,514.0,24.125,100,31.83,1.0,-36.0,4.0,1
1725103059,18.5634083,73.8332217,514.0,24.069000000000003,100,31.83,1.0,-36.0,4.0,1
1725103060,18.5634083,73.8332217,514.0,24.052,100,31.83,1.0,-36.0,4.0,1
1725103061,18.5634083,73.8332217,514.0,24.048000000000002,100,31.44,1.0,-36.0,4.0,1
1725103062,18.5634083,73.8332217,514.0,24.109,100,31.44,1.0,-36.0,4.0,1
1725103063,18.5634083,73.8332217,514.0,23.885,100,31.44,1.0,-36.0,4.0,1
1725103064,18.5634083,73.8332217,514.0,23.863000000000003,100,31.44,1.0,-36.0,4.0,1
1725103065,18.5634083,73.8332217,514.0,23.894000000000002,100,31.44,1.0,-36.0,4.0,1
1725103066,18.5634083,73.8332217,514.0,23.93267326732673,101,31.356435643564357,1.0,-36.0,4.0,1
1725103067,18.5634083,73.8332217,514.0,23.85148514851485,101,30.81188118811881,1.0,-36.0,4.0,1
1725103068,18.5634083,73.8332217,514.0,23.81287128712871,101,30.792079207920793,1.0,-36.0,4.0,1
1725103069,18.5634083,73.8332217,514.0,23.735643564356437,101,30.792079207920793,1.0,-36.0,4.0,1
1725103070,18.5634083,73.8332217,514.0,23.714851485148515,101,31.257425742574256,1.0,-36.0,4.0,1
1725103071,18.5634083,73.8332217,514.0,23.672277227722773,101,31.257425742574256,1.0,-36.0,4.0,1
1725103072,18.5634083,73.8332217,514.0,23.654455445544553,101,31.257425742574256,1.0,-36.0,4.0,1
1725103073,18.5634083,73.8332217,514.0,23.673000000000002,100,31.36,1.0,-36.0,4.0,1
1725103074,18.5634083,73.8332217,514.0,23.697029702970298,101,31.26732673267327,1.0,-36.0,4.0,1
1725103075,18.5634083,73.8332217,514.0,23.775247524752476,101,31.26732673267327,1.0,-36.0,4.0,1
1725103076,18.5634083,73.8332217,514.0,23.858,100,31.37,1.0,-36.0,4.0,1
1725103077,18.5634083,73.8332217,514.0,23.66,100,32.24,1.0,-36.0,4.0,1
1725103078,18.5634083,73.8332217,514.0,23.673000000000002,100,32.24,1.0,-36.0,4.0,1
1725103079,18.5634083,73.8332217,514.0,23.693069306930692,101,31.95049504950495,1.0,-36.0,4.0,1
1725103080,18.5634083,73.8332217,514.0,23.51188118811881,101,31.95049504950495,1.0,-36.0,4.0,1
1725103081,18.5634083,73.8332217,514.0,23.47128712871287,101,31.95049504950495,1.0,-36.0,4.0,1
1725103082,18.5634083,73.8332217,514.0,23.73168316831683,101,31.534653465346533,1.0,-36.0,4.0,1
1725103083,18.5634083,73.8332217,514.0,23.766336633663368,101,31.940594059405942,1.0,-36.0,4.0,1
1725103084,18.5634083,73.8332217,514.0,23.833663366336634,101,31.93069306930693,1.0,-36.0,4.0,1
1725103085,18.5634083,73.8332217,514.0,23.82277227722772,101,31.940594059405942,1.0,-36.0,4.0,1
1725103086,18.5634083,73.8332217,514.0,23.58910891089109,101,31.336633663366335,1.0,-36.0,4.0,1
1725103087,18.5634083,73.8332217,514.0,23.616831683168318,101,31.336633663366335,1.0,-36.0,4.0,1
1725103088,18.5634083,73.8332217,514.0,23.651485148514855,101,31.04950495049505,1.0,-36.0,4.0,1
1725103089,18.5634083,73.8332217,514.0,23.667326732673267,101,31.04950495049505,1.0,-36.0,4.0,1
1725103090,18.5634083,73.8332217,514.0,23.64950495049505,101,31.04950495049505,1.0,-36.0,4.0,1
1725103091,18.5634083,73.8332217,514.0,23.644554455445544,101,31.04950495049505,1.0,-36.0,4.0,1
1725103092,18.5634083,73.8332217,514.0,23.548514851485148,101,30.85148514851485,1.0,-36.0,4.0,1
1725103093,18.5634083,73.8332217,514.0,23.632673267326734,101,31.04950495049505,1.0,-36.0,4.0,1
1725103094,18.5634083,73.8332217,514.0,23.661386138613864,101,31.04950495049505,1.0,-36.0,4.0,1
1725103095,18.5634083,73.8332217,514.0,23.742574257425744,101,31.04950495049505,1.0,-36.0,4.0,1
1725103096,18.5634083,73.8332217,514.0,23.548514851485148,101,30.603960396039604,1.0,-36.0,4.0,1
1725103097,18.5634083,73.8332217,514.0,23.842,100,30.7,1.0,-36.0,4.0,1
1725103098,18.5634083,73.8332217,514.0,23.758000000000003,100,30.51,1.0,-36.0,4.0,1
1725103099,18.5634083,73.8332217,514.0,23.886,100,30.51,1.0,-36.0,4.0,1
1725103100,18.5634083,73.8332217,514.0,23.878,100,30.51,1.0,-36.0,4.0,1
1725103101,18.5634083,73.8332217,514.0,23.671287128712873,101,30.415841584158414,1.0,-36.0,4.0,1
1725103102,18.5634083,73.8332217,514.0,23.60891089108911,101,30.425742574257427,1.0,-36.0,4.0,1
1725103103,18.5634083,73.8332217,514.0,23.695999999999998,100,30.52,1.0,-36.0,4.0,1
1725103104,18.5634083,73.8332217,514.0,23.621,100,30.51,1.0,-36.0,4.0,1
1725103105,18.5634083,73.8332217,514.0,23.829,100,30.41,1.0,-36.0,4.0,1
1725103106,18.5634083,73.8332217,514.0,23.700990099009903,101,30.306930693069308,1.0,-36.0,4.0,1
1725103107,18.5634083,73.8332217,514.0,23.694059405940592,101,30.306930693069308,1.0,-36.0,4.0,1
1725103108,18.5634083,73.8332217,514.0,23.762376237623762,101,30.297029702970296,1.0,-36.0,4.0,1
1725103109,18.5634083,73.8332217,514.0,23.610891089108907,101,30.306930693069308,1.0,-36.0,4.0,1
1725103110,18.5634083,73.8332217,514.0,23.64752475247525,101,30.93069306930693,1.0,-36.0,4.0,1
1725103111,18.5634083,73.8332217,514.0,23.7,101,31.514851485148515,1.0,-36.0,4.0,1
1725103112,18.5634083,73.8332217,514.0,23.66039603960396,101,31.485148514851485,1.0,-36.0,4.0,1
1725103113,18.5634083,73.8332217,514.0,23.634,100,31.59,1.0,-36.0,4.0,1
1725103114,18.5634083,73.8332217,514.0,23.767,100,32.17,1.0,-36.0,4.0,1
1725103115,18.5634083,73.8332217,514.0,23.784000000000002,100,32.17,1.0,-36.0,4.0,1
1725103116,18.5634083,73.8332217,514.0,23.803,100,32.17,1.0,-36.0,4.0,1
1725103117,18.5634083,73.8332217,514.0,23.575,100,32.17,1.0,-36.0,4.0,1
1725103118,18.5634083,73.8332217,514.0,23.717,100,32.17,1.0,-36.0,4.0,1
1725103119,18.5634083,73.8332217,514.0,23.736,100,32.15,1.0,-36.0,4.0,1
1725103120,18.5634083,73.8332217,514.0,23.775,100,31.77,1.0,-36.0,4.0,1
1725103121,18.5634083,73.8332217,514.0,23.522,100,31.75,1.0,-36.0,4.0,1
1725103122,18.5634083,73.8332217,514.0,23.451999999999998,100,31.75,1.0,-36.0,4.0,1
1725103123,18.5634083,73.8332217,514.0,23.59,100,31.36,1.0,-36.0,4.0,1
1725103124,18.5634083,73.8332217,514.0,23.398000000000003,100,31.36,1.0,-36.0,4.0,1
1725103125,18.5634083,73.8332217,514.0,23.58,100,31.36,1.0,-36.0,4.0,1
1725103126,18.5634083,73.8332217,514.0,23.87,100,31.37,1.0,-36.0,4.0,1
1725103127,18.5634083,73.8332217,514.0,23.855999999999998,100,31.37,1.0,-36.0,4.0,1
1725103128,18.5634083,73.8332217,514.0,23.694000000000003,100,31.39,1.0,-36.0,4.0,1
1725103129,18.5634083,73.8332217,514.0,23.866999999999997,100,30.83,1.0,-36.0,4.0,1
1725103130,18.5634083,73.8332217,514.0,23.924,100,30.83,1.0,-36.0,4.0,1
1725103131,18.5634083,73.8332217,514.0,23.219,100,30.83,1.0,-36.0,4.0,1
1725103132,18.5634083,73.8332217,514.0,23.475,100,30.83,1.0,-36.0,4.0,1
1725103133,18.5634083,73.8332217,514.0,23.774,100,30.64,1.0,-36.0,4.0,1
1725103134,18.5634083,73.8332217,514.0,23.862,100,30.64,1.0,-36.0,4.0,1
1725103135,18.5634083,73.8332217,514.0,23.851999999999997,100,30.64,1.0,-36.0,4.0,1
1725103136,18.5634083,73.8332217,514.0,23.903000000000002,100,30.64,1.0,-36.0,4.0,1
1725103137,18.5634083,73.8332217,514.0,23.961,100,30.64,1.0,-36.0,4.0,1
1725103138,18.5634083,73.8332217,514.0,23.980999999999998,100,30.34,1.0,-36.0,4.0,1
1725103139,18.5634083333,73.8332216667,514.0,23.776999999999997,100,30.34,1.0,-36.0,4.0,1
1725103140,18.5634083,73.8332217,514.0,23.927,100,30.34,1.0,-36.0,4.0,1
1725103141,18.5634083,73.8332217,514.0,23.859,100,30.34,1.0,-36.0,4.0,1
1725103142,18.5634083,73.8332217,514.0,23.934,100,30.14,1.0,-36.0,4.0,1
1725103143,18.5634083,73.8332217,514.0,23.846999999999998,100,30.32,1.0,-36.0,4.0,1
1725103144,18.5634083,73.8332217,514.0,23.938000000000002,100,30.32,1.0,-36.0,4.0,1
1725103145,18.5634083,73.8332217,514.0,23.995,100,30.32,1.0,-36.0,4.0,1
1725103146,18.5634083,73.8332217,514.0,23.895,100,30.32,1.0,-36.0,4.0,1
1725103147,18.5634083,73.8332217,514.0,23.906999999999996,100,30.32,1.0,-36.0,4.0,1
1725103148,18.5634083,73.8332217,514.0,23.948,100,30.32,1.0,-36.0,4.0,1
1725103149,18.5634083,73.8332217,514.0,23.955,100,30.32,1.0,-36.0,4.0,1
1725103150,18.5634083,73.8332217,514.0,23.788,100,30.32,1.0,-36.0,4.0,1
1725103151,18.5634083,73.8332217,514.0,23.926,100,30.32,1.0,-36.0,4.0,1
1725103152,18.5634083,73.8332217,514.0,23.853,100,30.33,1.0,-36.0,4.0,1
1725103153,18.5634083,73.8332217,514.0,23.8,100,30.34,1.0,-36.0,4.0,1
1725103154,18.5634083,73.8332217,514.0,23.81,100,30.34,1.0,-36.0,4.0,1
1725103155,18.5634083,73.8332217,514.0,23.772,100,30.34,1.0,-36.0,4.0,1
1725103156,18.5634083,73.8332217,514.0,23.85,100,30.34,1.0,-36.0,4.0,1
1725103157,18.5634083,73.8332217,514.0,23.95,100,30.34,1.0,-36.0,4.0,1
1725103158,18.5634083,73.8332217,514.0,23.805999999999997,100,31.0,1.0,-36.0,4.0,1
1725103159,18.5634083,73.8332217,514.0,23.975,100,31.59,1.0,-36.0,4.0,1
1725103160,18.5634083,73.8332217,514.0,23.930999999999997,100,31.59,1.0,-36.0,4.0,1
1725103161,18.5634083,73.8332217,514.0,23.978,100,31.59,1.0,-36.0,4.0,1
1725103162,18.5634083,73.8332217,514.0,24.028000000000002,100,31.59,1.0,-36.0,4.0,1
1725103163,18.5634083,73.8332217,514.0,23.956999999999997,100,31.59,1.0,-36.0,4.0,1
1725103164,18.5634083,73.8332217,514.0,23.886,100,32.17,1.0,-36.0,4.0,1
1725103165,18.5634083,73.8332217,514.0,23.956999999999997,100,32.17,1.0,-36.0,4.0,1
1725103166,18.5634083,73.8332217,514.0,23.962,100,32.17,1.0,-36.0,4.0,1
1725103167,18.5634083,73.8332217,514.0,23.926,100,31.99,1.0,-36.0,4.0,1
1725103168,18.5634083,73.8332217,514.0,23.991999999999997,100,31.77,1.0,-36.0,4.0,1
1725103169,18.5634083,73.8332217,514.0,24.046999999999997,100,31.77,1.0,-36.0,4.0,1
1725103170,18.5634083,73.8332217,514.0,23.994,100,31.77,1.0,-36.0,4.0,1
1725103171,18.5634083,73.8332217,514.0,24.03,100,31.77,1.0,-36.0,4.0,1
1725103172,18.5634083,73.8332217,514.0,24.241,100,31.77,1.0,-36.0,4.0,1
1725103173,18.5634083,73.8332217,514.0,24.112,100,31.38,1.0,-36.0,4.0,1
1725103174,18.5634083,73.8332217,514.0,24.238000000000003,100,31.37,1.0,-36.0,4.0,1
1725103175,18.5634083,73.8332217,514.0,24.572,100,31.39,1.0,-36.0,4.0,1
1725103176,18.5634083,73.8332217,514.0,24.345,100,31.12,1.0,-36.0,4.0,1
1725103177,18.5634083,73.8332217,514.0,24.496,100,31.12,1.0,-36.0,4.0,1
1725103178,18.5634083,73.8332217,514.0,24.529,100,31.12,1.0,-36.0,4.0,1
1725103179,18.5634083,73.8332217,514.0,24.511999999999997,100,31.13,1.0,-36.0,4.0,1
1725103180,18.5634083,73.8332217,514.0,24.316999999999997,100,31.14,1.0,-36.0,4.0,1
1725103181,18.5634083,73.8332217,514.0,24.323,100,31.14,1.0,-36.0,4.0,1
1725103182,18.5634083,73.8332217,514.0,24.992857142857144,98,31.367346938775512,1.0,-36.0,4.0,1
1725103183,18.5634083,73.8332217,514.0,24.72222222222222,99,31.363636363636363,1.0,-36.0,4.0,1
1725103184,18.5634083,73.8332217,514.0,24.744444444444444,99,31.363636363636363,1.0,-36.0,4.0,1
1725103185,18.5634083,73.8332217,514.0,24.72222222222222,99,31.363636363636363,1.0,-36.0,4.0,1
1725103186,18.5634083,73.8332217,514.0,24.789898989898987,99,31.838383838383837,1.0,-36.0,4.0,1
1725103187,18.5634083,73.8332217,514.0,24.824242424242424,99,31.838383838383837,1.0,-36.0,4.0,1
1725103188,18.5634083,73.8332217,514.0,24.594949494949496,99,32.07070707070707,1.0,-36.0,4.0,1
1725103189,18.5634083,73.8332217,514.0,24.534343434343434,99,32.07070707070707,1.0,-36.0,4.0,1
1725103190,18.5634083,73.8332217,514.0,24.525252525252526,99,32.07070707070707,1.0,-36.0,4.0,1
1725103191,18.5634083,73.8332217,514.0,24.4979797979798,99,32.07070707070707,1.0,-36.0,4.0,1
1725103192,18.5634083,73.8332217,514.0,24.356565656565657,99,32.36363636363637,1.0,-36.0,4.0,1
1725103193,18.5634083,73.8332217,514.0,24.252525252525253,99,32.535353535353536,1.0,-36.0,4.0,1
1725103194,18.5634083,73.8332217,514.0,24.42020202020202,99,32.535353535353536,1.0,-36.0,4.0,1
1725103195,18.5634083,73.8332217,514.0,24.395959595959596,99,32.35353535353536,1.0,-36.0,4.0,1
1725103196,18.5634083,73.8332217,514.0,24.442424242424245,99,32.35353535353536,1.0,-36.0,4.0,1
1725103197,18.5634083,73.8332217,514.0,24.401010101010097,99,32.13131313131313,1.0,-36.0,4.0,1
1725103198,18.5634083,73.8332217,514.0,24.37777777777778,99,32.13131313131313,1.0,-36.0,4.0,1
1725103199,18.5634083,73.8332217,514.0,24.37878787878788,99,32.15151515151515,1.0,-36.0,4.0,1
1725103200,18.5634083,73.8332217,514.0,24.4,99,32.14141414141414,1.0,-36.0,4.0,1
1725103201,18.5634083,73.8332217,514.0,24.37878787878788,99,31.747474747474747,1.0,-36.0,4.0,1
1725103202,18.5634083,73.8332217,514.0,24.4989898989899,99,31.747474747474747,1.0,-36.0,4.0,1
1725103203,18.5634083,73.8332217,514.0,24.563265306122446,98,31.979591836734695,1.0,-36.0,4.0,1
1725103204,18.5634083,73.8332217,514.0,24.617346938775512,98,31.683673469387756,1.0,-36.0,4.0,1
1725103205,18.5634083,73.8332217,514.0,24.597959183673467,98,31.683673469387756,1.0,-36.0,4.0,1
1725103206,18.5634083,73.8332217,514.0,24.510204081632654,98,31.418367346938776,1.0,-36.0,4.0,1
1725103207,18.5634083,73.8332217,514.0,24.651020408163266,98,31.418367346938776,1.0,-36.0,4.0,1
1725103208,18.5634083,73.8332217,514.0,24.517346938775507,98,31.418367346938776,1.0,-36.0,4.0,1
1725103209,18.5634083,73.8332217,514.0,24.877551020408163,98,31.418367346938776,1.0,-36.0,4.0,1
1725103210,18.5634083,73.8332217,514.0,24.774489795918367,98,31.418367346938776,1.0,-36.0,4.0,1
1725103211,18.5634083,73.8332217,514.0,24.827551020408162,98,31.224489795918366,1.0,-36.0,4.0,1
1725103212,18.5634083,73.8332217,514.0,24.859183673469385,98,31.224489795918366,1.0,-36.0,4.0,1
1725103213,18.5634083,73.8332217,514.0,24.788775510204083,98,31.224489795918366,1.0,-36.0,4.0,1
1725103214,18.5634083,73.8332217,514.0,24.853061224489796,98,31.03061224489796,1.0,-36.0,4.0,1
1725103215,18.5634083,73.8332217,514.0,24.828571428571426,98,30.918367346938776,1.0,-36.0,4.0,1
1725103216,18.5634083,73.8332217,514.0,24.862244897959183,98,30.918367346938776,1.0,-36.0,4.0,1
1725103217,18.5634083,73.8332217,514.0,24.8234693877551,98,30.918367346938776,1.0,-36.0,4.0,1
1725103218,18.5634083,73.8332217,514.0,24.739795918367346,98,30.918367346938776,1.0,-36.0,4.0,1
1725103219,18.5634083,73.8332217,514.0,24.827551020408162,98,30.918367346938776,1.0,-36.0,4.0,1
1725103220,18.5634083,73.8332217,514.0,24.764285714285716,98,30.918367346938776,1.0,-36.0,4.0,1
1725103221,18.5634083,73.8332217,514.0,24.814285714285717,98,30.918367346938776,1.0,-36.0,4.0,1
1725103222,18.5634083,73.8332217,514.0,24.759183673469387,98,30.918367346938776,1.0,-36.0,4.0,1
1725103223,18.5634083,73.8332217,514.0,24.885714285714286,98,30.897959183673468,1.0,-36.0,4.0,1
1725103224,18.5634083,73.8332217,514.0,24.853061224489796,98,31.571428571428573,1.0,-36.0,4.0,1
1725103225,18.5634083,73.8332217,514.0,24.878571428571426,98,31.571428571428573,1.0,-36.0,4.0,1
1725103226,18.5634083,73.8332217,514.0,24.80816326530612,98,32.173469387755105,1.0,-36.0,4.0,1
1725103227,18.5634083,73.8332217,514.0,24.851020408163265,98,32.173469387755105,1.0,-36.0,4.0,1
1725103228,18.5634083,73.8332217,514.0,25.048979591836737,98,32.765306122448976,1.0,-36.0,4.0,1
1725103229,18.5634083,73.8332217,514.0,24.917346938775513,98,32.765306122448976,1.0,-36.0,4.0,1
1725103230,18.5634083,73.8332217,514.0,24.989795918367346,98,32.765306122448976,1.0,-36.0,4.0,1
1725103231,18.5634083,73.8332217,514.0,24.724489795918366,98,32.765306122448976,1.0,-36.0,4.0,1
1725103232,18.5634083,73.8332217,514.0,24.783673469387757,98,32.744897959183675,1.0,-36.0,4.0,1
1725103233,18.5634083,73.8332217,514.0,25.028571428571432,98,32.56122448979592,1.0,-36.0,4.0,1
1725103234,18.5634083,73.8332217,514.0,25.051020408163264,98,32.56122448979592,1.0,-36.0,4.0,1
1725103235,18.5634083,73.8332217,514.0,24.962244897959184,98,32.33673469387755,1.0,-36.0,4.0,1
1725103236,18.5634083,73.8332217,514.0,24.953061224489797,98,32.33673469387755,1.0,-36.0,4.0,1
1725103237,18.5634083,73.8332217,514.0,25.214285714285715,98,31.93877551020408,1.0,-36.0,4.0,1
1725103238,18.5634083,73.8332217,514.0,25.023469387755103,98,31.93877551020408,1.0,-36.0,4.0,1
1725103239,18.5634083,73.8332217,514.0,24.83061224489796,98,31.93877551020408,1.0,-36.0,4.0,1
1725103240,18.5634083,73.8332217,514.0,24.662244897959184,98,31.93877551020408,1.0,-36.0,4.0,1
1725103241,18.5634083,73.8332217,514.0,24.83061224489796,98,31.93877551020408,1.0,-36.0,4.0,1
1725103242,18.5634083,73.8332217,514.0,24.768367346938778,98,31.775510204081634,1.0,-36.0,4.0,1
1725103243,18.5634083,73.8332217,514.0,24.761224489795918,98,31.663265306122447,1.0,-36.0,4.0,1
1725103244,18.5634083,73.8332217,514.0,24.853061224489796,98,31.387755102040817,1.0,-36.0,4.0,1
1725103245,18.5634083,73.8332217,514.0,24.827551020408162,98,31.387755102040817,1.0,-36.0,4.0,1
1725103246,18.5634083,73.8332217,514.0,24.831632653061224,98,31.193877551020407,1.0,-36.0,4.0,1
1725103247,18.5634083,73.8332217,514.0,24.897959183673468,98,31.193877551020407,1.0,-36.0,4.0,1
1725103248,18.5634083,73.8332217,514.0,25.079591836734696,98,31.183673469387756,1.0,-36.0,4.0,1
1725103249,18.5634083,73.8332217,514.0,24.78469387755102,98,31.193877551020407,1.0,-36.0,4.0,1
1725103250,18.5634083,73.8332217,514.0,24.863265306122447,98,31.20408163265306,1.0,-36.0,4.0,1
1725103251,18.5634083,73.8332217,514.0,24.83061224489796,98,31.20408163265306,1.0,-36.0,4.0,1
1725103252,18.5634083,73.8332217,514.0,24.702040816326534,98,31.20408163265306,1.0,-36.0,4.0,1
1725103253,18.5634083,73.8332217,514.0,24.697959183673472,98,30.897959183673468,1.0,-36.0,4.0,1
1725103254,18.5634083,73.8332217,514.0,24.741836734693877,98,30.897959183673468,1.0,-36.0,4.0,1
1725103255,18.5634083,73.8332217,514.0,24.848979591836734,98,30.897959183673468,1.0,-36.0,4.0,1
1725103256,18.5634083,73.8332217,514.0,24.86122448979592,98,30.897959183673468,1.0,-36.0,4.0,1
1725103257,18.5634083,73.8332217,514.0,24.58061224489796,98,30.897959183673468,1.0,-36.0,4.0,1
1725103258,18.5634083,73.8332217,514.0,24.772448979591836,98,30.897959183673468,1.0,-36.0,4.0,1
1725103259,18.5634083,73.8332217,514.0,24.721428571428568,98,30.877551020408163,1.0,-36.0,4.0,1
1725103260,18.5634083,73.8332217,514.0,24.80918367346939,98,30.857142857142858,1.0,-36.0,4.0,1
1725103261,18.5634083,73.8332217,514.0,24.818367346938775,98,30.877551020408163,1.0,-36.0,4.0,1
1725103262,18.5634083,73.8332217,514.0,24.79285714285714,98,30.877551020408163,1.0,-36.0,4.0,1
1725103263,18.5634083,73.8332217,514.0,24.701020408163263,98,30.877551020408163,1.0,-36.0,4.0,1
1725103264,18.5634083,73.8332217,514.0,24.668367346938776,98,30.867346938775512,1.0,-36.0,4.0,1
1725103265,18.5634083,73.8332217,514.0,24.610204081632656,98,30.857142857142858,1.0,-36.0,4.0,1
1725103266,18.5634083,73.8332217,514.0,24.635353535353538,99,30.616161616161616,1.0,-36.0,4.0,1
1725103267,18.5634083,73.8332217,514.0,24.48181818181818,99,30.616161616161616,1.0,-36.0,4.0,1
1725103268,18.5634083,73.8332217,514.0,24.560606060606062,99,30.616161616161616,1.0,-36.0,4.0,1
1725103269,18.5634083,73.8332217,514.0,24.443434343434344,99,30.616161616161616,1.0,-36.0,4.0,1
1725103270,18.5634083,73.8332217,514.0,24.565656565656564,99,30.616161616161616,1.0,-36.0,4.0,1
1725103271,18.5634083,73.8332217,514.0,24.503030303030304,99,30.616161616161616,1.0,-36.0,4.0,1
1725103272,18.5634083,73.8332217,514.0,24.48888888888889,99,31.87878787878788,1.0,-36.0,4.0,1
1725103273,18.5634083,73.8332217,514.0,24.43131313131313,99,31.87878787878788,1.0,-36.0,4.0,1
1725103274,18.5634083,73.8332217,514.0,24.454545454545453,99,31.87878787878788,1.0,-36.0,4.0,1
1725103275,18.5634083,73.8332217,514.0,24.443434343434344,99,31.87878787878788,1.0,-36.0,4.0,1
1725103276,18.5634083,73.8332217,514.0,24.374747474747473,99,31.87878787878788,1.0,-36.0,4.0,1
1725103277,18.5634083,73.8332217,514.0,24.56161616161616,99,32.45454545454545,1.0,-36.0,4.0,1
1725103278,18.5634083,73.8332217,514.0,24.425252525252525,99,32.45454545454545,1.0,-36.0,4.0,1
1725103279,18.5634083,73.8332217,514.0,24.46060606060606,99,32.44444444444444,1.0,-36.0,4.0,1
1725103280,18.5634083,73.8332217,514.0,24.453535353535354,99,32.44444444444444,1.0,-36.0,4.0,1
1725103281,18.5634083,73.8332217,514.0,24.361616161616162,99,32.45454545454545,1.0,-36.0,4.0,1
1725103282,18.5634083,73.8332217,514.0,24.363636363636363,99,31.86868686868687,1.0,-36.0,4.0,1
1725103283,18.5634083,73.8332217,514.0,24.29191919191919,99,32.05050505050505,1.0,-36.0,4.0,1
1725103284,18.5634083,73.8332217,514.0,24.33030303030303,99,32.05050505050505,1.0,-36.0,4.0,1
1725103285,18.5634083,73.8332217,514.0,24.26666666666667,99,32.06060606060606,1.0,-36.0,4.0,1
1725103286,18.5634083,73.8332217,514.0,24.354545454545455,99,31.646464646464647,1.0,-36.0,4.0,1
1725103287,18.5634083,73.8332217,514.0,24.516161616161614,99,31.646464646464647,1.0,-36.0,4.0,1
1725103288,18.5634083,73.8332217,514.0,24.567676767676765,99,31.626262626262626,1.0,-36.0,4.0,1
1725103289,18.5634083,73.8332217,514.0,24.547474747474745,99,31.616161616161616,1.0,-36.0,4.0,1
1725103290,18.5634083,73.8332217,514.0,24.47171717171717,99,31.616161616161616,1.0,-36.0,4.0,1
1725103291,18.5634083,73.8332217,514.0,24.534343434343434,99,31.060606060606062,1.0,-36.0,4.0,1
1725103292,18.5634083,73.8332217,514.0,24.527272727272724,99,30.858585858585858,1.0,-36.0,4.0,1
1725103293,18.5634083,73.8332217,514.0,24.47070707070707,99,31.04040404040404,1.0,-36.0,4.0,1
1725103294,18.5634083,73.8332217,514.0,24.506060606060604,99,31.04040404040404,1.0,-36.0,4.0,1
1725103295,18.5634083,73.8332217,514.0,24.555555555555557,99,31.0,1.0,-36.0,4.0,1
1725103296,18.5634083,73.8332217,514.0,24.672448979591838,98,31.73469387755102,1.0,-36.0,4.0,1
1725103297,18.5634083,73.8332217,514.0,24.544444444444444,99,31.474747474747474,1.0,-36.0,4.0,1
1725103298,18.5634083,73.8332217,514.0,24.593939393939397,99,31.474747474747474,1.0,-36.0,4.0,1
1725103299,18.5634083,73.8332217,514.0,24.576767676767677,99,31.474747474747474,1.0,-36.0,4.0,1
1725103300,18.5634083,73.8332217,514.0,24.57272727272727,99,31.474747474747474,1.0,-36.0,4.0,1
1725103301,18.5634083,73.8332217,514.0,24.59090909090909,99,32.35353535353536,1.0,-36.0,4.0,1
1725103302,18.5634083,73.8332217,514.0,24.53939393939394,99,32.35353535353536,1.0,-36.0,4.0,1
1725103303,18.5634083,73.8332217,514.0,24.54949494949495,99,32.35353535353536,1.0,-36.0,4.0,1
1725103304,18.5634083,73.8332217,514.0,24.526262626262625,99,32.37373737373738,1.0,-36.0,4.0,1
1725103305,18.5634083,73.8332217,514.0,24.423232323232323,99,32.19191919191919,1.0,-36.0,4.0,1
1725103306,18.5634083,73.8332217,514.0,24.5010101010101,99,32.19191919191919,1.0,-36.0,4.0,1
1725103307,18.5634083,73.8332217,514.0,24.483838383838386,99,32.19191919191919,1.0,-36.0,4.0,1
1725103308,18.5634083,73.8332217,514.0,24.466666666666665,99,32.19191919191919,1.0,-36.0,4.0,1
1725103309,18.5634083,73.8332217,514.0,24.445454545454545,99,32.19191919191919,1.0,-36.0,4.0,1
1725103310,18.5634083,73.8332217,514.0,24.48181818181818,99,31.575757575757574,1.0,-36.0,4.0,1
1725103311,18.5634083,73.8332217,514.0,24.426262626262623,99,31.595959595959595,1.0,-36.0,4.0,1
1725103312,18.5634083,73.8332217,514.0,24.547474747474745,99,31.595959595959595,1.0,-36.0,4.0,1
1725103313,18.5634083,73.8332217,514.0,24.301010101010103,99,31.595959595959595,1.0,-36.0,4.0,1
1725103314,18.5634083333,73.8332216667,514.0,24.264646464646464,99,31.303030303030305,1.0,-36.0,4.0,1
1725103315,18.5634083333,73.8332216667,514.0,24.34646464646465,99,31.303030303030305,1.0,-36.0,4.0,1
1725103316,18.5634083,73.8332217,514.0,24.060606060606062,99,31.303030303030305,1.0,-36.0,4.0,1
1725103317,18.5634083,73.8332217,514.0,24.12121212121212,99,31.303030303030305,1.0,-36.0,4.0,1
1725103318,18.5634083,73.8332217,514.0,24.46868686868687,99,31.303030303030305,1.0,-36.0,4.0,1
1725103319,18.5634083,73.8332217,514.0,24.33030303030303,99,30.848484848484848,1.0,-36.0,4.0,1
1725103320,18.5634083,73.8332217,514.0,24.268686868686867,99,30.848484848484848,1.0,-36.0,4.0,1
1725103321,18.5634083,73.8332217,514.0,24.33636363636364,99,30.848484848484848,1.0,-36.0,4.0,1
1725103322,18.5634083,73.8332217,514.0,24.023232323232325,99,30.848484848484848,1.0,-36.0,4.0,1
1725103323,18.5634083,73.8332217,514.0,22.362626262626264,99,30.656565656565657,1.0,-36.0,4.0,1
1725103324,18.5634083,73.8332217,514.0,23.1,99,30.656565656565657,1.0,-36.0,4.0,1
1725103325,18.5634083,73.8332217,514.0,23.24343434343434,99,30.656565656565657,1.0,-36.0,4.0,1
1725103326,18.5634083,73.8332217,514.0,23.58282828282828,99,30.656565656565657,1.0,-36.0,4.0,1
1725103327,18.5634083,73.8332217,514.0,23.6030303030303,99,30.656565656565657,1.0,-36.0,4.0,1
1725103328,18.5634083,73.8332217,514.0,23.92828282828283,99,30.555555555555557,1.0,-36.0,4.0,1
1725103329,18.5634083,73.8332217,514.0,24.184848484848487,99,30.565656565656564,1.0,-36.0,4.0,1
1725103330,18.5634083,73.8332217,514.0,24.272727272727273,99,30.565656565656564,1.0,-36.0,4.0,1
1725103331,18.5634083,73.8332217,514.0,24.221212121212123,99,30.565656565656564,1.0,-36.0,4.0,1
1725103332,18.5634083,73.8332217,514.0,24.24343434343434,99,30.565656565656564,1.0,-36.0,4.0,1
1725103333,18.5634083,73.8332217,514.0,24.224242424242423,99,30.565656565656564,1.0,-36.0,4.0,1
1725103334,18.5634083,73.8332217,514.0,24.366666666666667,99,30.565656565656564,1.0,-36.0,4.0,1
1725103335,18.5634083,73.8332217,514.0,23.984848484848484,99,31.232323232323232,1.0,-36.0,4.0,1
1725103336,18.5634083,73.8332217,514.0,24.204040404040402,99,31.828282828282827,1.0,-36.0,4.0,1
1725103337,18.5634083,73.8332217,514.0,24.093939393939397,99,31.828282828282827,1.0,-36.0,4.0,1
1725103338,18.5634083,73.8332217,514.0,23.915151515151514,99,31.828282828282827,1.0,-36.0,4.0,1
1725103339,18.5634083,73.8332217,514.0,24.060606060606062,99,32.41414141414141,1.0,-36.0,4.0,1
1725103340,18.5634083,73.8332217,514.0,24.2010101010101,99,32.41414141414141,1.0,-36.0,4.0,1
1725103341,18.5634083,73.8332217,514.0,24.28673469387755,98,32.66326530612245,1.0,-36.0,4.0,1
1725103342,18.5634083,73.8332217,514.0,24.341414141414145,99,32.23232323232323,1.0,-36.0,4.0,1
1725103343,18.5634083,73.8332217,514.0,24.299999999999997,99,32.41414141414141,1.0,-36.0,4.0,1
1725103344,18.5634083,73.8332217,514.0,24.50808080808081,99,32.41414141414141,1.0,-36.0,4.0,1
1725103345,18.5634083,73.8332217,514.0,24.646464646464647,99,32.01010101010101,1.0,-36.0,4.0,1
1725103346,18.5634083,73.8332217,514.0,24.483838383838386,99,32.01010101010101,1.0,-36.0,4.0,1
1725103347,18.5634083,73.8332217,514.0,24.48787878787879,99,32.01010101010101,1.0,-36.0,4.0,1
1725103348,18.5634083,73.8332217,514.0,24.61111111111111,99,31.616161616161616,1.0,-36.0,4.0,1
1725103349,18.5634083,73.8332217,514.0,24.52121212121212,99,31.616161616161616,1.0,-36.0,4.0,1
1725103350,18.5634083,73.8332217,514.0,24.687878787878788,99,31.606060606060606,1.0,-36.0,4.0,1
1725103351,18.5634083,73.8332217,514.0,24.51212121212121,99,31.626262626262626,1.0,-36.0,4.0,1
1725103352,18.5634083,73.8332217,514.0,24.513131313131314,99,31.626262626262626,1.0,-36.0,4.0,1
1725103353,18.5634083,73.8332217,514.0,24.364646464646462,99,31.626262626262626,1.0,-36.0,4.0,1
1725103354,18.5634083,73.8332217,514.0,24.4989898989899,99,31.07070707070707,1.0,-36.0,4.0,1
1725103355,18.5634083,73.8332217,514.0,24.276767676767676,99,31.08080808080808,1.0,-36.0,4.0,1
1725103356,18.5634083,73.8332217,514.0,24.412121212121214,99,31.08080808080808,1.0,-36.0,4.0,1
1725103357,18.5634083,73.8332217,514.0,24.138,100,30.78,1.0,-36.0,4.0,1
1725103358,18.5634083,73.8332217,514.0,24.04,100,30.59,1.0,-36.0,4.0,1
1725103359,18.5634083,73.8332217,514.0,23.945999999999998,100,30.59,1.0,-36.0,4.0,1
1725103360,18.5634083,73.8332217,514.0,24.12,100,30.59,1.0,-36.0,4.0,1
1725103361,18.5634083,73.8332217,514.0,24.221999999999998,100,30.59,1.0,-36.0,4.0,1
1725103362,18.5634083,73.8332217,514.0,24.271,100,30.59,1.0,-36.0,4.0,1
1725103363,18.5634083,73.8332217,514.0,24.226,100,30.29,1.0,-36.0,4.0,1
1725103364,18.5634083,73.8332217,514.0,24.25,100,30.3,1.0,-36.0,4.0,1
1725103365,18.5634083,73.8332217,514.0,24.169,100,30.3,1.0,-36.0,4.0,1
1725103366,18.5634083,73.8332217,514.0,24.253,100,30.3,1.0,-36.0,4.0,1
1725103367,18.5634083,73.8332217,514.0,24.295,100,30.3,1.0,-36.0,4.0,1
1725103368,18.5634083,73.8332217,514.0,24.177,100,30.3,1.0,-36.0,4.0,1
1725103369,18.5634083,73.8332217,514.0,24.22222222222222,99,30.545454545454547,1.0,-36.0,4.0,1
1725103370,18.5634083,73.8332217,514.0,24.264646464646464,99,30.545454545454547,1.0,-36.0,4.0,1
1725103371,18.5634083,73.8332217,514.0,23.96969696969697,99,30.545454545454547,1.0,-36.0,4.0,1
1725103372,18.5634083,73.8332217,514.0,23.974747474747474,99,30.545454545454547,1.0,-36.0,4.0,1
1725103373,18.5634083,73.8332217,514.0,23.95858585858586,99,30.545454545454547,1.0,-36.0,4.0,1
1725103374,18.5634083,73.8332217,514.0,22.94040404040404,99,30.525252525252526,1.0,-36.0,4.0,1
1725103375,18.5634083,73.8332217,514.0,22.466666666666665,99,30.525252525252526,1.0,-36.0,4.0,1
1725103376,18.5634083,73.8332217,514.0,22.635353535353538,99,30.515151515151516,1.0,-36.0,4.0,1
1725103377,18.5634083,73.8332217,514.0,21.91919191919192,99,30.515151515151516,1.0,-36.0,4.0,1
1725103378,18.5634083,73.8332217,514.0,21.702040816326534,98,30.755102040816325,2.0,-36.0,5.0,1
1725103379,18.5634083,73.8332217,514.0,20.959183673469386,98,30.744897959183675,2.0,-36.0,5.0,1
1725103380,18.5634083,73.8332217,514.0,20.798979591836734,98,30.724489795918366,2.0,-36.0,5.0,1
1725103381,18.5634083,73.8332217,514.0,21.882653061224488,98,30.724489795918366,2.0,-36.0,5.0,1
1725103382,18.5634083,73.8332217,514.0,22.118367346938776,98,30.744897959183675,2.0,-36.0,5.0,1
1725103383,18.5634083,73.8332217,514.0,22.94081632653061,98,32.02040816326531,2.0,-36.0,5.0,1
1725103384,18.5634083,73.8332217,514.0,22.593939393939397,99,31.757575757575758,2.0,-36.0,5.0,1
1725103385,18.5634083,73.8332217,514.0,22.824242424242424,99,31.757575757575758,2.0,-36.0,5.0,1
1725103386,18.5634083,73.8332217,514.0,22.45757575757576,99,31.757575757575758,2.0,-36.0,5.0,1
1725103387,18.5634083,73.8332217,514.0,22.773737373737372,99,31.747474747474747,2.0,-36.0,5.0,1
1725103388,18.5634083,73.8332217,514.0,24.515151515151516,99,31.747474747474747,2.0,-36.0,4.0,1
1725103389,18.5634083,73.8332217,514.0,24.563636363636366,99,32.333333333333336,2.0,-36.0,4.0,1
1725103390,18.5634083,73.8332217,514.0,24.516161616161614,99,32.333333333333336,2.0,-36.0,4.0,1
1725103391,18.5634083,73.8332217,514.0,24.327272727272728,99,32.35353535353536,2.0,-36.0,4.0,1
1725103392,18.5634083,73.8332217,514.0,24.415151515151514,99,31.767676767676768,2.0,-36.0,4.0,1
1725103393,18.5634083,73.8332217,514.0,24.27171717171717,99,31.95959595959596,2.0,-36.0,4.0,1
1725103394,18.5634083,73.8332217,514.0,24.394949494949493,99,31.95959595959596,2.0,-36.0,4.0,1
1725103395,18.5634083,73.8332217,514.0,24.24343434343434,99,31.95959595959596,2.0,-36.0,4.0,1
1725103396,18.5634083,73.8332217,514.0,24.536363636363635,99,31.95959595959596,2.0,-36.0,4.0,1
1725103397,18.5634083,73.8332217,514.0,24.443434343434344,99,31.939393939393938,2.0,-36.0,4.0,1
1725103398,18.5634083,73.8332217,514.0,24.496969696969696,99,31.545454545454547,2.0,-36.0,4.0,1
1725103399,18.5634083,73.8332217,514.0,24.57979797979798,99,31.525252525252526,2.0,-36.0,4.0,1
1725103400,18.5634083,73.8332217,514.0,24.36767676767677,99,31.525252525252526,2.0,-36.0,4.0,1
1725103401,18.5634083,73.8332217,514.0,24.44141414141414,99,31.525252525252526,2.0,-36.0,4.0,1
1725103402,18.5634083,73.8332217,514.0,24.47878787878788,99,30.96969696969697,2.0,-36.0,4.0,1
1725103403,18.5634083,73.8332217,514.0,24.55252525252525,99,30.96969696969697,2.0,-36.0,4.0,1
1725103404,18.5634083,73.8332217,514.0,24.554545454545455,99,30.96969696969697,2.0,-36.0,4.0,1
1725103405,18.5634083,73.8332217,514.0,24.523232323232325,99,30.96969696969697,2.0,-36.0,4.0,1
1725103406,18.5634083,73.8332217,514.0,24.515151515151516,99,30.949494949494948,2.0,-36.0,4.0,1
1725103407,18.5634083,73.8332217,514.0,24.120202020202022,99,30.949494949494948,2.0,-36.0,4.0,1
1725103408,18.5634083,73.8332217,514.0,24.13131313131313,99,31.404040404040405,2.0,-36.0,4.0,1
1725103409,18.5634083,73.8332217,514.0,24.088888888888892,99,31.404040404040405,2.0,-36.0,4.0,1
1725103410,18.5634083,73.8332217,514.0,24.01212121212121,99,31.404040404040405,2.0,-36.0,4.0,1
1725103411,18.5634083,73.8332217,514.0,24.138383838383838,99,32.282828282828284,2.0,-36.0,4.0,1
1725103412,18.5634083,73.8332217,514.0,24.16060606060606,99,32.282828282828284,2.0,-36.0,4.0,1
1725103413,18.5634083,73.8332217,514.0,24.238383838383836,99,32.282828282828284,2.0,-36.0,4.0,1
1725103414,18.5634083,73.8332217,514.0,23.982828282828283,99,32.282828282828284,2.0,-36.0,4.0,1
1725103415,18.5634083,73.8332217,514.0,23.955555555555556,99,32.282828282828284,2.0,-36.0,4.0,1
1725103416,18.5634083,73.8332217,514.0,24.04949494949495,99,32.282828282828284,2.0,-36.0,4.0,1
1725103417,18.5634083,73.8332217,514.0,23.764646464646464,99,32.282828282828284,2.0,-36.0,4.0,1
1725103418,18.5634083,73.8332217,514.0,23.84040404040404,99,32.121212121212125,2.0,-36.0,4.0,1
1725103419,18.5634083,73.8332217,514.0,23.736363636363638,99,32.121212121212125,2.0,-36.0,4.0,1
1725103420,18.5634083,73.8332217,514.0,23.799999999999997,99,32.101010101010104,2.0,-36.0,4.0,1
1725103421,18.5634083,73.8332217,514.0,23.897979797979797,99,31.484848484848484,2.0,-36.0,4.0,1
1725103422,18.5634083,73.8332217,514.0,23.745454545454546,99,31.484848484848484,2.0,-36.0,4.0,1
1725103423,18.5634083,73.8332217,514.0,23.818181818181817,99,31.484848484848484,2.0,-36.0,4.0,1
1725103424,18.5634083,73.8332217,514.0,23.752525252525253,99,31.484848484848484,2.0,-36.0,4.0,1
1725103425,18.5634083,73.8332217,514.0,,0,,2.0,-36.0,4.0,1
