timestamp,latitude,longitude,altitude,mean_snr,sat_count,mean_elevation,roll,pitch,yaw,is_inclined
1725102129,18.56336,73.8332117,524.3,,0,,-2.0,-5.0,162.0,1
1725102130,18.5633615,73.8332118,524.0,23.465263157894736,95,32.694736842105264,-3.0,1.0,178.0,1
1725102131,18.5633616,73.8332118,523.4,18.25824175824176,91,33.64835164835165,0.0,0.0,173.0,1
1725102132,18.5633601,73.8332102,523.1999999999999,18.190217391304348,92,33.53260869565217,0.0,0.0,173.0,1
1725102133,18.5633629,73.83321,523.1,14.933695652173913,92,33.80434782608695,0.0,0.0,173.0,1
1725102134,18.5633675,73.83321,523.0,15.101086956521739,92,33.80434782608695,0.0,0.0,173.0,1
1725102135,18.563371,73.8332128,522.6999999999999,15.505434782608695,92,33.80434782608695,0.0,0.0,173.0,1
1725102136,18.5633716,73.8332132,522.6999999999999,16.17608695652174,92,33.80434782608695,0.0,0.0,173.0,1
1725102137,18.5633717,73.8332133,522.6999999999999,16.752747252747252,91,34.0989010989011,0.0,0.0,173.0,1
1725102138,18.5633717,73.8332133,522.6999999999999,17.286813186813188,91,34.0989010989011,0.0,0.0,173.0,1
1725102139,18.5633717,73.8332133,522.6999999999999,17.16813186813187,91,33.10989010989011,0.0,0.0,173.0,1
1725102140,18.5633717,73.8332133,522.6999999999999,17.163736263736265,91,33.10989010989011,0.0,0.0,173.0,1
1725102141,18.5633717,73.8332133,522.6999999999999,17.24285714285714,91,33.10989010989011,0.0,0.0,173.0,1
1725102142,18.5633717,73.8332133,522.6999999999999,17.185714285714287,91,33.10989010989011,0.0,0.0,173.0,1
1725102143,18.5633717,73.8332133,522.6999999999999,16.97142857142857,91,33.10989010989011,0.0,0.0,173.0,1
1725102144,18.5633717,73.8332133,522.6999999999999,16.973626373626374,91,33.10989010989011,0.0,0.0,173.0,1
1725102145,18.5633717,73.8332133,522.6999999999999,17.184615384615384,91,33.10989010989011,0.0,0.0,173.0,1
1725102146,18.5633717,73.8332133,522.6999999999999,17.352747252747253,91,33.10989010989011,0.0,0.0,173.0,1
1725102147,18.5633717,73.8332133,522.6999999999999,17.52747252747253,91,33.10989010989011,0.0,0.0,173.0,1
1725102148,18.5633717,73.8332133,522.6999999999999,17.762637362637363,91,33.10989010989011,0.0,0.0,173.0,1
1725102149,18.5633717,73.8332133,522.6999999999999,17.83076923076923,91,32.40659340659341,0.0,0.0,173.0,1
1725102150,18.5633717,73.8332133,522.6999999999999,17.931521739130435,92,32.43478260869565,0.0,0.0,173.0,1
1725102151,18.5633717,73.8332133,522.6999999999999,18.01195652173913,92,32.43478260869565,0.0,0.0,173.0,1
1725102152,18.5633717,73.8332133,522.6999999999999,17.98913043478261,92,32.43478260869565,0.0,0.0,173.0,1
1725102153,18.5633717,73.8332133,522.6999999999999,17.97826086956522,92,32.43478260869565,0.0,0.0,173.0,1
1725102154,18.5633717,73.8332133,522.6999999999999,18.069565217391304,92,32.43478260869565,0.0,0.0,173.0,1
1725102155,18.5633717,73.8332133,522.6999999999999,17.898913043478263,92,32.43478260869565,0.0,0.0,173.0,1
1725102156,18.5633717,73.8332133,522.6999999999999,17.830434782608698,92,32.43478260869565,0.0,0.0,173.0,1
1725102157,18.5633717,73.8332133,522.6999999999999,17.75108695652174,92,32.43478260869565,0.0,0.0,173.0,1
1725102158,18.5633717,73.8332133,522.6999999999999,17.880434782608695,92,32.31521739130435,0.0,0.0,173.0,1
1725102159,18.5633717,73.8332133,522.6999999999999,17.757608695652173,92,32.31521739130435,0.0,0.0,173.0,1
1725102160,18.5633717,73.8332133,522.6999999999999,17.782608695652176,92,32.31521739130435,0.0,0.0,173.0,1
1725102161,18.5633717,73.8332133,522.6999999999999,17.86521739130435,92,32.31521739130435,0.0,0.0,173.0,1
1725102162,18.5633717,73.8332133,522.6999999999999,17.98804347826087,92,33.03260869565217,0.0,0.0,173.0,1
1725102163,18.5633717,73.8332133,522.6999999999999,18.01195652173913,92,33.03260869565217,0.0,0.0,173.0,1
1725102164,18.5633717,73.8332133,522.6999999999999,18.453260869565216,92,33.03260869565217,0.0,0.0,174.0,1
1725102165,18.5633717,73.8332133,522.6999999999999,18.519565217391303,92,33.67391304347826,0.0,0.0,174.0,1
1725102166,18.5633717,73.8332133,522.6999999999999,18.53369565217391,92,33.67391304347826,0.0,0.0,174.0,1
1725102167,18.5633717,73.8332133,522.6999999999999,18.543478260869566,92,33.67391304347826,0.0,0.0,174.0,1
1725102168,18.5633717,73.8332133,522.6999999999999,16.297826086956523,92,34.30434782608695,0.0,0.0,174.0,1
1725102169,18.5633717,73.8332133,522.6999999999999,17.039130434782606,92,34.30434782608695,0.0,0.0,174.0,1
1725102170,18.5633717,73.8332133,522.6999999999999,17.61413043478261,92,34.30434782608695,0.0,0.0,174.0,1
1725102171,18.5633717,73.8332133,522.6999999999999,17.866304347826087,92,34.30434782608695,0.0,0.0,174.0,1
1725102172,18.5633717,73.8332133,522.6999999999999,17.81413043478261,92,34.108695652173914,0.0,0.0,174.0,1
1725102173,18.5633717,73.8332133,522.6999999999999,17.695698924731182,93,33.8494623655914,0.0,0.0,174.0,1
1725102174,18.5633717,73.8332133,522.6999999999999,17.63978494623656,93,33.61290322580645,0.0,0.0,174.0,1
1725102175,18.5633717,73.8332133,522.6999999999999,17.656989247311827,93,33.61290322580645,0.0,0.0,174.0,1
1725102176,18.5633717,73.8332133,522.6999999999999,18.11182795698925,93,33.61290322580645,0.0,0.0,174.0,1
1725102177,18.5633717,73.8332133,522.6999999999999,18.018279569892474,93,33.61290322580645,0.0,0.0,174.0,1
1725102178,18.5633717,73.8332133,522.6999999999999,18.112903225806452,93,33.193548387096776,0.0,0.0,174.0,1
1725102179,18.5633717,73.8332133,522.6999999999999,18.166666666666668,93,33.193548387096776,0.0,0.0,174.0,1
1725102180,18.563397,73.8332091,519.3,18.091397849462364,93,33.193548387096776,0.0,0.0,174.0,1
1725102181,18.563401,73.8332042,519.0,18.008602150537634,93,32.88172043010753,0.0,0.0,174.0,1
1725102182,18.5634029,73.8332034,518.8,18.03440860215054,93,32.88172043010753,0.0,0.0,174.0,1
1725102183,18.5634019,73.8332048,518.6,18.00215053763441,93,32.88172043010753,0.0,0.0,174.0,1
1725102184,18.5634017,73.833205,518.6,18.355913978494623,93,32.59139784946237,0.0,0.0,174.0,1
1725102185,18.5634017,73.833205,518.6,18.010752688172044,93,32.59139784946237,0.0,0.0,174.0,1
1725102186,18.5634017,73.833205,518.6,18.123655913978496,93,32.60215053763441,0.0,0.0,174.0,1
1725102187,18.5634017,73.833205,518.6,18.20537634408602,93,32.39784946236559,0.0,0.0,174.0,1
1725102188,18.5634017,73.833205,518.6,18.06451612903226,93,32.39784946236559,0.0,0.0,174.0,1
1725102189,18.5634017,73.833205,518.6,17.954838709677418,93,32.39784946236559,0.0,0.0,174.0,1
1725102190,18.5634017,73.833205,518.6,17.903225806451612,93,32.39784946236559,0.0,0.0,174.0,1
1725102191,18.5634017,73.833205,518.6,17.884946236559138,93,32.193548387096776,0.0,0.0,174.0,1
1725102192,18.5634017,73.833205,518.6,17.948387096774194,93,32.193548387096776,0.0,0.0,174.0,1
1725102193,18.5634017,73.833205,518.6,17.916129032258066,93,32.075268817204304,0.0,0.0,174.0,1
1725102194,18.5634017,73.833205,518.6,17.919354838709676,93,32.075268817204304,0.0,0.0,174.0,1
1725102195,18.5634017,73.833205,518.6,18.03010752688172,93,32.075268817204304,0.0,0.0,174.0,1
1725102196,18.5634017,73.833205,518.6,18.018279569892474,93,32.075268817204304,0.0,0.0,174.0,1
1725102197,18.5634017,73.833205,518.6,18.372043010752687,93,32.075268817204304,0.0,0.0,174.0,1
1725102198,18.5634017,73.833205,518.6,18.366666666666667,93,32.075268817204304,0.0,0.0,174.0,1
1725102199,18.5634017,73.833205,518.6,18.488172043010753,93,32.075268817204304,0.0,0.0,174.0,1
1725102200,18.5634017,73.833205,518.6,18.49032258064516,93,32.075268817204304,0.0,0.0,174.0,1
1725102201,18.5634017,73.833205,518.6,18.387096774193548,93,32.075268817204304,0.0,0.0,174.0,1
1725102202,18.5634017,73.833205,518.6,18.274193548387096,93,32.075268817204304,0.0,0.0,174.0,1
1725102203,18.5634017,73.833205,518.6,18.170967741935485,93,32.075268817204304,0.0,0.0,174.0,1
1725102204,18.5634017,73.833205,518.6,18.23010752688172,93,32.075268817204304,0.0,0.0,174.0,1
1725102205,18.5634017,73.833205,518.6,18.123655913978496,93,32.064516129032256,0.0,0.0,174.0,1
1725102206,18.5634017,73.833205,518.6,18.260215053763442,93,32.064516129032256,0.0,0.0,174.0,1
1725102207,18.5634017,73.833205,518.6,18.462365591397848,93,32.053763440860216,0.0,0.0,174.0,1
1725102208,18.5634017,73.833205,518.6,18.454838709677418,93,32.053763440860216,0.0,0.0,174.0,1
1725102209,18.5634017,73.833205,518.6,18.670967741935485,93,32.043010752688176,0.0,0.0,174.0,1
1725102210,18.5634017,73.833205,518.6,18.68494623655914,93,32.053763440860216,0.0,0.0,174.0,1
1725102211,18.5634017,73.833205,518.6,18.595698924731185,93,32.043010752688176,0.0,0.0,174.0,1
1725102212,18.5634017,73.833205,518.6,18.616129032258065,93,32.043010752688176,0.0,0.0,174.0,1
1725102213,18.5634017,73.833205,518.6,18.531182795698925,93,33.376344086021504,0.0,0.0,174.0,1
1725102214,18.5634017,73.833205,518.6,18.553763440860216,93,33.365591397849464,0.0,0.0,174.0,1
1725102215,18.5634017,73.833205,518.6,18.404301075268815,93,33.365591397849464,0.0,0.0,174.0,1
1725102216,18.5634017,73.833205,518.6,18.40215053763441,93,33.98924731182796,0.0,0.0,174.0,1
1725102217,18.5634017,73.833205,518.6,18.36774193548387,93,33.96774193548387,0.0,0.0,174.0,1
1725102218,18.5634017,73.833205,518.6,18.308602150537634,93,33.96774193548387,0.0,0.0,174.0,1
1725102219,18.5634017,73.833205,518.6,18.09784946236559,93,33.96774193548387,0.0,0.0,174.0,1
1725102220,18.5634017,73.833205,518.6,18.381720430107528,93,33.946236559139784,0.0,0.0,174.0,1
1725102221,18.5634017,73.833205,518.6,18.27956989247312,93,33.96774193548387,0.0,0.0,174.0,1
1725102222,18.5634017,73.833205,518.6,18.340860215053763,93,33.516129032258064,0.0,0.0,174.0,1
1725102223,18.5634017,73.833205,518.6,18.302150537634407,93,33.516129032258064,0.0,0.0,174.0,1
1725102224,18.5634017,73.833205,518.6,18.401075268817205,93,33.516129032258064,0.0,0.0,174.0,1
1725102225,18.5634017,73.833205,518.6,18.2752688172043,93,33.096774193548384,0.0,0.0,174.0,1
1725102226,18.5634017,73.833205,518.6,18.293548387096774,93,33.096774193548384,0.0,0.0,174.0,1
1725102227,18.5634017,73.833205,518.6,18.36021505376344,93,33.10752688172043,0.0,0.0,174.0,1
1725102228,18.5634017,73.833205,518.6,18.351612903225806,93,33.10752688172043,0.0,0.0,174.0,1
1725102229,18.5634017,73.833205,518.6,18.383870967741935,93,33.12903225806452,0.0,0.0,174.0,1
1725102230,18.5634017,73.833205,518.6,18.343010752688173,93,33.12903225806452,0.0,0.0,174.0,1
1725102231,18.5634017,73.833205,518.6,18.418279569892473,93,32.53763440860215,0.0,0.0,174.0,1
1725102232,18.5634017,73.833205,518.6,18.372043010752687,93,32.53763440860215,0.0,0.0,174.0,1
1725102233,18.5634017,73.833205,518.6,18.302150537634407,93,32.53763440860215,0.0,0.0,174.0,1
1725102234,18.5634017,73.833205,518.6,18.38924731182796,93,33.02150537634409,0.0,0.0,174.0,1
1725102235,18.5634017,73.833205,518.6,18.34516129032258,93,33.02150537634409,0.0,0.0,174.0,1
1725102236,18.5634017,73.833205,518.6,18.40215053763441,93,33.02150537634409,0.0,0.0,174.0,1
1725102237,18.5634017,73.833205,518.6,18.381720430107528,93,33.02150537634409,0.0,0.0,174.0,1
1725102238,18.5634017,73.833205,518.6,18.41720430107527,93,33.02150537634409,0.0,0.0,174.0,1
1725102239,18.5634017,73.833205,518.6,18.408602150537636,93,33.02150537634409,0.0,0.0,174.0,1
1725102240,18.5634017,73.833205,518.6,18.489247311827956,93,33.02150537634409,0.0,0.0,174.0,1
1725102241,18.5634017,73.833205,518.6,18.421505376344086,93,33.956989247311824,0.0,0.0,174.0,1
1725102242,18.5634017,73.833205,518.6,18.401075268817205,93,33.956989247311824,0.0,0.0,174.0,1
1725102243,18.5634017,73.833205,518.6,18.511827956989247,93,33.763440860215056,0.0,0.0,174.0,1
1725102244,18.5634017,73.833205,518.6,18.56774193548387,93,33.763440860215056,0.0,0.0,174.0,1
1725102245,18.5634017,73.833205,518.6,18.43763440860215,93,33.763440860215056,0.0,0.0,174.0,1
1725102246,18.5634017,73.833205,518.6,18.49032258064516,93,33.763440860215056,0.0,0.0,174.0,1
1725102247,18.5634017,73.833205,518.6,18.449462365591398,93,33.763440860215056,0.0,0.0,174.0,1
1725102248,18.5634017,73.833205,518.6,18.39032258064516,93,33.763440860215056,0.0,0.0,174.0,1
1725102249,18.5634017,73.833205,518.6,18.44516129032258,93,33.763440860215056,0.0,0.0,174.0,1
1725102250,18.5634017,73.833205,518.6,18.47204301075269,93,33.10752688172043,0.0,0.0,174.0,1
1725102251,18.5634017,73.833205,518.6,18.425806451612903,93,33.10752688172043,0.0,0.0,174.0,1
1725102252,18.5634017,73.833205,518.6,18.46559139784946,93,32.795698924731184,0.0,0.0,174.0,1
1725102253,18.5634017,73.833205,518.6,18.453763440860214,93,32.806451612903224,0.0,0.0,174.0,1
1725102254,18.5634017,73.833205,518.6,18.467741935483872,93,32.81720430107527,0.0,0.0,174.0,1
1725102255,18.5634017,73.833205,518.6,18.526881720430108,93,32.81720430107527,0.0,0.0,174.0,1
1725102256,18.5634017,73.833205,518.6,18.372043010752687,93,32.806451612903224,0.0,0.0,174.0,1
1725102257,18.5634017,73.833205,518.6,18.125806451612902,93,32.806451612903224,0.0,0.0,174.0,1
1725102258,18.5634017,73.833205,518.6,18.122580645161293,93,32.806451612903224,0.0,0.0,174.0,1
1725102259,18.5634017,73.833205,518.6,18.233333333333334,93,32.806451612903224,0.0,0.0,174.0,1
1725102260,18.5634017,73.833205,518.6,18.483870967741936,93,32.32258064516129,0.0,0.0,174.0,1
1725102261,18.5634017,73.833205,518.6,18.476344086021506,93,32.333333333333336,0.0,0.0,174.0,1
1725102262,18.5634017,73.833205,518.6,18.419354838709676,93,32.12903225806452,0.0,0.0,174.0,1
1725102263,18.5634017,73.833205,518.6,18.521505376344088,93,32.12903225806452,0.0,0.0,174.0,1
1725102264,18.5634017,73.833205,518.6,18.454838709677418,93,32.12903225806452,0.0,0.0,174.0,1
1725102265,18.5634017,73.833205,518.6,18.41505376344086,93,32.12903225806452,0.0,0.0,174.0,1
1725102266,18.5634017,73.833205,518.6,18.462365591397848,93,32.12903225806452,0.0,0.0,174.0,1
1725102267,18.5634017,73.833205,518.6,18.344086021505376,93,32.12903225806452,0.0,0.0,174.0,1
1725102268,18.5634017,73.833205,518.6,18.3752688172043,93,32.12903225806452,0.0,0.0,174.0,1
1725102269,18.5634017,73.833205,518.6,18.336559139784946,93,32.01075268817204,0.0,0.0,174.0,1
1725102270,18.5634017,73.833205,518.6,18.43763440860215,93,32.01075268817204,0.0,0.0,174.0,1
1725102271,18.5634017,73.833205,518.6,18.379569892473118,93,32.01075268817204,0.0,0.0,174.0,1
1725102272,18.5634017,73.833205,518.6,18.44516129032258,93,32.01075268817204,0.0,0.0,174.0,1
1725102273,18.5634017,73.833205,518.6,18.446236559139784,93,32.01075268817204,0.0,0.0,174.0,1
1725102274,18.5634017,73.833205,518.6,18.341935483870966,93,32.72043010752688,0.0,0.0,174.0,1
1725102275,18.5634017,73.833205,518.6,18.27204301075269,93,32.70967741935484,0.0,0.0,174.0,1
1725102276,18.5634017,73.833205,518.6,18.365591397849464,93,33.365591397849464,0.0,0.0,174.0,1
1725102277,18.5634017,73.833205,518.6,18.267741935483873,93,33.376344086021504,0.0,0.0,174.0,1
1725102278,18.5634017,73.833205,518.6,18.333333333333332,93,33.376344086021504,0.0,0.0,174.0,1
1725102279,18.5634017,73.833205,518.6,18.309677419354838,93,34.0,0.0,0.0,174.0,1
1725102280,18.5634017,73.833205,518.6,18.051063829787232,94,33.648936170212764,0.0,0.0,174.0,1
1725102281,18.5634017,73.833205,518.6,18.111702127659573,94,33.648936170212764,0.0,0.0,174.0,1
1725102282,18.5634017,73.833205,518.6,18.21276595744681,94,33.648936170212764,0.0,0.0,174.0,1
1725102283,18.5634017,73.833205,518.6,18.206382978723404,94,33.638297872340424,0.0,0.0,174.0,1
1725102284,18.5634017,73.833205,518.6,18.00212765957447,94,33.4468085106383,0.0,0.0,174.0,1
1725102285,18.5634017,73.833205,518.6,18.386170212765958,94,33.4468085106383,0.0,0.0,174.0,1
1725102286,18.5634017,73.833205,518.6,18.325531914893617,94,33.212765957446805,0.0,0.0,174.0,1
1725102287,18.5634017,73.833205,518.6,18.352127659574467,94,33.212765957446805,0.0,0.0,174.0,1
1725102288,18.5634017,73.833205,518.6,18.07127659574468,94,33.212765957446805,0.0,0.0,174.0,1
1725102289,18.5634017,73.833205,518.6,18.23085106382979,94,32.808510638297875,0.0,0.0,174.0,1
1725102290,18.5634017,73.833205,518.6,18.22446808510638,94,32.808510638297875,0.0,0.0,174.0,1
1725102291,18.5634017,73.833205,518.6,18.17340425531915,94,32.808510638297875,0.0,0.0,174.0,1
1725102292,18.5634017,73.833205,518.6,18.17127659574468,94,32.808510638297875,0.0,0.0,174.0,1
1725102293,18.5634017,73.833205,518.6,18.06808510638298,94,32.5,0.0,0.0,174.0,1
1725102294,18.5634017,73.833205,518.6,18.217021276595744,94,32.48936170212766,0.0,0.0,174.0,1
1725102295,18.5634017,73.833205,518.6,18.25212765957447,94,32.212765957446805,0.0,0.0,174.0,1
1725102296,18.5634017,73.833205,518.6,18.136170212765958,94,32.212765957446805,0.0,0.0,174.0,1
1725102297,18.5634017,73.833205,518.6,18.174468085106383,94,32.212765957446805,0.0,0.0,174.0,1
1725102298,18.5634017,73.833205,518.6,18.01276595744681,94,32.01063829787234,0.0,0.0,174.0,1
1725102299,18.5634017,73.833205,518.6,17.907446808510638,94,32.01063829787234,0.0,0.0,174.0,1
1725102300,18.5634017,73.833205,518.6,17.988297872340425,94,32.01063829787234,0.0,0.0,174.0,1
1725102301,18.5634017,73.833205,518.6,17.96808510638298,94,32.0,0.0,0.0,174.0,1
1725102302,18.5634017,73.833205,518.6,17.98404255319149,94,31.79787234042553,0.0,0.0,174.0,1
1725102303,18.5634017,73.833205,518.6,17.89468085106383,94,31.79787234042553,0.0,0.0,174.0,1
1725102304,18.5634017,73.833205,518.6,17.856382978723403,94,31.78723404255319,0.0,0.0,174.0,1
1725102305,18.5634017,73.833205,518.6,17.738297872340425,94,31.648936170212767,0.0,0.0,174.0,1
1725102306,18.5634017,73.833205,518.6,17.81382978723404,94,31.648936170212767,0.0,0.0,174.0,1
1725102307,18.5634017,73.833205,518.6,17.777659574468085,94,31.648936170212767,0.0,0.0,174.0,1
1725102308,18.5634017,73.833205,518.6,17.852127659574467,94,31.648936170212767,0.0,0.0,174.0,1
1725102309,18.5634017,73.833205,518.6,17.80212765957447,94,31.648936170212767,0.0,0.0,174.0,1
1725102310,18.5634017,73.833205,518.6,17.880851063829788,94,31.648936170212767,0.0,0.0,174.0,1
1725102311,18.5634017,73.833205,518.6,17.842553191489362,94,31.648936170212767,0.0,0.0,174.0,1
1725102312,18.5634017,73.833205,518.6,17.79255319148936,94,31.648936170212767,0.0,0.0,174.0,1
1725102313,18.5634017,73.833205,518.6,17.829787234042552,94,31.648936170212767,0.0,0.0,174.0,1
1725102314,18.5634017,73.833205,518.6,17.845744680851062,94,31.648936170212767,0.0,0.0,174.0,1
1725102315,18.5634017,73.833205,518.6,17.91808510638298,94,31.648936170212767,0.0,0.0,174.0,1
1725102316,18.5634017,73.833205,518.6,17.85,94,31.648936170212767,0.0,0.0,174.0,1
1725102317,18.5634017,73.833205,518.6,17.895744680851063,94,31.648936170212767,0.0,0.0,174.0,1
1725102318,18.5634017,73.833205,518.6,17.846808510638297,94,31.648936170212767,0.0,0.0,174.0,1
1725102319,18.5634017,73.833205,518.6,17.988297872340425,94,31.648936170212767,0.0,0.0,174.0,1
1725102320,18.5634017,73.833205,518.6,17.98617021276596,94,31.648936170212767,0.0,0.0,174.0,1
1725102321,18.5634017,73.833205,518.6,18.08404255319149,94,31.648936170212767,0.0,0.0,174.0,1
1725102322,18.5634017,73.833205,518.6,17.97978723404255,94,31.638297872340427,0.0,0.0,174.0,1
1725102323,18.5634017,73.833205,518.6,17.95212765957447,94,31.638297872340427,0.0,0.0,174.0,1
1725102324,18.5634017,73.833205,518.6,18.059574468085106,94,32.9468085106383,0.0,0.0,174.0,1
1725102325,18.5634017,73.833205,518.6,17.98404255319149,94,32.9468085106383,0.0,0.0,174.0,1
1725102326,18.5634017,73.833205,518.6,17.940425531914894,94,32.9468085106383,0.0,0.0,174.0,1
1725102327,18.5634017,73.833205,518.6,17.897872340425533,94,33.56382978723404,0.0,0.0,174.0,1
1725102328,18.5634017,73.833205,518.6,18.01914893617021,94,33.56382978723404,0.0,0.0,174.0,1
1725102329,18.5634017,73.833205,518.6,18.05,94,33.56382978723404,0.0,0.0,174.0,1
1725102330,18.5634017,73.833205,518.6,17.95,94,33.56382978723404,0.0,0.0,174.0,1
1725102331,18.5634017,73.833205,518.6,17.956382978723404,94,33.56382978723404,0.0,0.0,174.0,1
1725102332,18.5634017,73.833205,518.6,17.93617021276596,94,33.56382978723404,0.0,0.0,174.0,1
1725102333,18.5634017,73.833205,518.6,17.914893617021278,94,33.138297872340424,0.0,0.0,174.0,1
1725102334,18.5634017,73.833205,518.6,17.97340425531915,94,33.138297872340424,0.0,0.0,174.0,1
1725102335,18.5634017,73.833205,518.6,18.01276595744681,94,33.138297872340424,0.0,0.0,174.0,1
1725102336,18.5634017,73.833205,518.6,17.96489361702128,94,32.723404255319146,0.0,0.0,174.0,1
1725102337,18.5634017,73.833205,518.6,17.76595744680851,94,32.723404255319146,0.0,0.0,174.0,1
1725102338,18.5634017,73.833205,518.6,17.8031914893617,94,32.723404255319146,0.0,0.0,174.0,1
1725102339,18.5634017,73.833205,518.6,17.79468085106383,94,32.723404255319146,0.0,0.0,174.0,1
1725102340,18.5634017,73.833205,518.6,17.777659574468085,94,32.723404255319146,0.0,0.0,174.0,1
1725102341,18.5634017,73.833205,518.6,17.777659574468085,94,32.723404255319146,0.0,0.0,174.0,1
1725102342,18.5634017,73.833205,518.6,17.809574468085106,94,32.723404255319146,0.0,0.0,174.0,1
1725102343,18.5634017,73.833205,518.6,17.857446808510637,94,32.159574468085104,0.0,0.0,174.0,1
1725102344,18.5634017,73.833205,518.6,17.869148936170212,94,32.159574468085104,0.0,0.0,174.0,1
1725102345,18.5634017,73.833205,518.6,17.80851063829787,94,32.648936170212764,0.0,0.0,174.0,1
1725102346,18.5634017,73.833205,518.6,17.75851063829787,94,32.648936170212764,0.0,0.0,174.0,1
1725102347,18.5634017,73.833205,518.6,17.804255319148936,94,32.648936170212764,0.0,0.0,174.0,1
1725102348,18.5634017,73.833205,518.6,17.854255319148937,94,32.648936170212764,0.0,0.0,174.0,1
1725102349,18.5634017,73.833205,518.6,18.070212765957447,94,32.648936170212764,0.0,0.0,174.0,1
1725102350,18.5634017,73.833205,518.6,18.02659574468085,94,32.659574468085104,0.0,0.0,174.0,1
1725102351,18.5634017,73.833205,518.6,17.9968085106383,94,32.670212765957444,0.0,0.0,174.0,1
1725102352,18.5634017,73.833205,518.6,17.96808510638298,94,33.59574468085106,0.0,0.0,174.0,1
1725102353,18.5634017,73.833205,518.6,17.948936170212768,94,33.59574468085106,0.0,0.0,174.0,1
1725102354,18.5634017,73.833205,518.6,18.05744680851064,94,33.40425531914894,0.0,0.0,174.0,1
1725102355,18.5634017,73.833205,518.6,17.938297872340424,94,33.40425531914894,0.0,0.0,174.0,1
1725102356,18.5634017,73.833205,518.6,17.96276595744681,94,33.40425531914894,0.0,0.0,174.0,1
1725102357,18.5634017,73.833205,518.6,17.77127659574468,94,33.40425531914894,0.0,0.0,174.0,1
1725102358,18.5634017,73.833205,518.6,17.886170212765958,94,33.40425531914894,0.0,0.0,174.0,1
1725102359,18.5634017,73.833205,518.6,17.995744680851065,94,33.40425531914894,0.0,0.0,174.0,1
1725102360,18.5634017,73.833205,518.6,17.91063829787234,94,33.3936170212766,0.0,0.0,174.0,1
1725102361,18.5634017,73.833205,518.6,17.798936170212766,94,32.765957446808514,0.0,0.0,174.0,1
1725102362,18.5634017,73.833205,518.6,17.71276595744681,94,32.787234042553195,0.0,0.0,174.0,1
1725102363,18.5634017,73.833205,518.6,17.782978723404256,94,32.47872340425532,0.0,0.0,174.0,1
1725102364,18.5634017,73.833205,518.6,17.85,94,32.47872340425532,0.0,0.0,174.0,1
1725102365,18.5634017,73.833205,518.6,17.856382978723403,94,32.46808510638298,0.0,0.0,174.0,1
1725102366,18.5634017,73.833205,518.6,18.01914893617021,94,32.45744680851064,0.0,0.0,174.0,1
1725102367,18.5634017,73.833205,518.6,17.95894736842105,95,32.23157894736842,0.0,0.0,174.0,1
1725102368,18.5634017,73.833205,518.6,17.87263157894737,95,32.23157894736842,0.0,0.0,174.0,1
1725102369,18.5634017,73.833205,518.6,17.804210526315792,95,32.23157894736842,0.0,0.0,174.0,1
1725102370,18.5634017,73.833205,518.6,17.867021276595743,94,31.97872340425532,0.0,0.0,174.0,1
1725102371,18.5634017,73.833205,518.6,17.885106382978723,94,31.97872340425532,0.0,0.0,174.0,1
1725102372,18.5634017,73.833205,518.6,17.822105263157894,95,31.757894736842104,0.0,0.0,174.0,1
1725102373,18.5634017,73.833205,518.6,17.801052631578948,95,31.557894736842105,0.0,0.0,174.0,1
1725102374,18.5634017,73.833205,518.6,17.854736842105265,95,31.557894736842105,0.0,0.0,174.0,1
1725102375,18.5634017,73.833205,518.6,17.82526315789474,95,31.557894736842105,0.0,0.0,174.0,1
1725102376,18.5634017,73.833205,518.6,17.977894736842106,95,31.557894736842105,0.0,0.0,174.0,1
1725102377,18.5634017,73.833205,518.6,17.98421052631579,95,31.557894736842105,0.0,0.0,174.0,1
1725102378,18.5634017,73.833205,518.6,17.969473684210524,95,31.557894736842105,0.0,0.0,174.0,1
1725102379,18.5634017,73.833205,518.6,18.01157894736842,95,31.568421052631578,0.0,0.0,174.0,1
1725102380,18.5634017,73.833205,518.6,18.018947368421053,95,31.45263157894737,0.0,0.0,174.0,1
1725102381,18.5634017,73.833205,518.6,17.962105263157895,95,31.45263157894737,0.0,0.0,174.0,1
1725102382,18.5634017,73.833205,518.6,17.982105263157894,95,31.46315789473684,0.0,0.0,174.0,1
1725102383,18.5634017,73.833205,518.6,18.03684210526316,95,31.46315789473684,0.0,0.0,174.0,1
1725102384,18.5634017,73.833205,518.6,17.717894736842105,95,31.46315789473684,0.0,0.0,174.0,1
1725102385,18.5634017,73.833205,518.6,17.66842105263158,95,31.46315789473684,0.0,0.0,174.0,1
1725102386,18.5634017,73.833205,518.6,17.7,95,32.78947368421053,0.0,0.0,174.0,1
1725102387,18.5634017,73.833205,518.6,17.733684210526317,95,32.76842105263158,0.0,0.0,174.0,1
1725102388,18.5634017,73.833205,518.6,17.766315789473683,95,32.76842105263158,0.0,0.0,174.0,1
1725102389,18.5634017,73.833205,518.6,17.8,95,33.357894736842105,0.0,0.0,174.0,1
1725102390,18.5634017,73.833205,518.6,17.683157894736844,95,33.357894736842105,0.0,0.0,174.0,1
1725102391,18.5634017,73.833205,518.6,17.835789473684212,95,33.357894736842105,0.0,0.0,174.0,1
1725102392,18.5634017,73.833205,518.6,17.722105263157893,95,33.357894736842105,0.0,0.0,174.0,1
1725102393,18.5634017,73.833205,518.6,17.518947368421053,95,33.357894736842105,0.0,0.0,174.0,1
1725102394,18.5634017,73.833205,518.6,17.683157894736844,95,33.357894736842105,0.0,0.0,174.0,1
1725102395,18.5634017,73.833205,518.6,17.702105263157897,95,32.93684210526316,0.0,0.0,174.0,1
1725102396,18.5634017,73.833205,518.6,17.69157894736842,95,32.89473684210526,0.0,0.0,174.0,1
1725102397,18.5634017,73.833205,518.6,17.782105263157895,95,32.915789473684214,0.0,0.0,174.0,1
1725102398,18.5634017,73.833205,518.6,17.806315789473683,95,32.48421052631579,0.0,0.0,174.0,1
1725102399,18.5634017,73.833205,518.6,17.786315789473683,95,32.48421052631579,0.0,0.0,174.0,1
1725102400,18.5634017,73.833205,518.6,17.79157894736842,95,32.48421052631579,0.0,0.0,174.0,1
1725102401,18.5634017,73.833205,518.6,17.694736842105264,95,32.48421052631579,0.0,0.0,174.0,1
1725102402,18.5634017,73.833205,518.6,17.82526315789474,95,32.48421052631579,0.0,0.0,174.0,1
1725102403,18.5634017,73.833205,518.6,17.809473684210527,95,32.49473684210526,0.0,0.0,174.0,1
1725102404,18.5634017,73.833205,518.6,17.681052631578947,95,32.49473684210526,0.0,0.0,174.0,1
1725102405,18.5634017,73.833205,518.6,17.87157894736842,95,31.936842105263157,0.0,0.0,174.0,1
1725102406,18.5634017,73.833205,518.6,17.913684210526316,95,31.926315789473684,0.0,0.0,174.0,1
1725102407,18.5634017,73.833205,518.6,17.814736842105265,95,31.726315789473684,0.0,0.0,174.0,1
1725102408,18.5634017,73.833205,518.6,17.801052631578948,95,31.726315789473684,0.0,0.0,174.0,1
1725102409,18.5634017,73.833205,518.6,17.877894736842105,95,31.726315789473684,0.0,0.0,174.0,1
1725102410,18.5634017,73.833205,518.6,17.981052631578947,95,31.726315789473684,0.0,0.0,174.0,1
1725102411,18.5634017,73.833205,518.6,17.98421052631579,95,31.726315789473684,0.0,0.0,174.0,1
1725102412,18.5634017,73.833205,518.6,18.082105263157896,95,31.74736842105263,0.0,0.0,174.0,1
1725102413,18.5634017,73.833205,518.6,18.113684210526316,95,31.74736842105263,0.0,0.0,174.0,1
1725102414,18.5634017,73.833205,518.6,18.066315789473684,95,31.74736842105263,0.0,0.0,174.0,1
1725102415,18.5634017,73.833205,518.6,18.01578947368421,95,31.42105263157895,0.0,0.0,174.0,1
1725102416,18.5634017,73.833205,518.6,17.829473684210527,95,31.42105263157895,0.0,0.0,174.0,1
1725102417,18.5634017,73.833205,518.6,17.876842105263158,95,31.42105263157895,0.0,0.0,174.0,1
1725102418,18.5634017,73.833205,518.6,18.050526315789472,95,31.42105263157895,0.0,0.0,174.0,1
1725102419,18.5634017,73.833205,518.6,17.923157894736843,95,31.42105263157895,0.0,0.0,174.0,1
1725102420,18.5634017,73.833205,518.6,17.88842105263158,95,31.42105263157895,0.0,0.0,174.0,1
1725102421,18.5634017,73.833205,518.6,17.865263157894738,95,31.42105263157895,0.0,0.0,174.0,1
1725102422,18.5634017,73.833205,518.6,18.038947368421052,95,31.42105263157895,0.0,0.0,174.0,1
1725102423,18.5634017,73.833205,518.6,17.813684210526315,95,31.42105263157895,0.0,0.0,174.0,1
1725102424,18.5634017,73.833205,518.6,17.87157894736842,95,31.42105263157895,0.0,0.0,174.0,1
1725102425,18.5634017,73.833205,518.6,18.187368421052632,95,31.42105263157895,0.0,0.0,174.0,1
1725102426,18.5634017,73.833205,518.6,17.967368421052633,95,31.42105263157895,0.0,0.0,174.0,1
1725102427,18.5634017,73.833205,518.6,17.949473684210528,95,31.42105263157895,0.0,0.0,174.0,1
1725102428,18.5634017,73.833205,518.6,17.966315789473683,95,31.42105263157895,0.0,0.0,174.0,1
1725102429,18.5634017,73.833205,518.6,18.14421052631579,95,31.431578947368422,0.0,0.0,174.0,1
1725102430,18.5634017,73.833205,518.6,18.109473684210528,95,31.442105263157895,0.0,0.0,174.0,1
1725102431,18.5634017,73.833205,518.6,18.152631578947368,95,31.442105263157895,0.0,0.0,174.0,1
1725102432,18.5634017,73.833205,518.6,18.054736842105264,95,31.442105263157895,0.0,0.0,174.0,1
1725102433,18.5634017,73.833205,518.6,18.050526315789472,95,31.442105263157895,0.0,0.0,174.0,1
1725102434,18.5634017,73.833205,518.6,18.093684210526316,95,32.757894736842104,0.0,0.0,174.0,1
1725102435,18.5634017,73.833205,518.6,17.96842105263158,95,32.757894736842104,0.0,0.0,174.0,1
1725102436,18.5634017,73.833205,518.6,17.998947368421053,95,32.757894736842104,0.0,0.0,174.0,1
1725102437,18.5634017,73.833205,518.6,18.053684210526313,95,32.757894736842104,0.0,0.0,174.0,1
1725102438,18.5634017,73.833205,518.6,18.03684210526316,95,32.757894736842104,0.0,0.0,174.0,1
1725102439,18.5634017,73.833205,518.6,18.09263157894737,95,33.36842105263158,0.0,0.0,174.0,1
1725102440,18.5634017,73.833205,518.6,18.025263157894738,95,33.36842105263158,0.0,0.0,174.0,1
1725102441,18.5634017,73.833205,518.6,17.74736842105263,95,33.36842105263158,0.0,0.0,174.0,1
1725102442,18.5634017,73.833205,518.6,17.737894736842104,95,33.36842105263158,0.0,0.0,174.0,1
1725102443,18.5634017,73.833205,518.6,17.763157894736842,95,33.36842105263158,0.0,0.0,174.0,1
1725102444,18.5634017,73.833205,518.6,17.658947368421053,95,32.94736842105263,0.0,0.0,174.0,1
1725102445,18.5634017,73.833205,518.6,17.743157894736843,95,32.94736842105263,0.0,0.0,174.0,1
1725102446,18.5634017,73.833205,518.6,17.637894736842103,95,32.94736842105263,0.0,0.0,174.0,1
1725102447,18.5634017,73.833205,518.6,17.722105263157893,95,32.94736842105263,0.0,0.0,174.0,1
1725102448,18.5634017,73.833205,518.6,17.729473684210525,95,32.536842105263155,0.0,0.0,174.0,1
1725102449,18.5634017,73.833205,518.6,17.64421052631579,95,32.536842105263155,0.0,0.0,174.0,1
1725102450,18.5634017,73.833205,518.6,17.67157894736842,95,32.536842105263155,0.0,0.0,174.0,1
1725102451,18.5634017,73.833205,518.6,17.67263157894737,95,32.536842105263155,0.0,0.0,174.0,1
1725102452,18.5634017,73.833205,518.6,17.61157894736842,95,32.578947368421055,0.0,0.0,174.0,1
1725102453,18.5634017,73.833205,518.6,17.597894736842104,95,32.0,0.0,0.0,174.0,1
1725102454,18.5634017,73.833205,518.6,17.61157894736842,95,32.0,0.0,0.0,174.0,1
1725102455,18.5634017,73.833205,518.6,17.546315789473685,95,32.0,0.0,0.0,174.0,1
1725102456,18.5634017,73.833205,518.6,17.646315789473686,95,32.01052631578948,0.0,0.0,174.0,1
1725102457,18.5634017,73.833205,518.6,17.38105263157895,95,32.50526315789474,0.0,0.0,174.0,1
1725102458,18.5634017,73.833205,518.6,17.490526315789474,95,32.50526315789474,0.0,0.0,174.0,1
1725102459,18.5634017,73.833205,518.6,17.70736842105263,95,32.49473684210526,0.0,0.0,174.0,1
1725102460,18.5634017,73.833205,518.6,17.457894736842107,95,32.49473684210526,0.0,0.0,174.0,1
1725102461,18.5634017,73.833205,518.6,17.763157894736842,95,32.49473684210526,0.0,0.0,174.0,1
1725102462,18.5634017,73.833205,518.6,17.709473684210526,95,32.49473684210526,0.0,0.0,174.0,1
1725102463,18.5634017,73.833205,518.6,17.661052631578947,95,33.410526315789475,0.0,0.0,174.0,1
1725102464,18.5634017,73.833205,518.6,17.410526315789475,95,33.410526315789475,0.0,0.0,174.0,1
1725102465,18.5634017,73.833205,518.6,17.425263157894737,95,33.43157894736842,0.0,0.0,174.0,1
1725102466,18.5634017,73.833205,518.6,17.35684210526316,95,33.43157894736842,0.0,0.0,174.0,1
1725102467,18.5634017,73.833205,518.6,17.4,95,33.242105263157896,0.0,0.0,174.0,1
1725102468,18.5634017,73.833205,518.6,17.56736842105263,95,33.242105263157896,0.0,0.0,174.0,1
1725102469,18.5634017,73.833205,518.6,17.666315789473682,95,33.242105263157896,0.0,0.0,174.0,1
1725102470,18.5634017,73.833205,518.6,17.378947368421052,95,33.23157894736842,0.0,0.0,174.0,1
1725102471,18.5634017,73.833205,518.6,17.57894736842105,95,33.23157894736842,0.0,0.0,174.0,1
1725102472,18.5634017,73.833205,518.6,17.62842105263158,95,32.589473684210525,0.0,0.0,174.0,1
1725102473,18.5634017,73.833205,518.6,17.605263157894736,95,32.589473684210525,0.0,0.0,174.0,1
1725102474,18.5634017,73.833205,518.6,17.64421052631579,95,32.589473684210525,0.0,0.0,174.0,1
1725102475,18.5634017,73.833205,518.6,17.768421052631577,95,32.56842105263158,0.0,0.0,174.0,1
1725102476,18.5634017,73.833205,518.6,17.61894736842105,95,32.27368421052632,0.0,0.0,174.0,1
1725102477,18.5634017,73.833205,518.6,17.46842105263158,95,32.26315789473684,0.0,0.0,174.0,1
1725102478,18.5634017,73.833205,518.6,17.629473684210527,95,32.26315789473684,0.0,0.0,174.0,1
1725102479,18.5634017,73.833205,518.6,17.529473684210526,95,32.26315789473684,0.0,0.0,174.0,1
1725102480,18.5634017,73.833205,518.6,17.692631578947367,95,32.252631578947366,0.0,0.0,174.0,1
1725102481,18.5634017,73.833205,518.6,17.74105263157895,95,31.778947368421054,0.0,0.0,174.0,1
1725102482,18.5634017,73.833205,518.6,17.446315789473687,95,31.778947368421054,0.0,0.0,174.0,1
1725102483,18.5634017,73.833205,518.6,17.506315789473682,95,31.778947368421054,0.0,0.0,174.0,1
1725102484,18.5634017,73.833205,518.6,17.410526315789475,95,31.778947368421054,0.0,0.0,174.0,1
1725102485,18.5634017,73.833205,518.6,17.626595744680852,94,32.0,0.0,0.0,174.0,1
1725102486,18.5634017,73.833205,518.6,17.695744680851064,94,31.79787234042553,0.0,0.0,174.0,1
1725102487,18.5634017,73.833205,518.6,17.66808510638298,94,31.79787234042553,0.0,0.0,174.0,1
1725102488,18.5634017,73.833205,518.6,17.582978723404256,94,31.79787234042553,0.0,0.0,174.0,1
1725102489,18.5634017,73.833205,518.6,17.632978723404257,94,31.79787234042553,0.0,0.0,174.0,1
1725102490,18.5634017,73.833205,518.6,17.620212765957447,94,31.680851063829788,0.0,0.0,174.0,1
1725102491,18.5634017,73.833205,518.6,17.55,94,31.680851063829788,0.0,0.0,174.0,1
1725102492,18.5634017,73.833205,518.6,17.55212765957447,94,31.70212765957447,0.0,0.0,174.0,1
1725102493,18.5634017,73.833205,518.6,17.646808510638298,94,31.70212765957447,0.0,0.0,174.0,1
1725102494,18.5634017,73.833205,518.6,17.58723404255319,94,31.70212765957447,0.0,0.0,174.0,1
1725102495,18.5634017,73.833205,518.6,17.61063829787234,94,31.70212765957447,0.0,0.0,174.0,1
1725102496,18.5634017,73.833205,518.6,17.591489361702127,94,31.70212765957447,0.0,0.0,174.0,1
1725102497,18.5634017,73.833205,518.6,17.570212765957447,94,32.40425531914894,0.0,0.0,174.0,1
1725102498,18.5634017,73.833205,518.6,17.631914893617022,94,33.03191489361702,0.0,0.0,174.0,1
1725102499,18.5634017,73.833205,518.6,17.77446808510638,94,33.03191489361702,0.0,0.0,174.0,1
1725102500,18.5634017,73.833205,518.6,17.859574468085107,94,33.62765957446808,0.0,0.0,174.0,1
1725102501,18.5634017,73.833205,518.6,17.73723404255319,94,33.62765957446808,0.0,0.0,174.0,1
1725102502,18.5634017,73.833205,518.6,17.70957446808511,94,33.62765957446808,0.0,0.0,174.0,1
1725102503,18.5634017,73.833205,518.6,17.806382978723402,94,33.62765957446808,0.0,0.0,174.0,1
1725102504,18.5634017,73.833205,518.6,17.73617021276596,94,33.62765957446808,0.0,0.0,174.0,1
1725102505,18.5634017,73.833205,518.6,17.95,94,33.62765957446808,0.0,0.0,174.0,1
1725102506,18.5634017,73.833205,518.6,17.78191489361702,94,33.43617021276596,0.0,0.0,174.0,1
1725102507,18.5634017,73.833205,518.6,17.897872340425533,94,33.43617021276596,0.0,0.0,174.0,1
1725102508,18.5634017,73.833205,518.6,17.777659574468085,94,33.202127659574465,0.0,0.0,174.0,1
1725102509,18.5634017,73.833205,518.6,17.843617021276597,94,32.765957446808514,0.0,0.0,174.0,1
1725102510,18.5634017,73.833205,518.6,17.83723404255319,94,32.765957446808514,0.0,0.0,174.0,1
1725102511,18.5634017,73.833205,518.6,17.835106382978722,94,32.765957446808514,0.0,0.0,174.0,1
1725102512,18.5634017,73.833205,518.6,17.82340425531915,94,32.765957446808514,0.0,0.0,174.0,1
1725102513,18.5634017,73.833205,518.6,17.72446808510638,94,32.765957446808514,0.0,0.0,174.0,1
1725102514,18.5634017,73.833205,518.6,17.820212765957447,94,32.765957446808514,0.0,0.0,174.0,1
1725102515,18.5634017,73.833205,518.6,17.909574468085108,94,32.45744680851064,0.0,0.0,174.0,1
1725102516,18.5634017,73.833205,518.6,17.814893617021276,94,32.45744680851064,0.0,0.0,174.0,1
1725102517,18.5634017,73.833205,518.6,17.75957446808511,94,32.180851063829785,0.0,0.0,174.0,1
1725102518,18.5634017,73.833205,518.6,17.73404255319149,94,31.97872340425532,0.0,0.0,174.0,1
1725102519,18.5634017,73.833205,518.6,17.76382978723404,94,32.0,0.0,0.0,174.0,1
1725102520,18.5634017,73.833205,518.6,17.78404255319149,94,32.0,0.0,0.0,174.0,1
1725102521,18.5634017,73.833205,518.6,17.79787234042553,94,31.98936170212766,0.0,0.0,174.0,1
1725102522,18.5634017,73.833205,518.6,17.732978723404255,94,31.98936170212766,0.0,0.0,174.0,1
1725102523,18.5634017,73.833205,518.6,17.56595744680851,94,31.98936170212766,0.0,0.0,174.0,1
1725102524,18.5634017,73.833205,518.6,17.58191489361702,94,31.78723404255319,0.0,0.0,174.0,1
1725102525,18.5634017,73.833205,518.6,17.653191489361703,94,31.78723404255319,0.0,0.0,174.0,1
1725102526,18.5634017,73.833205,518.6,17.89468085106383,94,31.78723404255319,0.0,0.0,174.0,1
1725102527,18.5634017,73.833205,518.6,17.846808510638297,94,31.680851063829788,0.0,0.0,174.0,1
1725102528,18.5634017,73.833205,518.6,17.90531914893617,94,31.680851063829788,0.0,0.0,174.0,1
1725102529,18.5634017,73.833205,518.6,17.91595744680851,94,31.680851063829788,0.0,0.0,174.0,1
1725102530,18.5634017,73.833205,518.6,18.03510638297872,94,31.680851063829788,0.0,0.0,174.0,1
1725102531,18.5634017,73.833205,518.6,18.079787234042552,94,31.680851063829788,0.0,0.0,174.0,1
1725102532,18.5634017,73.833205,518.6,17.95212765957447,94,31.680851063829788,0.0,0.0,174.0,1
1725102533,18.5634017,73.833205,518.6,17.77553191489362,94,31.680851063829788,0.0,0.0,174.0,1
1725102534,18.5634017,73.833205,518.6,17.81063829787234,94,31.680851063829788,0.0,0.0,174.0,1
1725102535,18.5634017,73.833205,518.6,17.98936170212766,94,31.680851063829788,0.0,0.0,174.0,1
1725102536,18.5634017,73.833205,518.6,17.99042553191489,94,31.659574468085108,0.0,0.0,174.0,1
1725102537,18.5634017,73.833205,518.6,17.96914893617021,94,31.680851063829788,0.0,0.0,174.0,1
1725102538,18.5634017,73.833205,518.6,17.97340425531915,94,31.69148936170213,0.0,0.0,174.0,1
1725102539,18.5634017,73.833205,518.6,17.804255319148936,94,31.69148936170213,0.0,0.0,174.0,1
1725102540,18.5634017,73.833205,518.6,17.77021276595745,94,31.69148936170213,0.0,0.0,174.0,1
1725102541,18.5634017,73.833205,518.6,17.701063829787234,94,31.680851063829788,0.0,0.0,174.0,1
1725102542,18.5634017,73.833205,518.6,17.873404255319148,94,31.680851063829788,0.0,0.0,174.0,1
1725102543,18.5634017,73.833205,518.6,18.00212765957447,94,32.38297872340426,0.0,0.0,174.0,1
1725102544,18.5634017,73.833205,518.6,17.98936170212766,94,32.38297872340426,0.0,0.0,174.0,1
1725102545,18.5634017,73.833205,518.6,17.58404255319149,94,32.38297872340426,0.0,0.0,174.0,1
1725102546,18.5634017,73.833205,518.6,18.03617021276596,94,33.01063829787234,0.0,0.0,174.0,1
1725102547,18.5634017,73.833205,518.6,17.798936170212766,94,33.01063829787234,0.0,0.0,174.0,1
1725102548,18.5634017,73.833205,518.6,17.85,94,33.01063829787234,0.0,0.0,174.0,1
1725102549,18.5634017,73.833205,518.6,17.906382978723403,94,33.62765957446808,0.0,0.0,174.0,1
1725102550,18.5634017,73.833205,518.6,17.951063829787234,94,33.62765957446808,0.0,0.0,174.0,1
1725102551,18.5634017,73.833205,518.6,17.626595744680852,94,33.62765957446808,0.0,0.0,174.0,1
1725102552,18.5634017,73.833205,518.6,17.6,94,33.43617021276596,0.0,0.0,174.0,1
1725102553,18.5634017,73.833205,518.6,17.596808510638297,94,33.43617021276596,0.0,0.0,174.0,1
1725102554,18.5634017,73.833205,518.6,17.56595744680851,94,33.43617021276596,0.0,0.0,174.0,1
1725102555,18.5634017,73.833205,518.6,17.41063829787234,94,33.43617021276596,0.0,0.0,174.0,1
1725102556,18.5634017,73.833205,518.6,17.359574468085107,94,33.191489361702125,0.0,0.0,174.0,1
1725102557,18.5634017,73.833205,518.6,17.304255319148936,94,33.180851063829785,0.0,0.0,174.0,1
1725102558,18.5634017,73.833205,518.6,17.22978723404255,94,32.765957446808514,0.0,0.0,174.0,1
1725102559,18.5634017,73.833205,518.6,17.58404255319149,94,32.765957446808514,0.0,0.0,174.0,1
1725102560,18.5634017,73.833205,518.6,17.327659574468086,94,32.765957446808514,0.0,0.0,174.0,1
1725102561,18.5634017,73.833205,518.6,17.23617021276596,94,32.4468085106383,0.0,0.0,174.0,1
1725102562,18.5634017,73.833205,518.6,17.282978723404256,94,32.45744680851064,0.0,0.0,174.0,1
1725102563,18.5634017,73.833205,518.6,17.31290322580645,93,32.666666666666664,0.0,0.0,174.0,1
1725102564,18.5634017,73.833205,518.6,17.4247311827957,93,32.666666666666664,0.0,0.0,174.0,1
1725102565,18.5634017,73.833205,518.6,17.17311827956989,93,32.354838709677416,0.0,0.0,174.0,1
1725102566,18.5634017,73.833205,518.6,17.27956989247312,93,32.344086021505376,0.0,0.0,174.0,1
1725102567,18.5634017,73.833205,518.6,17.323655913978495,93,32.344086021505376,0.0,0.0,174.0,1
1725102568,18.5634017,73.833205,518.6,17.52795698924731,93,32.8494623655914,0.0,0.0,174.0,1
1725102569,18.5634017,73.833205,518.6,17.823655913978495,93,32.82795698924731,0.0,0.0,174.0,1
1725102570,18.5634017,73.833205,518.6,18.026881720430108,93,33.25806451612903,0.0,0.0,174.0,1
1725102571,18.5634017,73.833205,518.6,17.904301075268815,93,33.25806451612903,0.0,0.0,174.0,1
1725102572,18.5634017,73.833205,518.6,17.773118279569893,93,33.236559139784944,0.0,0.0,174.0,1
1725102573,18.5634017,73.833205,518.6,17.7494623655914,93,33.25806451612903,0.0,0.0,174.0,1
1725102574,18.5634017,73.833205,518.6,17.710752688172043,93,33.74193548387097,0.0,0.0,174.0,1
1725102575,18.5634017,73.833205,518.6,17.773118279569893,93,33.74193548387097,0.0,0.0,174.0,1
1725102576,18.5634017,73.833205,518.6,18.119354838709675,93,33.74193548387097,0.0,0.0,174.0,1
1725102577,18.5634017,73.833205,518.6,18.094623655913978,93,33.54838709677419,0.0,0.0,174.0,1
1725102578,18.5634017,73.833205,518.6,18.119354838709675,93,33.54838709677419,0.0,0.0,174.0,1
1725102579,18.5634017,73.833205,518.6,18.052688172043013,93,33.31182795698925,0.0,0.0,174.0,1
1725102580,18.5634017,73.833205,518.6,18.038709677419355,93,33.31182795698925,0.0,0.0,174.0,1
1725102581,18.5634017,73.833205,518.6,18.073118279569893,93,33.333333333333336,0.0,0.0,174.0,1
1725102582,18.5634017,73.833205,518.6,18.083870967741934,93,33.333333333333336,0.0,0.0,174.0,1
1725102583,18.5634017,73.833205,518.6,18.06236559139785,93,32.913978494623656,0.0,0.0,174.0,1
1725102584,18.5634017,73.833205,518.6,17.829032258064515,93,32.913978494623656,0.0,0.0,174.0,1
1725102585,18.5634017,73.833205,518.6,18.04731182795699,93,32.913978494623656,0.0,0.0,174.0,1
1725102586,18.5634017,73.833205,518.6,17.933333333333334,93,32.89247311827957,0.0,0.0,174.0,1
1725102587,18.5634017,73.833205,518.6,17.874193548387098,93,32.58064516129032,0.0,0.0,174.0,1
1725102588,18.5634017,73.833205,518.6,18.013978494623654,93,32.30107526881721,0.0,0.0,174.0,1
1725102589,18.5634017,73.833205,518.6,17.953763440860214,93,32.30107526881721,0.0,0.0,174.0,1
1725102590,18.5634017,73.833205,518.6,17.996774193548386,93,32.30107526881721,0.0,0.0,174.0,1
1725102591,18.5634017,73.833205,518.6,17.919354838709676,93,32.30107526881721,0.0,0.0,174.0,1
1725102592,18.5634017,73.833205,518.6,17.95268817204301,93,32.096774193548384,0.0,0.0,174.0,1
1725102593,18.5634017,73.833205,518.6,17.92795698924731,93,32.096774193548384,0.0,0.0,174.0,1
1725102594,18.5634017,73.833205,518.6,17.986021505376346,93,32.096774193548384,0.0,0.0,174.0,1
1725102595,18.5634017,73.833205,518.6,17.936559139784944,93,32.096774193548384,0.0,0.0,174.0,1
1725102596,18.5634017,73.833205,518.6,17.9247311827957,93,31.892473118279568,0.0,0.0,174.0,1
1725102597,18.5634017,73.833205,518.6,17.981720430107526,93,31.892473118279568,0.0,0.0,174.0,1
1725102598,18.5634017,73.833205,518.6,17.817204301075268,93,31.774193548387096,0.0,0.0,174.0,1
1725102599,18.5634017,73.833205,518.6,17.879569892473118,93,31.774193548387096,0.0,0.0,174.0,1
1725102600,18.5634017,73.833205,518.6,17.96989247311828,93,31.774193548387096,0.0,0.0,174.0,1
1725102601,18.5634017,73.833205,518.6,17.981720430107526,93,31.774193548387096,0.0,0.0,174.0,1
1725102602,18.5634017,73.833205,518.6,18.118279569892472,93,31.774193548387096,0.0,0.0,174.0,1
1725102603,18.5634017,73.833205,518.6,18.099999999999998,93,31.774193548387096,0.0,0.0,174.0,1
1725102604,18.5634017,73.833205,518.6,18.166666666666668,93,32.483870967741936,0.0,0.0,174.0,1
1725102605,18.5634017,73.833205,518.6,18.10430107526882,93,32.494623655913976,0.0,0.0,174.0,1
1725102606,18.5634017,73.833205,518.6,18.196774193548386,93,32.505376344086024,0.0,0.0,174.0,1
1725102607,18.5634017,73.833205,518.6,18.11182795698925,93,32.505376344086024,0.0,0.0,174.0,1
1725102608,18.5634017,73.833205,518.6,17.898924731182795,93,32.505376344086024,0.0,0.0,174.0,1
1725102609,18.5634017,73.833205,518.6,17.823655913978495,93,32.505376344086024,0.0,0.0,174.0,1
1725102610,18.5634017,73.833205,518.6,18.020430107526884,93,33.13978494623656,0.0,0.0,174.0,1
1725102611,18.5634017,73.833205,518.6,18.01290322580645,93,33.763440860215056,0.0,0.0,174.0,1
1725102612,18.5634017,73.833205,518.6,18.045161290322582,93,33.763440860215056,0.0,0.0,174.0,1
1725102613,18.5634017,73.833205,518.6,18.087096774193547,93,33.56989247311828,0.0,0.0,174.0,1
1725102614,18.5634017,73.833205,518.6,17.92795698924731,93,33.56989247311828,0.0,0.0,174.0,1
1725102615,18.5634017,73.833205,518.6,17.86774193548387,93,33.56989247311828,0.0,0.0,174.0,1
1725102616,18.5634017,73.833205,518.6,17.88817204301075,93,33.56989247311828,0.0,0.0,174.0,1
1725102617,18.5634017,73.833205,518.6,17.98709677419355,93,33.56989247311828,0.0,0.0,174.0,1
1725102618,18.5634017,73.833205,518.6,17.98494623655914,93,33.56989247311828,0.0,0.0,174.0,1
1725102619,18.5634017,73.833205,518.6,17.99784946236559,93,33.333333333333336,0.0,0.0,174.0,1
1725102620,18.5634017,73.833205,518.6,17.968817204301075,93,32.913978494623656,0.0,0.0,174.0,1
1725102621,18.5634017,73.833205,518.6,18.003225806451614,93,32.913978494623656,0.0,0.0,174.0,1
1725102622,18.5634017,73.833205,518.6,18.06021505376344,93,32.60215053763441,0.0,0.0,174.0,1
1725102623,18.5634017,73.833205,518.6,18.086021505376344,93,32.60215053763441,0.0,0.0,174.0,1
1725102624,18.5634017,73.833205,518.6,17.891397849462365,93,32.60215053763441,0.0,0.0,174.0,1
1725102625,18.5634017,73.833205,518.6,17.853763440860217,93,32.60215053763441,0.0,0.0,174.0,1
1725102626,18.5634017,73.833205,518.6,17.970967741935482,93,32.60215053763441,0.0,0.0,174.0,1
1725102627,18.5634017,73.833205,518.6,17.689247311827955,93,32.59139784946237,0.0,0.0,174.0,1
1725102628,18.5634017,73.833205,518.6,17.703225806451613,93,32.333333333333336,0.0,0.0,174.0,1
1725102629,18.5634017,73.833205,518.6,17.704301075268816,93,32.344086021505376,0.0,0.0,174.0,1
1725102630,18.5634017,73.833205,518.6,17.809677419354838,93,32.13978494623656,0.0,0.0,174.0,1
1725102631,18.5634017,73.833205,518.6,17.78494623655914,93,32.13978494623656,0.0,0.0,174.0,1
1725102632,18.5634017,73.833205,518.6,17.74838709677419,93,31.946236559139784,0.0,0.0,174.0,1
1725102633,18.5634017,73.833205,518.6,17.892473118279568,93,31.946236559139784,0.0,0.0,174.0,1
1725102634,18.5634017,73.833205,518.6,17.81505376344086,93,31.946236559139784,0.0,0.0,174.0,1
1725102635,18.5634017,73.833205,518.6,17.822580645161292,93,31.93548387096774,0.0,0.0,174.0,1
1725102636,18.5634017,73.833205,518.6,18.003225806451614,93,31.93548387096774,0.0,0.0,174.0,1
1725102637,18.5634017,73.833205,518.6,17.881720430107528,93,31.817204301075268,0.0,0.0,174.0,1
1725102638,18.5634017,73.833205,518.6,17.85483870967742,93,31.817204301075268,0.0,0.0,174.0,1
1725102639,18.5634017,73.833205,518.6,18.07741935483871,93,31.817204301075268,0.0,0.0,174.0,1
1725102640,18.5634017,73.833205,518.6,17.96344086021505,93,31.817204301075268,0.0,0.0,174.0,1
1725102641,18.5634017,73.833205,518.6,17.806451612903224,93,31.827956989247312,0.0,0.0,174.0,1
1725102642,18.5634017,73.833205,518.6,17.950537634408605,93,31.827956989247312,0.0,0.0,174.0,1
1725102643,18.5634017,73.833205,518.6,17.99032258064516,93,31.827956989247312,0.0,0.0,174.0,1
1725102644,18.5634017,73.833205,518.6,17.981720430107526,93,31.827956989247312,0.0,0.0,174.0,1
1725102645,18.5634017,73.833205,518.6,17.978494623655912,93,31.827956989247312,0.0,0.0,174.0,1
1725102646,18.5634017,73.833205,518.6,17.968817204301075,93,31.817204301075268,0.0,0.0,174.0,1
1725102647,18.5634017,73.833205,518.6,18.066666666666666,93,31.817204301075268,0.0,0.0,174.0,1
1725102648,18.5634017,73.833205,518.6,18.023655913978494,93,31.817204301075268,0.0,0.0,174.0,1
1725102649,18.5634017,73.833205,518.6,17.94516129032258,93,31.817204301075268,0.0,0.0,174.0,1
1725102650,18.5634017,73.833205,518.6,17.93978494623656,93,31.817204301075268,0.0,0.0,174.0,1
1725102651,18.5634017,73.833205,518.6,17.912903225806453,93,31.817204301075268,0.0,0.0,174.0,1
1725102652,18.5634017,73.833205,518.6,17.954838709677418,93,31.817204301075268,0.0,0.0,174.0,1
1725102653,18.5634017,73.833205,518.6,17.982795698924733,93,31.806451612903224,0.0,0.0,174.0,1
1725102654,18.5634017,73.833205,518.6,17.841935483870966,93,31.806451612903224,0.0,0.0,174.0,1
1725102655,18.5634017,73.833205,518.6,17.739784946236558,93,33.1505376344086,0.0,0.0,174.0,1
1725102656,18.5634017,73.833205,518.6,17.60322580645161,93,33.13978494623656,0.0,0.0,174.0,1
1725102657,18.5634017,73.833205,518.6,17.669892473118278,93,33.75268817204301,0.0,0.0,174.0,1
1725102658,18.5634017,73.833205,518.6,17.43225806451613,93,33.75268817204301,0.0,0.0,174.0,1
1725102659,18.5634017,73.833205,518.6,17.343010752688173,93,33.75268817204301,0.0,0.0,174.0,1
1725102660,18.5634017,73.833205,518.6,17.25483870967742,93,33.75268817204301,0.0,0.0,174.0,1
1725102661,18.5634017,73.833205,518.6,17.264516129032256,93,33.75268817204301,0.0,0.0,174.0,1
1725102662,18.5634017,73.833205,518.6,17.19462365591398,93,33.75268817204301,0.0,0.0,174.0,1
1725102663,18.5634017,73.833205,518.6,17.22043010752688,93,33.75268817204301,0.0,0.0,174.0,1
1725102664,18.5634017,73.833205,518.6,17.25698924731183,93,33.75268817204301,0.0,0.0,174.0,1
1725102665,18.5634017,73.833205,518.6,17.3,93,33.32258064516129,0.0,0.0,174.0,1
1725102666,18.5634017,73.833205,518.6,17.4247311827957,93,32.903225806451616,0.0,0.0,174.0,1
1725102667,18.5634017,73.833205,518.6,17.41505376344086,93,32.903225806451616,0.0,0.0,174.0,1
1725102668,18.5634017,73.833205,518.6,17.2,93,32.903225806451616,0.0,0.0,174.0,1
1725102669,18.5634017,73.833205,518.6,17.107526881720432,93,32.903225806451616,0.0,0.0,174.0,1
1725102670,18.5634017,73.833205,518.6,17.39462365591398,93,32.913978494623656,0.0,0.0,174.0,1
1725102671,18.5634017,73.833205,518.6,17.307526881720428,93,32.913978494623656,0.0,0.0,174.0,1
1725102672,18.5634017,73.833205,518.6,17.3247311827957,93,32.913978494623656,0.0,0.0,174.0,1
1725102673,18.5634017,73.833205,518.6,17.24516129032258,93,32.924731182795696,0.0,0.0,174.0,1
1725102674,18.5634017,73.833205,518.6,17.261290322580646,93,32.913978494623656,0.0,0.0,174.0,1
1725102675,18.5634017,73.833205,518.6,17.317204301075268,93,32.82795698924731,0.0,0.0,174.0,1
1725102676,18.5634017,73.833205,518.6,17.08494623655914,93,32.82795698924731,0.0,0.0,174.0,1
1725102677,18.5634017,73.833205,518.6,17.2494623655914,93,32.82795698924731,0.0,0.0,174.0,1
1725102678,18.5634017,73.833205,518.6,17.10430107526882,93,32.82795698924731,0.0,0.0,174.0,1
1725102679,18.5634017,73.833205,518.6,17.13763440860215,93,32.82795698924731,0.0,0.0,174.0,1
1725102680,18.5634017,73.833205,518.6,17.19462365591398,93,32.82795698924731,0.0,0.0,174.0,1
1725102681,18.5634017,73.833205,518.6,17.163440860215054,93,32.82795698924731,0.0,0.0,174.0,1
1725102682,18.5634017,73.833205,518.6,17.161290322580644,93,32.82795698924731,0.0,0.0,174.0,1
1725102683,18.5634017,73.833205,518.6,17.239784946236558,93,32.82795698924731,0.0,0.0,174.0,1
1725102684,18.5634017,73.833205,518.6,17.183870967741935,93,32.82795698924731,0.0,0.0,174.0,1
1725102685,18.5634017,73.833205,518.6,17.311827956989248,93,33.56989247311828,0.0,0.0,174.0,1
1725102686,18.5634017,73.833205,518.6,17.334408602150535,93,33.56989247311828,0.0,0.0,174.0,1
1725102687,18.5634017,73.833205,518.6,17.33978494623656,93,33.56989247311828,0.0,0.0,174.0,1
1725102688,18.5634017,73.833205,518.6,17.28279569892473,93,33.56989247311828,0.0,0.0,174.0,1
1725102689,18.5634017,73.833205,518.6,17.298924731182794,93,33.56989247311828,0.0,0.0,174.0,1
1725102690,18.5634017,73.833205,518.6,17.146236559139783,93,33.56989247311828,0.0,0.0,174.0,1
1725102691,18.5634017,73.833205,518.6,17.166666666666668,93,33.56989247311828,0.0,0.0,174.0,1
1725102692,18.5634017,73.833205,518.6,16.58279569892473,93,33.56989247311828,0.0,0.0,174.0,1
1725102693,18.5634017,73.833205,518.6,16.06236559139785,93,33.55913978494624,0.0,0.0,174.0,1
1725102694,18.5634017,73.833205,518.6,15.483695652173912,92,33.53260869565217,0.0,0.0,174.0,1
1725102695,18.5634017,73.833205,518.6,15.207692307692309,91,32.56043956043956,0.0,0.0,171.0,1
1725102696,18.5634017,73.833205,518.6,15.003333333333332,90,32.666666666666664,0.0,0.0,173.0,1
1725102697,18.5634017,73.833205,518.6,15.717777777777776,90,32.68888888888889,0.0,0.0,172.0,1
1725102698,18.5634017,73.833205,518.6,15.978494623655914,93,32.61290322580645,0.0,0.0,172.0,1
1725102699,18.5634017,73.833205,518.6,16.33225806451613,93,32.61290322580645,0.0,0.0,172.0,1
1725102700,18.5634017,73.833205,518.6,16.408602150537636,93,32.61290322580645,0.0,0.0,173.0,1
1725102701,18.5634017,73.833205,518.6,16.387096774193548,93,32.60215053763441,0.0,0.0,173.0,1
1725102702,18.5634017,73.833205,518.6,16.346739130434784,92,32.78260869565217,0.0,0.0,173.0,1
1725102703,18.5634017,73.833205,518.6,16.50108695652174,92,32.79347826086956,0.0,0.0,173.0,1
1725102704,18.5634017,73.833205,518.6,16.63586956521739,92,32.09782608695652,0.0,0.0,173.0,1
1725102705,18.5634017,73.833205,518.6,16.796739130434784,92,32.09782608695652,0.0,0.0,173.0,1
1725102706,18.5634017,73.833205,518.6,17.059782608695652,92,32.09782608695652,0.0,0.0,173.0,1
1725102707,18.5634017,73.833205,518.6,16.985869565217392,92,32.09782608695652,0.0,0.0,173.0,1
1725102708,18.5634017,73.833205,518.6,16.846739130434784,92,32.09782608695652,0.0,0.0,173.0,1
1725102709,18.5634017,73.833205,518.6,16.58913043478261,92,32.09782608695652,0.0,0.0,173.0,1
1725102710,18.5634017,73.833205,518.6,16.306521739130435,92,32.09782608695652,0.0,0.0,173.0,1
1725102711,18.5634017,73.833205,518.6,16.333695652173912,92,32.09782608695652,0.0,0.0,173.0,1
1725102712,18.5634017,73.833205,518.6,16.2,92,32.08695652173913,0.0,0.0,173.0,1
1725102713,18.5634017,73.833205,518.6,16.354347826086954,92,31.97826086956522,0.0,0.0,173.0,1
1725102714,18.5634017,73.833205,518.6,16.33695652173913,92,31.98913043478261,0.0,0.0,173.0,1
1725102715,18.5634017,73.833205,518.6,16.366304347826087,92,31.98913043478261,0.0,0.0,173.0,1
1725102716,18.5634017,73.833205,518.6,16.569565217391304,92,32.70652173913044,0.0,0.0,173.0,1
1725102717,18.5634017,73.833205,518.6,16.86521739130435,92,32.69565217391305,0.0,0.0,173.0,1
1725102718,18.5634017,73.833205,518.6,16.81304347826087,92,32.69565217391305,0.0,0.0,173.0,1
1725102719,18.5634017,73.833205,518.6,16.86304347826087,92,32.69565217391305,0.0,0.0,173.0,1
1725102720,18.5634017,73.833205,518.6,16.870652173913044,92,33.33695652173913,0.0,0.0,173.0,1
1725102721,18.5634017,73.833205,518.6,16.875,92,33.33695652173913,0.0,0.0,173.0,1
1725102722,18.5634017,73.833205,518.6,16.582608695652173,92,33.33695652173913,0.0,0.0,173.0,1
1725102723,18.5634017,73.833205,518.6,16.830434782608698,92,33.96739130434783,0.0,0.0,173.0,1
1725102724,18.5634017,73.833205,518.6,16.88695652173913,92,33.96739130434783,0.0,0.0,173.0,1
1725102725,18.5634017,73.833205,518.6,16.934782608695652,92,33.77173913043478,0.0,0.0,173.0,1
1725102726,18.5634017,73.833205,518.6,17.191304347826087,92,33.77173913043478,0.0,0.0,173.0,1
1725102727,18.5634017,73.833205,518.6,17.11195652173913,92,33.77173913043478,0.0,0.0,173.0,1
1725102728,18.5634017,73.833205,518.6,17.244565217391305,92,33.77173913043478,0.0,0.0,173.0,1
1725102729,18.5634017,73.833205,518.6,,0,,0.0,0.0,173.0,1
