timestamp,latitude,longitude,altitude,mean_snr,sat_count,mean_elevation,mean_azimuth,roll,pitch,yaw,is_inclined
1725103524,18.56341,73.8332016667,515.4,11.308108108108108,148,31.77027027027027,152.90540540540542,4.0,-88.0,5.0,1
1725103525,18.5634099,73.8332016,515.4,,0,,,4.0,-88.0,4.0,1
1725103526,18.5634101,73.8332015,515.4,15.369047619047619,84,32.86904761904762,155.5,4.0,-88.0,5.0,1
1725103528,18.56341,73.833202,515.4,18.328735632183907,87,33.3448275862069,154.66666666666666,5.0,-88.0,5.0,1
1725103529,18.56341,73.8332017,515.4,18.559302325581395,86,33.51162790697674,154.6627906976744,5.0,-88.0,5.0,1
1725103530,18.56341,73.8332017,515.4,19.8953488372093,86,33.51162790697674,154.6627906976744,4.0,-88.0,4.0,1
1725103531,18.56341,73.8332017,515.4,22.08372093023256,86,33.51162790697674,154.6627906976744,4.0,-88.0,4.0,1
1725103532,18.56341,73.8332017,515.4,21.947674418604652,86,33.51162790697674,154.6627906976744,4.0,-88.0,5.0,1
1725103533,18.56341,73.8332017,515.4,22.411627906976744,86,32.7093023255814,158.6627906976744,5.0,-88.0,5.0,1
1725103534,18.56341,73.8332017,515.4,22.938372093023258,86,32.7093023255814,158.6627906976744,5.0,-88.0,5.0,1
1725103535,18.56341,73.8332017,515.4,22.726744186046513,86,32.0,160.45348837209303,5.0,-88.0,5.0,1
1725103536,18.56341,73.8332017,515.4,22.901149425287354,87,31.977011494252874,159.19540229885058,5.0,-88.0,5.0,1
1725103537,18.56341,73.8332017,515.4,23.08409090909091,88,32.5,157.5,5.0,-88.0,5.0,1
1725103538,18.56341,73.8332017,515.4,23.04,90,32.41111111111111,156.33333333333334,4.0,-88.0,5.0,1
1725103539,18.56341,73.8332017,515.4,23.018681318681317,91,32.38461538461539,157.05494505494505,4.0,-88.0,5.0,1
1725103540,18.56341,73.8332017,515.4,23.051086956521736,92,32.70652173913044,156.17391304347825,5.0,-88.0,6.0,1
1725103541,18.56341,73.8332017,515.4,23.118478260869566,92,32.70652173913044,156.17391304347825,4.0,-88.0,5.0,1
1725103542,18.56341,73.8332017,515.4,22.960869565217394,92,32.391304347826086,153.5326086956522,5.0,-88.0,5.0,1
1725103543,18.56341,73.8332017,515.4,22.93617021276596,94,31.95744680851064,153.85106382978722,5.0,-88.0,5.0,1
1725103544,18.56341,73.8332017,515.4,23.225263157894737,95,31.83157894736842,153.47368421052633,4.0,-88.0,5.0,1
1725103545,18.56341,73.8332017,515.4,23.564893617021276,94,32.180851063829785,151.63829787234042,5.0,-88.0,5.0,1
1725103546,18.56341,73.8332017,515.4,23.5,95,31.936842105263157,150.98947368421054,5.0,-88.0,5.0,1
1725103547,18.56341,73.8332017,515.4,23.160416666666666,96,31.8125,150.64583333333334,5.0,-88.0,6.0,1
1725103548,18.56341,73.8332017,515.4,22.929166666666664,96,31.8125,150.64583333333334,5.0,-88.0,5.0,1
1725103549,18.56341,73.8332017,515.4,23.04479166666667,96,31.8125,150.64583333333334,5.0,-88.0,5.0,1
1725103550,18.56341,73.8332017,515.4,23.016494845360825,97,31.587628865979383,150.6701030927835,5.0,-88.0,5.0,1
1725103551,18.56341,73.8332017,515.4,22.791666666666668,96,31.822916666666668,151.30208333333334,5.0,-88.0,5.0,1
1725103552,18.56341,73.8332017,515.4,23.02,95,32.36842105263158,154.0421052631579,5.0,-88.0,5.0,1
1725103553,18.56341,73.8332017,515.4,23.015625,96,32.239583333333336,153.66666666666666,5.0,-88.0,5.0,1
1725103554,18.56341,73.8332017,515.4,23.203092783505152,97,32.0,153.01030927835052,5.0,-88.0,5.0,1
1725103555,18.5634212,73.8332143,515.4,23.152577319587632,97,32.29896907216495,153.7319587628866,5.0,-88.0,5.0,1
1725103556,18.563423,73.8332177,515.4,23.421875,96,32.427083333333336,154.10416666666666,5.0,-88.0,5.0,1
1725103557,18.5634232,73.8332169,515.3,23.244329896907214,97,32.16494845360825,153.49484536082474,5.0,-88.0,5.0,1
1725103558,18.5634233,73.8332167,515.3,23.11134020618557,97,32.16494845360825,153.49484536082474,5.0,-88.0,5.0,1
1725103559,18.5634233,73.8332167,515.3,23.951020408163263,98,32.04081632653061,153.1326530612245,4.0,-88.0,4.0,1
1725103560,18.5634233,73.8332167,515.3,24.06122448979592,98,32.04081632653061,153.1326530612245,4.0,-88.0,4.0,1
1725103561,18.5634233,73.8332167,515.3,24.085714285714285,98,32.04081632653061,153.1326530612245,4.0,-88.0,4.0,1
1725103562,18.5634233,73.8332167,515.3,24.083673469387755,98,31.816326530612244,153.3673469387755,4.0,-88.0,4.0,1
1725103563,18.5634233,73.8332167,515.3,24.01530612244898,98,31.816326530612244,153.3877551020408,5.0,-88.0,4.0,1
1725103564,18.5634233,73.8332167,515.3,24.082653061224487,98,31.122448979591837,152.24489795918367,4.0,-88.0,4.0,1
1725103565,18.5634233,73.8332167,515.3,24.187755102040818,98,31.122448979591837,152.24489795918367,5.0,-88.0,4.0,1
1725103566,18.5634233,73.8332167,515.3,24.368367346938776,98,31.122448979591837,152.24489795918367,4.0,-88.0,4.0,1
1725103567,18.5634233,73.8332167,515.3,24.56122448979592,98,31.122448979591837,152.24489795918367,5.0,-88.0,4.0,1
1725103568,18.5634233,73.8332167,515.3,24.178571428571427,98,31.122448979591837,152.25510204081633,5.0,-88.0,5.0,1
1725103569,18.5634233,73.8332167,515.3,24.178571428571427,98,31.122448979591837,152.24489795918367,5.0,-88.0,5.0,1
1725103570,18.5634233,73.8332167,515.3,24.273469387755103,98,31.122448979591837,152.24489795918367,5.0,-88.0,5.0,1
1725103571,18.5634233,73.8332167,515.3,24.241836734693877,98,30.836734693877553,150.6530612244898,5.0,-88.0,5.0,1
1725103572,18.5634233,73.8332167,515.3,24.371428571428574,98,30.836734693877553,150.6530612244898,5.0,-88.0,5.0,1
1725103573,18.5634233,73.8332167,515.3,24.385714285714286,98,30.836734693877553,150.6530612244898,5.0,-88.0,5.0,1
1725103574,18.5634233,73.8332167,515.3,24.458163265306123,98,30.448979591836736,147.9795918367347,5.0,-88.0,4.0,1
1725103575,18.5634233,73.8332167,515.3,24.448979591836736,98,30.448979591836736,147.9795918367347,5.0,-88.0,5.0,1
1725103576,18.5634233,73.8332167,515.3,24.274489795918367,98,30.448979591836736,147.9795918367347,5.0,-88.0,5.0,1
1725103577,18.5634233,73.8332167,515.3,24.275510204081634,98,30.448979591836736,147.9795918367347,6.0,-88.0,5.0,1
1725103578,18.5634233,73.8332167,515.3,24.360204081632656,98,30.448979591836736,147.9795918367347,6.0,-88.0,5.0,1
1725103579,18.5634233,73.8332167,515.3,24.313265306122446,98,30.448979591836736,147.9795918367347,5.0,-88.0,5.0,1
1725103580,18.5634233,73.8332167,515.3,24.431632653061225,98,30.336734693877553,147.0204081632653,4.0,-88.0,4.0,1
1725103581,18.5634233,73.8332167,515.3,24.511224489795918,98,30.336734693877553,147.0204081632653,5.0,-88.0,5.0,1
1725103582,18.5634233,73.8332167,515.3,24.55816326530612,98,30.336734693877553,147.0204081632653,5.0,-88.0,5.0,1
1725103583,18.5634233,73.8332167,515.3,24.271428571428572,98,30.336734693877553,147.0204081632653,5.0,-88.0,5.0,1
1725103584,18.5634233,73.8332167,515.3,24.305102040816326,98,30.336734693877553,147.0204081632653,5.0,-88.0,5.0,1
1725103585,18.5634233,73.8332167,515.3,24.282653061224487,98,30.336734693877553,147.0204081632653,6.0,-88.0,5.0,1
1725103586,18.5634233,73.8332167,515.3,24.316326530612244,98,31.612244897959183,151.4795918367347,5.0,-88.0,5.0,1
1725103587,18.5634233,73.8332167,515.3,24.367346938775512,98,31.612244897959183,151.4795918367347,5.0,-88.0,4.0,1
1725103588,18.5634233,73.8332167,515.3,24.271428571428572,98,31.612244897959183,151.5,6.0,-88.0,5.0,1
1725103589,18.5634233,73.8332167,515.3,24.255102040816325,98,31.612244897959183,151.5,5.0,-88.0,5.0,1
1725103590,18.5634233,73.8332167,515.3,24.29387755102041,98,31.632653061224488,151.5,5.0,-88.0,4.0,1
1725103591,18.5634233,73.8332167,515.3,24.282653061224487,98,31.632653061224488,151.5,5.0,-88.0,5.0,1
1725103592,18.5634233,73.8332167,515.3,24.302040816326528,98,32.04081632653061,150.9795918367347,4.0,-88.0,4.0,1
1725103593,18.5634233,73.8332167,515.3,24.228571428571428,98,32.224489795918366,152.83673469387756,4.0,-88.0,4.0,1
1725103594,18.5634233,73.8332167,515.3,24.307142857142857,98,32.224489795918366,152.83673469387756,5.0,-88.0,4.0,1
1725103595,18.5634233,73.8332167,515.3,24.320408163265306,98,31.816326530612244,153.40816326530611,5.0,-88.0,4.0,1
1725103596,18.5634233,73.8332167,515.3,24.374489795918365,98,31.806122448979593,153.40816326530611,4.0,-88.0,4.0,1
1725103597,18.5634233,73.8332167,515.3,24.364285714285714,98,31.806122448979593,153.41836734693877,5.0,-88.0,4.0,1
1725103598,18.5634233,73.8332167,515.3,24.356122448979594,98,31.806122448979593,153.41836734693877,5.0,-88.0,4.0,1
1725103599,18.5634233,73.8332167,515.3,24.436734693877554,98,31.806122448979593,153.41836734693877,5.0,-88.0,5.0,1
1725103600,18.5634233,73.8332167,515.3,24.4234693877551,98,31.806122448979593,153.41836734693877,5.0,-88.0,5.0,1
1725103601,18.5634233,73.8332167,515.3,24.38061224489796,98,31.408163265306122,154.75510204081633,5.0,-88.0,5.0,1
1725103602,18.5634233,73.8332167,515.3,24.270408163265305,98,31.408163265306122,154.75510204081633,5.0,-88.0,5.0,1
1725103603,18.5634233,73.8332167,515.3,24.30816326530612,98,31.408163265306122,154.75510204081633,5.0,-88.0,5.0,1
1725103604,18.5634233,73.8332167,515.3,24.241836734693877,98,30.846938775510203,150.68367346938774,5.0,-88.0,5.0,1
1725103605,18.5634233,73.8332167,515.3,24.31122448979592,98,30.846938775510203,150.68367346938774,5.0,-88.0,5.0,1
1725103606,18.5634233,73.8332167,515.3,24.31122448979592,98,30.846938775510203,150.68367346938774,5.0,-88.0,4.0,1
1725103607,18.5634233,73.8332167,515.3,24.379591836734694,98,30.836734693877553,150.68367346938774,5.0,-88.0,5.0,1
1725103608,18.5634233,73.8332167,515.3,24.301020408163264,98,30.8265306122449,150.6734693877551,5.0,-88.0,4.0,1
1725103609,18.5634233,73.8332167,515.3,24.393877551020406,98,30.836734693877553,150.68367346938774,5.0,-88.0,5.0,1
1725103610,18.5634233,73.8332167,515.3,24.261224489795918,98,30.642857142857142,148.01020408163265,5.0,-88.0,5.0,1
1725103611,18.5634233,73.8332167,515.3,24.304081632653062,98,30.642857142857142,148.01020408163265,5.0,-88.0,5.0,1
1725103612,18.5634233,73.8332167,515.3,24.3265306122449,98,30.642857142857142,148.0,5.0,-88.0,5.0,1
1725103613,18.5634233,73.8332167,515.3,24.31122448979592,98,30.642857142857142,147.98979591836735,5.0,-88.0,4.0,1
1725103614,18.5634233,73.8332167,515.3,24.179591836734694,98,30.336734693877553,147.03061224489795,5.0,-88.0,5.0,1
1725103615,18.5634233,73.8332167,515.3,24.228571428571428,98,30.336734693877553,147.03061224489795,6.0,-88.0,5.0,1
1725103616,18.5634233,73.8332167,515.3,24.304081632653062,98,30.336734693877553,147.03061224489795,6.0,-88.0,5.0,1
1725103617,18.5634233,73.8332167,515.3,24.125510204081635,98,30.336734693877553,147.03061224489795,6.0,-88.0,5.0,1
1725103618,18.5634233,73.8332167,515.3,24.229591836734695,98,30.336734693877553,147.03061224489795,6.0,-88.0,6.0,1
1725103619,18.5634233,73.8332167,515.3,24.166326530612245,98,30.336734693877553,147.03061224489795,5.0,-88.0,5.0,1
1725103620,18.5634233,73.8332167,515.3,24.105102040816327,98,30.336734693877553,147.03061224489795,5.0,-88.0,4.0,1
1725103621,18.5634233,73.8332167,515.3,24.162244897959184,98,30.3265306122449,147.03061224489795,5.0,-88.0,4.0,1
1725103622,18.5634233,73.8332167,515.3,24.240816326530613,98,30.3265306122449,147.03061224489795,6.0,-88.0,6.0,1
1725103623,18.5634233,73.8332167,515.3,24.11122448979592,98,30.3265306122449,147.03061224489795,6.0,-88.0,5.0,1
1725103624,18.5634233,73.8332167,515.3,24.082653061224487,98,30.316326530612244,147.03061224489795,5.0,-88.0,5.0,1
1725103625,18.5634233,73.8332167,515.3,24.086734693877553,98,30.316326530612244,147.03061224489795,5.0,-88.0,5.0,1
1725103626,18.5634233,73.8332167,515.3,24.172448979591838,98,30.316326530612244,147.03061224489795,5.0,-88.0,5.0,1
1725103627,18.5634233,73.8332167,515.3,24.240816326530613,98,30.316326530612244,147.0408163265306,6.0,-88.0,5.0,1
1725103628,18.5634233,73.8332167,515.3,24.239795918367346,98,30.316326530612244,147.05102040816325,6.0,-88.0,5.0,1
1725103629,18.5634233,73.8332167,515.3,24.255102040816325,98,30.3265306122449,147.0408163265306,6.0,-88.0,5.0,1
1725103630,18.5634233,73.8332167,515.3,24.283673469387757,98,30.316326530612244,147.03061224489795,6.0,-88.0,5.0,1
1725103631,18.5634233,73.8332167,515.3,24.182653061224492,98,30.316326530612244,147.03061224489795,6.0,-88.0,5.0,1
1725103632,18.5634233,73.8332167,515.3,24.010204081632654,98,30.132653061224488,145.1734693877551,6.0,-88.0,5.0,1
1725103633,18.5634233,73.8332167,515.3,24.04591836734694,98,31.0,149.18367346938774,6.0,-88.0,6.0,1
1725103634,18.5634233,73.8332167,515.3,24.116326530612245,98,30.989795918367346,149.18367346938774,6.0,-88.0,5.0,1
1725103635,18.5634233,73.8332167,515.3,24.129591836734694,98,30.989795918367346,149.19387755102042,5.0,-88.0,5.0,1
1725103636,18.5634233,73.8332167,515.3,23.882653061224488,98,31.571428571428573,151.51020408163265,5.0,-88.0,5.0,1
1725103637,18.5634233,73.8332167,515.3,23.993877551020407,98,31.56122448979592,151.51020408163265,5.0,-88.0,5.0,1
1725103638,18.5634233,73.8332167,515.3,23.807142857142857,98,31.56122448979592,151.51020408163265,6.0,-88.0,5.0,1
1725103639,18.5634233,73.8332167,515.3,23.828571428571426,98,32.1530612244898,152.8469387755102,6.0,-88.0,5.0,1
1725103640,18.5634233,73.8332167,515.3,23.81530612244898,98,32.1530612244898,152.8673469387755,5.0,-88.0,5.0,1
1725103641,18.5634233,73.8332167,515.3,23.848979591836734,98,32.1530612244898,152.8673469387755,6.0,-88.0,5.0,1
1725103642,18.5634233,73.8332167,515.3,23.79387755102041,98,31.785714285714285,151.3469387755102,5.0,-88.0,5.0,1
1725103643,18.5634233,73.8332167,515.3,23.8265306122449,98,31.948979591836736,153.20408163265307,5.0,-88.0,5.0,1
1725103644,18.5634233,73.8332167,515.3,23.8734693877551,98,31.948979591836736,153.22448979591837,5.0,-88.0,4.0,1
1725103645,18.5634233,73.8332167,515.3,23.787755102040816,98,31.724489795918366,153.4591836734694,5.0,-88.0,5.0,1
1725103646,18.5634233,73.8332167,515.3,23.917346938775513,98,31.724489795918366,153.4591836734694,6.0,-88.0,6.0,1
1725103647,18.5634233,73.8332167,515.3,23.760204081632654,98,31.724489795918366,153.4591836734694,5.0,-88.0,5.0,1
1725103648,18.5634233,73.8332167,515.3,23.735714285714284,98,31.3265306122449,154.79591836734693,5.0,-88.0,5.0,1
1725103649,18.5634233,73.8332167,515.3,23.825510204081635,98,31.3265306122449,154.79591836734693,6.0,-88.0,5.0,1
1725103650,18.5634233,73.8332167,515.3,23.821428571428573,98,31.336734693877553,154.79591836734693,5.0,-88.0,5.0,1
1725103651,18.5634233,73.8332167,515.3,23.937755102040818,98,31.040816326530614,152.31632653061226,5.0,-88.0,4.0,1
1725103652,18.5634233,73.8332167,515.3,23.844897959183676,98,31.040816326530614,152.31632653061226,5.0,-88.0,4.0,1
1725103653,18.5634233,73.8332167,515.3,23.866326530612245,98,31.040816326530614,152.31632653061226,5.0,-88.0,5.0,1
1725103654,18.5634233,73.8332167,515.3,23.725510204081633,98,31.040816326530614,152.31632653061226,5.0,-88.0,5.0,1
1725103655,18.5634233,73.8332167,515.3,23.746938775510202,98,30.775510204081634,150.72448979591837,6.0,-88.0,5.0,1
1725103656,18.5634233,73.8332167,515.3,23.70714285714286,98,30.775510204081634,150.72448979591837,6.0,-88.0,5.0,1
1725103657,18.5634233,73.8332167,515.3,23.814285714285717,98,30.775510204081634,150.72448979591837,5.0,-88.0,5.0,1
1725103658,18.5634233,73.8332167,515.3,23.89183673469388,98,31.255102040816325,150.21428571428572,5.0,-88.0,5.0,1
1725103659,18.5634233,73.8332167,515.3,23.648484848484845,99,31.0,150.53535353535352,5.0,-88.0,4.0,1
1725103660,18.5634233,73.8332167,515.3,24.07171717171717,99,31.404040404040405,152.82828282828282,6.0,-88.0,5.0,1
1725103661,18.5634233,73.8332167,515.3,23.646464646464647,99,31.404040404040405,152.86868686868686,6.0,-88.0,6.0,1
1725103662,18.5634233,73.8332167,515.3,23.634343434343435,99,31.404040404040405,152.84848484848484,6.0,-88.0,5.0,1
1725103663,18.5634233,73.8332167,515.3,23.807070707070707,99,31.404040404040405,152.84848484848484,5.0,-88.0,5.0,1
1725103664,18.5634233,73.8332167,515.3,23.75050505050505,99,31.87878787878788,153.22222222222223,5.0,-88.0,5.0,1
1725103665,18.5634233,73.8332167,515.3,23.855555555555554,99,31.87878787878788,153.22222222222223,5.0,-88.0,4.0,1
1725103666,18.5634233,73.8332167,515.3,23.783838383838383,99,31.87878787878788,153.22222222222223,5.0,-88.0,5.0,1
1725103667,18.5634233,73.8332167,515.3,23.788888888888888,99,31.696969696969695,153.55555555555554,5.0,-88.0,5.0,1
1725103668,18.5634233,73.8332167,515.3,23.74949494949495,99,31.696969696969695,153.55555555555554,5.0,-88.0,4.0,1
1725103669,18.5634233,73.8332167,515.3,23.692929292929293,99,31.696969696969695,153.55555555555554,5.0,-88.0,5.0,1
1725103670,18.5634233,73.8332167,515.3,23.738383838383836,99,31.474747474747474,153.78787878787878,5.0,-88.0,5.0,1
1725103671,18.5634233,73.8332167,515.3,23.84646464646465,99,31.474747474747474,153.78787878787878,5.0,-88.0,5.0,1
1725103672,18.5634233,73.8332167,515.3,23.993939393939396,99,31.474747474747474,153.78787878787878,6.0,-88.0,5.0,1
1725103673,18.5634233,73.8332167,515.3,23.83737373737374,99,31.474747474747474,153.78787878787878,6.0,-88.0,6.0,1
1725103674,18.5634233,73.8332167,515.3,23.74646464646465,99,31.08080808080808,155.11111111111111,5.0,-88.0,5.0,1
1725103675,18.5634233,73.8332167,515.3,23.88888888888889,99,31.08080808080808,155.11111111111111,5.0,-88.0,5.0,1
1725103676,18.5634233,73.8332167,515.3,23.78787878787879,99,30.7979797979798,152.64646464646464,5.0,-88.0,5.0,1
1725103677,18.5634233,73.8332167,515.3,23.872727272727275,99,30.7979797979798,152.65656565656565,5.0,-88.0,5.0,1
1725103678,18.5634233,73.8332167,515.3,23.893939393939394,99,30.7979797979798,152.65656565656565,5.0,-88.0,5.0,1
1725103679,18.5634233,73.8332167,515.3,24.118181818181817,99,30.7979797979798,152.65656565656565,5.0,-88.0,4.0,1
1725103680,18.5634233,73.8332167,515.3,24.066666666666666,99,30.535353535353536,151.08080808080808,5.0,-88.0,4.0,1
1725103681,18.5634233,73.8332167,515.3,24.081818181818182,99,30.535353535353536,151.08080808080808,5.0,-88.0,5.0,1
1725103682,18.5634233,73.8332167,515.3,23.99090909090909,99,30.535353535353536,151.08080808080808,6.0,-88.0,6.0,1
1725103683,18.5634233,73.8332167,515.3,24.125252525252527,99,30.343434343434343,148.43434343434345,6.0,-88.0,6.0,1
1725103684,18.5634233,73.8332167,515.3,24.11919191919192,99,30.353535353535353,148.43434343434345,6.0,-88.0,6.0,1
1725103685,18.5634233,73.8332167,515.3,24.203030303030303,99,30.161616161616163,148.43434343434345,6.0,-88.0,6.0,1
1725103686,18.5634233,73.8332167,515.3,24.206060606060607,99,30.161616161616163,148.43434343434345,7.0,-88.0,7.0,1
1725103687,18.5634233,73.8332167,515.3,24.126262626262626,99,30.161616161616163,148.43434343434345,7.0,-88.0,7.0,1
1725103688,18.5634233,73.8332167,515.3,24.257575757575758,99,30.161616161616163,148.43434343434345,7.0,-88.0,7.0,1
1725103689,18.5634233,73.8332167,515.3,24.156565656565657,99,30.050505050505052,147.4848484848485,7.0,-88.0,6.0,1
1725103690,18.5634233,73.8332167,515.3,24.167676767676767,99,30.050505050505052,147.4848484848485,6.0,-88.0,6.0,1
1725103691,18.5634233,73.8332167,515.3,24.060204081632655,98,30.255102040816325,147.41836734693877,6.0,-88.0,5.0,1
1725103692,18.5634233,73.8332167,515.3,24.01530612244898,98,30.071428571428573,145.5612244897959,6.0,-88.0,6.0,1
1725103693,18.5634233,73.8332167,515.3,24.163265306122447,98,30.255102040816325,147.41836734693877,6.0,-88.0,5.0,1
1725103694,18.5634233,73.8332167,515.3,24.15714285714286,98,30.255102040816325,147.41836734693877,6.0,-88.0,6.0,1
1725103695,18.5634233,73.8332167,515.3,24.333673469387755,98,30.928571428571427,149.5612244897959,6.0,-88.0,5.0,1
1725103696,18.5634233,73.8332167,515.3,24.4265306122449,98,30.928571428571427,149.5612244897959,5.0,-88.0,5.0,1
1725103697,18.5634233,73.8332167,515.3,24.377551020408163,98,30.928571428571427,149.5612244897959,5.0,-88.0,5.0,1
1725103698,18.5634233,73.8332167,515.3,24.35816326530612,98,31.520408163265305,151.8673469387755,6.0,-88.0,5.0,1
1725103699,18.5634233,73.8332167,515.3,24.322222222222223,99,31.32323232323232,151.85858585858585,5.0,-88.0,5.0,1
1725103700,18.5634233,73.8332167,515.3,24.182828282828282,99,31.343434343434343,151.87878787878788,5.0,-88.0,4.0,1
1725103701,18.5634233,73.8332167,515.3,24.12929292929293,99,31.92929292929293,153.2020202020202,5.0,-88.0,4.0,1
1725103702,18.5634233,73.8332167,515.3,24.258585858585857,99,31.92929292929293,153.2020202020202,5.0,-88.0,5.0,1
1725103703,18.5634233,73.8332167,515.3,24.206060606060607,99,31.939393939393938,153.21212121212122,5.0,-88.0,5.0,1
1725103704,18.5634233,73.8332167,515.3,24.217171717171716,99,31.77777777777778,153.5252525252525,6.0,-88.0,6.0,1
1725103705,18.5634233,73.8332167,515.3,24.255555555555556,99,31.78787878787879,153.53535353535352,6.0,-88.0,5.0,1
1725103706,18.5634233,73.8332167,515.3,24.196969696969695,99,31.78787878787879,153.53535353535352,5.0,-88.0,5.0,1
1725103707,18.5634233,73.8332167,515.3,24.151,100,31.56,154.73,5.0,-88.0,5.0,1
1725103708,18.5634233,73.8332167,515.3,24.162,100,31.56,154.73,5.0,-88.0,5.0,1
1725103709,18.5634233,73.8332167,515.3,24.224,100,31.56,154.73,5.0,-88.0,5.0,1
1725103710,18.5634233,73.8332167,515.3,24.16,100,31.17,156.04,5.0,-88.0,5.0,1
1725103711,18.5634233,73.8332167,515.3,24.33,100,31.17,156.04,5.0,-88.0,4.0,1
1725103712,18.5634233,73.8332167,515.3,24.39,100,31.18,156.02,5.0,-88.0,5.0,1
1725103713,18.5634233,73.8332167,515.3,24.518,100,30.89,153.59,6.0,-88.0,5.0,1
1725103714,18.5634233,73.8332167,515.3,24.3,100,30.89,153.59,5.0,-88.0,5.0,1
1725103715,18.5634233,73.8332167,515.3,24.295,100,30.89,153.59,5.0,-88.0,5.0,1
1725103716,18.5634233,73.8332167,515.3,24.369696969696967,99,30.838383838383837,152.02020202020202,5.0,-88.0,5.0,1
1725103717,18.5634233,73.8332167,515.3,24.225,100,30.63,152.02,5.0,-88.0,5.0,1
1725103718,18.5634233,73.8332167,515.3,24.446464646464644,99,30.838383838383837,152.010101010101,5.0,-88.0,5.0,1
1725103719,18.5634233,73.8332167,515.3,24.456565656565655,99,30.646464646464647,149.36363636363637,6.0,-88.0,5.0,1
1725103720,18.5634233,73.8332167,515.3,24.317171717171718,99,30.646464646464647,149.36363636363637,5.0,-88.0,5.0,1
1725103721,18.5634233,73.8332167,515.3,24.40707070707071,99,30.646464646464647,149.36363636363637,6.0,-88.0,5.0,1
1725103722,18.5634233,73.8332167,515.3,24.44141414141414,99,30.434343434343436,149.32323232323233,5.0,-88.0,5.0,1
1725103723,18.5634233,73.8332167,515.3,24.43030303030303,99,30.434343434343436,149.3030303030303,6.0,-88.0,5.0,1
1725103724,18.5634233,73.8332167,515.3,24.483838383838386,99,30.424242424242426,149.31313131313132,6.0,-88.0,5.0,1
1725103725,18.5634233,73.8332167,515.3,24.506,100,30.11,148.39,6.0,-88.0,5.0,1
1725103726,18.5634233,73.8332167,515.3,24.381999999999998,100,30.11,148.39,6.0,-88.0,6.0,1
1725103727,18.5634233,73.8332167,515.3,24.486,100,30.1,148.4,5.0,-88.0,5.0,1
1725103728,18.5634233,73.8332167,515.3,24.538,100,30.08,148.42,5.0,-88.0,5.0,1
1725103729,18.5634233,73.8332167,515.3,24.573,100,30.08,148.42,6.0,-88.0,5.0,1
1725103730,18.5634233,73.8332167,515.3,24.506,100,30.08,148.4,6.0,-88.0,5.0,1
1725103731,18.5634233,73.8332167,515.3,24.906999999999996,100,30.08,148.4,5.0,-88.0,5.0,1
1725103732,18.5634233,73.8332167,515.3,24.783,100,30.08,148.4,5.0,-88.0,5.0,1
1725103733,18.5634233,73.8332167,515.3,24.85,100,30.08,148.4,5.0,-88.0,4.0,1
1725103734,18.5634233,73.8332167,515.3,24.964000000000002,100,30.08,148.4,5.0,-88.0,4.0,1
1725103735,18.5634233,73.8332167,515.3,25.324,100,30.08,148.4,5.0,-88.0,5.0,1
1725103736,18.5634233,73.8332167,515.3,25.344,100,30.08,148.4,5.0,-88.0,5.0,1
1725103737,18.5634233,73.8332167,515.3,25.378,100,30.08,148.4,5.0,-88.0,5.0,1
1725103738,18.5634233,73.8332167,515.3,25.298000000000002,100,30.08,148.4,6.0,-88.0,5.0,1
1725103739,18.5634233,73.8332167,515.3,25.364,100,30.1,148.42,6.0,-88.0,5.0,1
1725103740,18.5634233,73.8332167,515.3,25.346999999999998,100,30.1,148.42,6.0,-88.0,5.0,1
1725103741,18.5634233,73.8332167,515.3,25.465,100,30.1,148.43,5.0,-88.0,5.0,1
1725103742,18.5634233,73.8332167,515.3,25.281,100,29.92,146.61,5.0,-88.0,5.0,1
1725103743,18.5634233,73.8332167,515.3,25.401,100,30.08,148.45,5.0,-88.0,5.0,1
1725103744,18.5634233,73.8332167,515.3,25.213,100,30.08,148.46,6.0,-88.0,5.0,1
1725103745,18.5634233,73.8332167,515.3,25.346,100,30.06,148.44,5.0,-88.0,5.0,1
1725103746,18.5634233,73.8332167,515.3,25.279,100,30.06,148.43,5.0,-88.0,5.0,1
1725103747,18.5634233,73.8332167,515.3,25.325,100,30.72,150.51,5.0,-88.0,5.0,1
1725103748,18.5634233,73.8332167,515.3,25.401,100,30.72,150.51,6.0,-88.0,5.0,1
1725103749,18.5634233,73.8332167,515.3,25.308000000000003,100,30.72,150.51,6.0,-88.0,6.0,1
1725103750,18.5634233,73.8332167,515.3,25.335,100,31.31,152.78,6.0,-88.0,6.0,1
1725103751,18.5634233,73.8332167,515.3,25.263,100,31.31,152.78,5.0,-88.0,5.0,1
1725103752,18.5634233,73.8332167,515.3,25.101,100,31.31,152.78,5.0,-88.0,5.0,1
1725103753,18.5634233,73.8332167,515.3,24.87,100,31.31,152.78,5.0,-88.0,5.0,1
1725103754,18.5634233,73.8332167,515.3,24.941,100,31.31,152.82,6.0,-88.0,6.0,1
1725103755,18.5634233,73.8332167,515.3,25.009,100,31.31,152.82,6.0,-88.0,5.0,1
1725103756,18.5634233,73.8332167,515.3,25.037,100,31.21,152.01,6.0,-88.0,5.0,1
1725103757,18.5634233,73.8332167,515.3,24.784000000000002,100,31.21,152.01,7.0,-88.0,6.0,1
1725103758,18.5634233,73.8332167,515.3,24.9,100,31.21,152.01,6.0,-88.0,6.0,1
1725103759,18.5634233,73.8332167,515.3,24.881999999999998,100,31.21,152.01,5.0,-88.0,5.0,1
1725103760,18.5634233,73.8332167,515.3,24.989,100,31.1,152.17,6.0,-88.0,6.0,1
1725103761,18.5634233,73.8332167,515.3,24.872,100,31.1,152.17,5.0,-88.0,5.0,1
1725103762,18.5634233,73.8332167,515.3,24.846999999999998,100,31.1,152.17,5.0,-88.0,5.0,1
1725103763,18.5634233,73.8332167,515.3,24.945999999999998,100,31.1,152.17,6.0,-88.0,5.0,1
1725103764,18.5634233,73.8332167,515.3,24.8,100,31.1,152.17,5.0,-88.0,5.0,1
1725103765,18.5634233,73.8332167,515.3,24.934,100,30.89,153.36,6.0,-88.0,5.0,1
1725103766,18.5634233,73.8332167,515.3,25.006999999999998,100,30.91,153.36,6.0,-88.0,6.0,1
1725103767,18.5634233,73.8332167,515.3,24.83,100,30.91,153.36,6.0,-88.0,6.0,1
1725103768,18.5634233,73.8332167,515.3,24.845,100,30.9,153.35,5.0,-88.0,5.0,1
1725103769,18.5634233,73.8332167,515.3,24.822,100,30.9,153.35,6.0,-88.0,6.0,1
1725103770,18.5634233,73.8332167,515.3,24.845,100,30.61,153.54,6.0,-88.0,6.0,1
1725103771,18.5634233,73.8332167,515.3,24.771,100,30.61,153.54,6.0,-88.0,5.0,1
1725103772,18.5634233,73.8332167,515.3,24.66,100,30.81,156.18,5.0,-88.0,5.0,1
1725103773,18.5634233,73.8332167,515.3,24.83,100,30.81,156.2,5.0,-88.0,5.0,1
1725103774,18.5634233,73.8332167,515.3,24.686999999999998,100,31.1,155.23,6.0,-88.0,5.0,1
1725103775,18.5634233,73.8332167,515.3,24.69,100,31.1,155.23,5.0,-88.0,5.0,1
1725103776,18.5634233,73.8332167,515.3,24.837,100,31.1,155.23,5.0,-88.0,5.0,1
1725103777,18.5634233,73.8332167,515.3,24.921,100,31.1,155.23,5.0,-88.0,5.0,1
1725103778,18.5634233,73.8332167,515.3,24.848000000000003,100,31.1,155.23,6.0,-88.0,6.0,1
1725103779,18.5634233,73.8332167,515.3,24.91,100,31.02,153.55,5.0,-88.0,5.0,1
1725103780,18.5634233,73.8332167,515.3,24.879,100,31.02,153.55,6.0,-88.0,5.0,1
1725103781,18.5634233,73.8332167,515.3,24.840999999999998,100,31.02,153.55,5.0,-88.0,5.0,1
1725103782,18.5634233,73.8332167,515.3,24.916,100,31.02,153.55,5.0,-88.0,5.0,1
1725103783,18.5634233,73.8332167,515.3,25.011999999999997,100,31.01,153.55,5.0,-88.0,4.0,1
1725103784,18.5634233,73.8332167,515.3,25.03,100,31.01,154.12,6.0,-88.0,5.0,1
1725103785,18.5634233,73.8332167,515.3,24.921,100,31.02,154.13,5.0,-88.0,5.0,1
1725103786,18.5634233,73.8332167,515.3,24.92,100,31.02,154.13,6.0,-88.0,6.0,1
1725103787,18.5634233,73.8332167,515.3,24.927,100,31.02,154.13,6.0,-88.0,5.0,1
1725103788,18.5634233,73.8332167,515.3,24.901999999999997,100,31.49,155.45,6.0,-88.0,6.0,1
1725103789,18.5634233,73.8332167,515.3,24.843000000000004,100,31.49,155.43,6.0,-88.0,6.0,1
1725103790,18.5634233,73.8332167,515.3,24.94,100,31.49,155.43,5.0,-88.0,5.0,1
1725103791,18.5634233,73.8332167,515.3,24.81,100,31.49,155.43,6.0,-88.0,5.0,1
1725103792,18.5634233,73.8332167,515.3,24.919,100,31.49,155.43,6.0,-88.0,5.0,1
1725103793,18.5634233,73.8332167,515.3,24.668000000000003,100,31.41,154.64,6.0,-88.0,5.0,1
1725103794,18.5634233,73.8332167,515.3,24.52828282828283,99,31.666666666666668,155.23232323232324,6.0,-88.0,5.0,1
1725103795,18.5634233,73.8332167,515.3,24.587,100,31.41,154.64,6.0,-88.0,5.0,1
1725103796,18.5634233,73.8332167,515.3,24.665,100,31.41,154.64,6.0,-88.0,5.0,1
1725103797,18.5634233,73.8332167,515.3,24.771,100,31.3,154.8,6.0,-88.0,6.0,1
1725103798,18.5634233,73.8332167,515.3,24.72,100,31.3,154.8,5.0,-88.0,5.0,1
1725103799,18.5634233,73.8332167,515.3,24.885858585858585,99,31.565656565656564,154.53535353535352,5.0,-88.0,4.0,1
1725103800,18.5634233,73.8332167,515.3,25.033333333333335,99,31.565656565656564,154.53535353535352,5.0,-88.0,5.0,1
1725103801,18.5634233,73.8332167,515.3,24.863000000000003,100,31.3,154.8,6.0,-88.0,5.0,1
1725103802,18.5634233,73.8332167,515.3,24.851,100,31.1,155.98,5.0,-88.0,5.0,1
1725103803,18.5634233,73.8332167,515.3,24.913,100,31.1,155.98,6.0,-88.0,5.0,1
1725103804,18.5634233,73.8332167,515.3,24.761,100,31.1,155.98,5.0,-88.0,5.0,1
1725103805,18.5634233,73.8332167,515.3,24.588,100,31.1,155.98,5.0,-88.0,4.0,1
1725103806,18.5634233,73.8332167,515.3,24.625,100,31.1,155.97,5.0,-88.0,5.0,1
1725103807,18.5634233,73.8332167,515.3,24.664,100,30.81,156.16,5.0,-88.0,4.0,1
1725103808,18.5634233,73.8332167,515.3,24.283,100,30.8,156.17,6.0,-88.0,5.0,1
1725103809,18.5634233,73.8332167,515.3,24.136999999999997,100,30.81,156.19,6.0,-88.0,6.0,1
1725103810,18.5634233,73.8332167,515.3,24.301,100,30.78,156.18,6.0,-88.0,5.0,1
1725103811,18.5634233,73.8332167,515.3,24.201999999999998,100,31.06,155.2,6.0,-88.0,5.0,1
1725103812,18.5634233,73.8332167,515.3,24.08910891089109,101,30.95049504950495,156.75247524752476,6.0,-88.0,5.0,1
1725103813,18.5634233,73.8332167,515.3,24.723000000000003,100,31.21,156.52,6.0,-88.0,5.0,1
1725103814,18.5634233,73.8332167,515.3,24.47920792079208,101,30.95049504950495,156.76237623762376,6.0,-88.0,6.0,1
1725103815,18.5634233,73.8332167,515.3,24.384158415841586,101,30.95049504950495,156.76237623762376,6.0,-88.0,5.0,1
1725103816,18.5634233,73.8332167,515.3,24.219801980198017,101,30.85148514851485,155.11881188118812,5.0,-88.0,5.0,1
1725103817,18.5634233,73.8332167,515.3,24.3,101,30.85148514851485,155.11881188118812,5.0,-88.0,4.0,1
1725103818,18.5634233,73.8332167,515.3,24.32323232323232,99,31.343434343434343,155.4949494949495,5.0,-88.0,5.0,1
1725103819,18.5634233,73.8332167,515.3,24.28787878787879,99,31.303030303030305,155.4949494949495,6.0,-88.0,5.0,1
1725103820,18.5634233,73.8332167,515.3,24.455,100,30.41,154.25,6.0,-88.0,5.0,1
1725103821,18.5634233,73.8332167,515.3,24.741,100,30.39,154.25,6.0,-88.0,5.0,1
1725103822,18.5634233,73.8332167,515.3,24.655555555555555,99,30.646464646464647,153.97979797979798,5.0,-88.0,5.0,1
1725103823,18.5634233,73.8332167,515.3,25.023232323232325,99,30.646464646464647,153.97979797979798,6.0,-88.0,6.0,1
1725103824,18.5634233,73.8332167,515.3,24.91010101010101,99,30.646464646464647,153.97979797979798,6.0,-88.0,5.0,1
1725103825,18.5634233,73.8332167,515.3,25.01111111111111,99,30.646464646464647,153.97979797979798,5.0,-88.0,5.0,1
1725103826,18.5634233,73.8332167,515.3,24.982828282828283,99,30.646464646464647,153.97979797979798,5.0,-88.0,5.0,1
1725103827,18.5634233,73.8332167,515.3,24.88787878787879,99,30.646464646464647,153.97979797979798,5.0,-88.0,5.0,1
1725103828,18.5634233,73.8332167,515.3,24.77474747474747,99,30.68686868686869,154.0,5.0,-88.0,5.0,1
1725103829,18.5634233,73.8332167,515.3,24.55151515151515,99,30.68686868686869,153.989898989899,5.0,-88.0,5.0,1
1725103830,18.5634233,73.8332167,515.3,24.6,99,30.68686868686869,153.989898989899,5.0,-88.0,5.0,1
1725103831,18.5634233,73.8332167,515.3,24.392929292929296,99,30.68686868686869,153.989898989899,6.0,-88.0,5.0,1
1725103832,18.5634233,73.8332167,515.3,24.226262626262628,99,30.68686868686869,153.989898989899,5.0,-88.0,4.0,1
1725103833,18.5634233,73.8332167,515.3,24.220202020202024,99,30.666666666666668,153.989898989899,5.0,-88.0,4.0,1
1725103834,18.5634233,73.8332167,515.3,24.15252525252525,99,30.646464646464647,153.989898989899,6.0,-88.0,5.0,1
1725103835,18.5634233,73.8332167,515.3,24.375757575757575,99,30.646464646464647,153.96969696969697,6.0,-88.0,5.0,1
1725103836,18.5634233,73.8332167,515.3,24.241414141414143,99,30.646464646464647,153.96969696969697,6.0,-88.0,5.0,1
1725103837,18.5634233,73.8332167,515.3,24.303030303030305,99,30.646464646464647,154.03030303030303,6.0,-88.0,6.0,1
1725103838,18.5634233,73.8332167,515.3,24.30909090909091,99,30.646464646464647,154.010101010101,6.0,-88.0,6.0,1
1725103839,18.5634233,73.8332167,515.3,24.544444444444444,99,30.646464646464647,154.010101010101,6.0,-88.0,5.0,1
1725103840,18.5634233,73.8332167,515.3,24.52121212121212,99,30.646464646464647,154.010101010101,6.0,-88.0,6.0,1
1725103841,18.5634233,73.8332167,515.3,24.27474747474747,99,30.646464646464647,154.010101010101,6.0,-88.0,5.0,1
1725103842,18.5634233,73.8332167,515.3,24.52020202020202,99,30.646464646464647,154.010101010101,6.0,-88.0,6.0,1
1725103843,18.5634233,73.8332167,515.3,24.4989898989899,99,30.646464646464647,154.010101010101,5.0,-88.0,5.0,1
1725103844,18.5634233,73.8332167,515.3,24.817171717171718,99,30.646464646464647,154.010101010101,6.0,-88.0,5.0,1
1725103845,18.5634233,73.8332167,515.3,24.834343434343435,99,30.646464646464647,154.010101010101,5.0,-88.0,5.0,1
1725103846,18.5634233,73.8332167,515.3,24.80606060606061,99,30.646464646464647,154.010101010101,6.0,-88.0,5.0,1
1725103847,18.5634233,73.8332167,515.3,24.965656565656566,99,30.646464646464647,154.010101010101,6.0,-88.0,5.0,1
1725103848,18.5634233,73.8332167,515.3,24.710101010101013,99,30.646464646464647,154.010101010101,6.0,-88.0,6.0,1
1725103849,18.5634233,73.8332167,515.3,24.748484848484846,99,30.646464646464647,154.010101010101,6.0,-88.0,5.0,1
1725103850,18.5634233,73.8332167,515.3,24.671717171717173,99,30.646464646464647,154.010101010101,6.0,-88.0,5.0,1
1725103851,18.5634233,73.8332167,515.3,24.775757575757577,99,30.646464646464647,154.010101010101,6.0,-88.0,6.0,1
1725103852,18.5634233,73.8332167,515.3,24.799999999999997,99,31.32323232323232,156.12121212121212,6.0,-88.0,6.0,1
1725103853,18.5634233,73.8332167,515.3,24.709090909090907,99,31.333333333333332,156.12121212121212,6.0,-88.0,6.0,1
1725103854,18.5634233,73.8332167,515.3,25.023232323232325,99,31.333333333333332,156.12121212121212,6.0,-88.0,6.0,1
1725103855,18.5634233,73.8332167,515.3,25.013131313131314,99,31.333333333333332,156.12121212121212,6.0,-88.0,6.0,1
1725103856,18.5634233,73.8332167,515.3,25.07979797979798,99,31.333333333333332,156.12121212121212,6.0,-88.0,6.0,1
1725103857,18.5634233,73.8332167,515.3,24.73333333333333,99,31.333333333333332,156.12121212121212,6.0,-88.0,6.0,1
1725103858,18.5634233,73.8332167,515.3,24.825252525252523,99,31.818181818181817,157.46464646464648,6.0,-88.0,5.0,1
1725103859,18.5634233,73.8332167,515.3,24.775757575757577,99,31.818181818181817,157.46464646464648,6.0,-88.0,5.0,1
1725103860,18.5634233,73.8332167,515.3,24.752525252525253,99,31.818181818181817,157.46464646464648,5.0,-88.0,5.0,1
1725103861,18.5634233,73.8332167,515.3,24.783838383838383,99,31.737373737373737,156.66666666666666,5.0,-88.0,5.0,1
1725103862,18.5634233,73.8332167,515.3,25.15050505050505,99,31.737373737373737,156.66666666666666,6.0,-88.0,5.0,1
1725103863,18.5634233,73.8332167,515.3,24.922222222222224,99,31.737373737373737,156.66666666666666,6.0,-88.0,5.0,1
1725103864,18.5634233,73.8332167,515.3,24.97979797979798,99,31.737373737373737,156.66666666666666,6.0,-88.0,5.0,1
1725103865,18.5634233,73.8332167,515.3,24.903030303030302,99,31.737373737373737,156.66666666666666,6.0,-88.0,6.0,1
1725103866,18.5634233,73.8332167,515.3,24.94040404040404,99,31.737373737373737,156.66666666666666,5.0,-88.0,5.0,1
1725103867,18.5634233,73.8332167,515.3,24.92727272727273,99,31.626262626262626,156.8181818181818,6.0,-88.0,5.0,1
1725103868,18.5634233,73.8332167,515.3,24.91717171717172,99,31.626262626262626,156.8181818181818,6.0,-88.0,5.0,1
1725103869,18.5634233,73.8332167,515.3,25.0020202020202,99,31.626262626262626,156.8181818181818,5.0,-88.0,5.0,1
1725103870,18.5634233,73.8332167,515.3,24.871717171717172,99,31.414141414141415,158.02020202020202,5.0,-88.0,5.0,1
1725103871,18.5634233,73.8332167,515.3,25.12929292929293,99,31.414141414141415,158.02020202020202,5.0,-88.0,5.0,1
1725103872,18.5634233,73.8332167,515.3,25.097979797979797,99,31.414141414141415,158.02020202020202,5.0,-88.0,5.0,1
1725103873,18.5634233,73.8332167,515.3,25.144444444444446,99,31.414141414141415,158.02020202020202,5.0,-88.0,5.0,1
1725103874,18.5634233,73.8332167,515.3,25.087878787878786,99,31.404040404040405,158.010101010101,5.0,-88.0,5.0,1
1725103875,18.5634233,73.8332167,515.3,24.924242424242426,99,31.424242424242426,157.96969696969697,5.0,-88.0,5.0,1
1725103876,18.5634233,73.8332167,515.3,25.04242424242424,99,31.13131313131313,158.1818181818182,5.0,-88.0,5.0,1
1725103877,18.5634233,73.8332167,515.3,25.125252525252527,99,31.13131313131313,158.1818181818182,5.0,-88.0,5.0,1
1725103878,18.5634233,73.8332167,515.3,24.962626262626266,99,31.13131313131313,158.1818181818182,6.0,-88.0,5.0,1
1725103879,18.5634233,73.8332167,515.3,25.067676767676765,99,31.141414141414142,158.1919191919192,6.0,-88.0,6.0,1
1725103880,18.5634233,73.8332167,515.3,25.056565656565656,99,31.424242424242426,157.1919191919192,6.0,-88.0,5.0,1
1725103881,18.5634233,73.8332167,515.3,24.91717171717172,99,31.434343434343436,157.2020202020202,5.0,-88.0,5.0,1
1725103882,18.5634233,73.8332167,515.3,24.87878787878788,99,31.434343434343436,157.2020202020202,5.0,-88.0,5.0,1
1725103883,18.5634233,73.8332167,515.3,24.93737373737374,99,31.434343434343436,157.2020202020202,6.0,-88.0,5.0,1
1725103884,18.5634233,73.8332167,515.3,25.07171717171717,99,31.434343434343436,157.2020202020202,6.0,-88.0,6.0,1
1725103885,18.5634233,73.8332167,515.3,25.1010101010101,99,31.353535353535353,155.5050505050505,6.0,-88.0,5.0,1
1725103886,18.5634233,73.8332167,515.3,25.156565656565657,99,31.353535353535353,155.5050505050505,6.0,-88.0,5.0,1
1725103887,18.5634233,73.8332167,515.3,25.093939393939397,99,31.353535353535353,155.5050505050505,6.0,-88.0,6.0,1
1725103888,18.5634233,73.8332167,515.3,25.0010101010101,99,31.363636363636363,155.4747474747475,6.0,-88.0,5.0,1
1725103889,18.5634233,73.8332167,515.3,24.916161616161613,99,30.707070707070706,153.93939393939394,6.0,-88.0,6.0,1
1725103890,18.5634233,73.8332167,515.3,24.871717171717172,99,30.707070707070706,153.93939393939394,7.0,-88.0,6.0,1
1725103891,18.5634233,73.8332167,515.3,24.977777777777778,99,30.707070707070706,153.93939393939394,6.0,-88.0,6.0,1
1725103892,18.5634233,73.8332167,515.3,25.1030303030303,99,30.707070707070706,153.93939393939394,6.0,-88.0,6.0,1
1725103893,18.5634233,73.8332167,515.3,24.949494949494948,99,30.696969696969695,153.92929292929293,6.0,-88.0,6.0,1
1725103894,18.5634233,73.8332167,515.3,24.876767676767678,99,30.585858585858585,152.97979797979798,6.0,-88.0,6.0,1
1725103895,18.5634233,73.8332167,515.3,24.586868686868687,99,30.585858585858585,152.97979797979798,6.0,-88.0,6.0,1
1725103896,18.5634233,73.8332167,515.3,24.744444444444444,99,30.585858585858585,152.97979797979798,5.0,-88.0,5.0,1
1725103897,18.5634233,73.8332167,515.3,24.563000000000002,100,30.36,152.37,6.0,-88.0,5.0,1
1725103898,18.5634233,73.8332167,515.3,24.49,100,30.34,152.33,6.0,-88.0,6.0,1
1725103899,18.5634233,73.8332167,515.3,24.771,100,30.36,152.31,6.0,-88.0,5.0,1
1725103900,18.5634233,73.8332167,515.3,24.636999999999997,100,30.35,152.32,6.0,-88.0,6.0,1
1725103901,18.5634233,73.8332167,515.3,24.638,100,30.35,152.32,6.0,-88.0,6.0,1
1725103902,18.5634233,73.8332167,515.3,24.827272727272728,99,30.575757575757574,152.92929292929293,6.0,-88.0,5.0,1
1725103903,18.5634233,73.8332167,515.3,24.903030303030302,99,30.565656565656564,152.93939393939394,5.0,-88.0,5.0,1
1725103904,18.5634233,73.8332167,515.3,25.055555555555557,99,30.565656565656564,152.97979797979798,6.0,-88.0,5.0,1
1725103905,18.5634233,73.8332167,515.3,24.871717171717172,99,30.565656565656564,152.97979797979798,6.0,-88.0,6.0,1
1725103906,18.5634233,73.8332167,515.3,24.893,100,30.34,152.37,5.0,-88.0,5.0,1
1725103907,18.5634233,73.8332167,515.3,24.715999999999998,100,30.34,152.37,6.0,-88.0,5.0,1
1725103908,18.5634233,73.8332167,515.3,24.971,100,30.34,152.38,6.0,-88.0,5.0,1
1725103909,18.5634233,73.8332167,515.3,24.989,100,30.34,152.38,5.0,-88.0,5.0,1
1725103910,18.5634233,73.8332167,515.3,25.32,100,30.34,152.38,5.0,-88.0,4.0,1
1725103911,18.5634233,73.8332167,515.3,25.408,100,30.34,152.39,5.0,-88.0,4.0,1
1725103912,18.5634233,73.8332167,515.3,25.263,100,30.34,152.39,5.0,-88.0,5.0,1
1725103913,18.5634233,73.8332167,515.3,25.247,100,30.34,152.39,5.0,-88.0,4.0,1
1725103914,18.5634233,73.8332167,515.3,25.264,100,30.34,152.39,6.0,-88.0,5.0,1
1725103915,18.5634233,73.8332167,515.3,25.208000000000002,100,30.34,152.41,6.0,-88.0,5.0,1
1725103916,18.5634233,73.8332167,515.3,25.384848484848483,99,30.565656565656564,153.02020202020202,5.0,-88.0,5.0,1
1725103917,18.5634233,73.8332167,515.3,25.345454545454544,99,30.585858585858585,153.04040404040404,5.0,-88.0,5.0,1
1725103918,18.5634233,73.8332167,515.3,24.97171717171717,99,30.585858585858585,153.04040404040404,6.0,-88.0,5.0,1
1725103919,18.5634233,73.8332167,515.3,24.841414141414145,99,30.585858585858585,153.04040404040404,5.0,-88.0,5.0,1
1725103920,18.5634233,73.8332167,515.3,24.974747474747474,99,31.262626262626263,155.16161616161617,6.0,-88.0,5.0,1
1725103921,18.5634233,73.8332167,515.3,24.923232323232323,99,31.242424242424242,155.14141414141415,6.0,-88.0,5.0,1
1725103922,18.5634233,73.8332167,515.3,24.946464646464644,99,31.242424242424242,155.13131313131314,6.0,-88.0,5.0,1
1725103923,18.5634233,73.8332167,515.3,24.894949494949493,99,31.22222222222222,155.11111111111111,6.0,-88.0,6.0,1
1725103924,18.5634233,73.8332167,515.3,24.954545454545453,99,31.22222222222222,155.11111111111111,6.0,-88.0,5.0,1
1725103925,18.5634233,73.8332167,515.3,24.976767676767675,99,31.87878787878788,156.64646464646464,6.0,-88.0,6.0,1
1725103926,18.5634233,73.8332167,515.3,25.278787878787877,99,31.87878787878788,156.64646464646464,6.0,-88.0,6.0,1
1725103927,18.5634233,73.8332167,515.3,25.310101010101008,99,31.87878787878788,156.64646464646464,6.0,-88.0,5.0,1
1725103928,18.5634233,73.8332167,515.3,25.352525252525254,99,31.87878787878788,156.64646464646464,6.0,-88.0,5.0,1
1725103929,18.5634233,73.8332167,515.3,25.196969696969695,99,31.87878787878788,156.64646464646464,6.0,-88.0,6.0,1
1725103930,18.5634233,73.8332167,515.3,25.303030303030305,99,31.80808080808081,156.83838383838383,7.0,-88.0,7.0,1
1725103931,18.5634233,73.8332167,515.3,25.356565656565657,99,31.80808080808081,156.83838383838383,6.0,-88.0,5.0,1
1725103932,18.5634233,73.8332167,515.3,25.247474747474747,99,31.80808080808081,156.8181818181818,7.0,-88.0,6.0,1
1725103933,18.5634233,73.8332167,515.3,25.322222222222223,99,31.80808080808081,156.8181818181818,6.0,-88.0,6.0,1
1725103934,18.5634233,73.8332167,515.3,25.384848484848483,99,31.80808080808081,156.8181818181818,6.0,-88.0,5.0,1
1725103935,18.5634233,73.8332167,515.3,25.43838383838384,99,31.737373737373737,156.6060606060606,5.0,-88.0,5.0,1
1725103936,18.5634233,73.8332167,515.3,25.288888888888888,99,31.737373737373737,156.6060606060606,6.0,-88.0,5.0,1
1725103937,18.5634233,73.8332167,515.3,25.446464646464644,99,31.737373737373737,156.6060606060606,5.0,-88.0,5.0,1
1725103938,18.5634233,73.8332167,515.3,25.45151515151515,99,31.737373737373737,156.6060606060606,5.0,-88.0,5.0,1
1725103939,18.5634233,73.8332167,515.3,25.435353535353535,99,31.737373737373737,156.6060606060606,5.0,-88.0,5.0,1
1725103940,18.5634233,73.8332167,515.3,25.43030303030303,99,31.626262626262626,156.77777777777777,6.0,-88.0,5.0,1
1725103941,18.5634233,73.8332167,515.3,25.486,100,31.39,156.14,6.0,-88.0,6.0,1
1725103942,18.5634233,73.8332167,515.3,25.169,100,31.41,156.14,6.0,-88.0,5.0,1
1725103943,18.5634233,73.8332167,515.3,25.164,100,31.41,156.14,6.0,-88.0,6.0,1
1725103944,18.5634233,73.8332167,515.3,24.973000000000003,100,31.4,156.14,6.0,-88.0,5.0,1
1725103945,18.5634233,73.8332167,515.3,25.147,100,31.19,157.33,6.0,-88.0,5.0,1
1725103946,18.5634233,73.8332167,515.3,25.066,100,31.19,157.33,6.0,-88.0,5.0,1
1725103947,18.5634233,73.8332167,515.3,25.163,100,31.19,157.33,6.0,-88.0,5.0,1
1725103948,18.5634233,73.8332167,515.3,25.127,100,31.18,157.35,6.0,-88.0,5.0,1
1725103949,18.5634233,73.8332167,515.3,25.12,100,30.9,157.57,6.0,-88.0,6.0,1
1725103950,18.5634233,73.8332167,515.3,25.041,100,30.91,157.58,6.0,-88.0,5.0,1
1725103951,18.5634233,73.8332167,515.3,24.437623762376237,101,30.633663366336634,159.009900990099,6.0,-88.0,5.0,1
1725103952,18.5634233,73.8332167,515.3,24.638,100,30.91,157.58,5.0,-88.0,5.0,1
1725103953,18.5634233,73.8332167,515.3,24.509,100,30.91,157.58,6.0,-88.0,6.0,1
1725103954,18.5634233,73.8332167,515.3,24.497,100,30.65,156.02,6.0,-88.0,6.0,1
1725103955,18.5634233,73.8332167,515.3,24.852525252525254,99,30.87878787878788,156.65656565656565,6.0,-88.0,6.0,1
1725103956,18.5634233,73.8332167,515.3,24.768,100,30.65,156.02,6.0,-88.0,5.0,1
1725103957,18.5634233,73.8332167,515.3,24.705,100,30.65,156.02,6.0,-88.0,6.0,1
1725103958,18.5634233,73.8332167,515.3,24.71,100,30.65,156.02,6.0,-88.0,5.0,1
1725103959,18.5634233,73.8332167,515.3,24.699,100,31.1,155.5,6.0,-88.0,6.0,1
1725103960,18.5634233,73.8332167,515.3,24.759,100,31.08,155.49,5.0,-88.0,5.0,1
1725103961,18.5634233,73.8332167,515.3,24.761,100,31.09,155.5,6.0,-88.0,5.0,1
1725103962,18.5634233,73.8332167,515.3,24.788,100,31.09,155.5,6.0,-88.0,6.0,1
1725103963,18.5634233,73.8332167,515.3,24.706,100,31.63,156.08,5.0,-88.0,5.0,1
1725103964,18.5634233,73.8332167,515.3,24.559405940594058,101,31.336633663366335,157.5148514851485,6.0,-88.0,5.0,1
1725103965,18.5634233,73.8332167,515.3,24.69207920792079,101,31.326732673267326,157.5049504950495,6.0,-88.0,5.0,1
1725103966,18.5634233,73.8332167,515.3,24.602970297029703,101,31.326732673267326,157.5049504950495,6.0,-88.0,6.0,1
1725103967,18.5634233,73.8332167,515.3,24.525742574257425,101,31.326732673267326,157.5049504950495,6.0,-88.0,6.0,1
1725103968,18.5634233,73.8332167,515.3,24.51188118811881,101,31.257425742574256,157.67326732673268,6.0,-88.0,6.0,1
1725103969,18.5634233,73.8332167,515.3,24.8009900990099,101,31.257425742574256,157.67326732673268,7.0,-88.0,6.0,1
1725103970,18.5634233,73.8332167,515.3,24.752475247524753,101,31.257425742574256,157.67326732673268,7.0,-88.0,6.0,1
1725103971,18.5634233,73.8332167,515.3,24.456435643564355,101,31.257425742574256,157.67326732673268,6.0,-88.0,6.0,1
1725103972,18.5634233,73.8332167,515.3,23.93960396039604,101,31.257425742574256,157.67326732673268,6.0,-88.0,5.0,1
1725103973,18.5634233,73.8332167,515.3,24.474257425742575,101,31.18811881188119,157.46534653465346,7.0,-88.0,6.0,1
1725103974,18.5634233,73.8332167,515.3,24.838,100,31.21,156.56,6.0,-88.0,6.0,1
1725103975,18.5634233,73.8332167,515.3,24.63,100,31.21,156.56,6.0,-88.0,6.0,1
1725103976,18.5634233,73.8332167,515.3,24.604,100,31.21,156.56,6.0,-88.0,5.0,1
1725103977,18.5634233,73.8332167,515.3,24.889108910891093,101,31.178217821782177,157.47524752475246,5.0,-88.0,5.0,1
1725103978,18.5634233,73.8332167,515.3,24.8009900990099,101,31.06930693069307,157.63366336633663,6.0,-88.0,5.0,1
1725103979,18.5634233,73.8332167,515.3,24.704950495049502,101,31.059405940594058,157.64356435643563,6.0,-88.0,6.0,1
1725103980,18.5634233,73.8332167,515.3,24.60792079207921,101,31.04950495049505,157.64356435643563,5.0,-88.0,5.0,1
1725103981,18.5634233,73.8332167,515.3,24.682178217821782,101,31.059405940594058,157.64356435643563,6.0,-88.0,6.0,1
1725103982,18.5634233,73.8332167,515.3,24.643,100,31.08,156.73,6.0,-88.0,5.0,1
1725103983,18.5634233,73.8332167,515.3,24.604,100,30.87,157.92,6.0,-88.0,6.0,1
1725103984,18.5634233,73.8332167,515.3,24.693,100,30.86,157.93,6.0,-88.0,6.0,1
1725103985,18.5634233,73.8332167,515.3,24.638613861386137,101,30.85148514851485,158.83168316831683,6.0,-88.0,5.0,1
1725103986,18.5634233,73.8332167,515.3,24.554455445544555,101,30.821782178217823,158.82178217821783,6.0,-88.0,5.0,1
1725103987,18.5634233,73.8332167,515.3,24.451485148514852,101,30.534653465346533,159.009900990099,5.0,-88.0,5.0,1
1725103988,18.5634233,73.8332167,515.3,24.73861386138614,101,30.504950495049506,159.0,6.0,-88.0,5.0,1
1725103989,18.5634233,73.8332167,515.3,24.627722772277227,101,30.495049504950494,159.0,5.0,-88.0,5.0,1
1725103990,18.5634233,73.8332167,515.3,24.56831683168317,101,30.495049504950494,159.0,6.0,-88.0,5.0,1
1725103991,18.5634233,73.8332167,515.3,24.506930693069304,101,30.495049504950494,159.0,5.0,-88.0,5.0,1
1725103992,18.5634233,73.8332167,515.3,24.41089108910891,101,30.217821782178216,157.47524752475246,5.0,-88.0,5.0,1
1725103993,18.5634233,73.8332167,515.3,24.55742574257426,101,30.217821782178216,157.47524752475246,5.0,-88.0,4.0,1
1725103994,18.5634233,73.8332167,515.3,24.650495049504947,101,30.217821782178216,157.47524752475246,5.0,-88.0,5.0,1
1725103995,18.5634233,73.8332167,515.3,24.601,100,30.21,156.59,5.0,-88.0,4.0,1
1725103996,18.5634233,73.8332167,515.3,24.653000000000002,100,30.04,153.99,5.0,-88.0,5.0,1
1725103997,18.5634233,73.8332167,515.3,24.729,100,30.02,154.01,5.0,-88.0,5.0,1
1725103998,18.5634233,73.8332167,515.3,24.754,100,30.02,154.01,5.0,-88.0,5.0,1
1725103999,18.5634233,73.8332167,515.3,24.709,100,30.02,154.01,6.0,-88.0,6.0,1
1725104000,18.5634233,73.8332167,515.3,24.671999999999997,100,30.02,154.01,6.0,-88.0,6.0,1
1725104001,18.5634233,73.8332167,515.3,24.785999999999998,100,29.91,153.07,6.0,-88.0,6.0,1
1725104002,18.5634233,73.8332167,515.3,24.641,100,29.92,153.07,6.0,-88.0,6.0,1
1725104003,18.5634233,73.8332167,515.3,24.705,100,29.92,153.07,6.0,-88.0,5.0,1
1725104004,18.5634233,73.8332167,515.3,24.69,100,29.94,153.07,5.0,-88.0,5.0,1
1725104005,18.5634233,73.8332167,515.3,24.773000000000003,100,29.94,153.06,5.0,-88.0,5.0,1
1725104006,18.5634233,73.8332167,515.3,24.732,100,29.94,153.06,5.0,-88.0,5.0,1
1725104007,18.5634233,73.8332167,515.3,24.744,100,29.94,153.06,5.0,-88.0,5.0,1
1725104008,18.5634233,73.8332167,515.3,24.603,100,29.94,153.06,5.0,-88.0,5.0,1
1725104009,18.5634233,73.8332167,515.3,24.601,100,29.94,153.08,6.0,-88.0,6.0,1
1725104010,18.5634233,73.8332167,515.3,24.586,100,29.94,153.08,5.0,-88.0,5.0,1
1725104011,18.5634233,73.8332167,515.3,24.49,100,29.96,153.08,5.0,-88.0,5.0,1
1725104012,18.5634233,73.8332167,515.3,24.287128712871286,101,29.673267326732674,154.7128712871287,6.0,-88.0,5.0,1
1725104013,18.5634233,73.8332167,515.3,24.571287128712868,101,29.673267326732674,154.77227722772278,6.0,-88.0,6.0,1
1725104014,18.5634233,73.8332167,515.3,24.519801980198018,101,30.95049504950495,158.33663366336634,6.0,-88.0,5.0,1
1725104015,18.5634233,73.8332167,515.3,24.752,100,31.23,156.9,5.0,-88.0,5.0,1
1725104016,18.5634233,73.8332167,515.3,24.807,100,31.23,156.9,6.0,-88.0,5.0,1
1725104017,18.5634233,73.8332167,515.3,24.808000000000003,100,31.23,156.9,5.0,-88.0,5.0,1
1725104018,18.5634233,73.8332167,515.3,24.719801980198017,101,30.95049504950495,158.33663366336634,5.0,-88.0,5.0,1
1725104019,18.5634233,73.8332167,515.3,24.66039603960396,101,30.95049504950495,158.33663366336634,6.0,-88.0,5.0,1
1725104020,18.5634233,73.8332167,515.3,24.730693069306934,101,30.95049504950495,158.33663366336634,5.0,-88.0,4.0,1
1725104021,18.5634233,73.8332167,515.3,24.544554455445546,101,30.95049504950495,158.33663366336634,6.0,-88.0,5.0,1
1725104022,18.5634233,73.8332167,515.3,24.625742574257423,101,30.95049504950495,158.33663366336634,5.0,-88.0,5.0,1
1725104023,18.5634233,73.8332167,515.3,24.47227722772277,101,30.81188118811881,158.2970297029703,5.0,-88.0,5.0,1
1725104024,18.5634233,73.8332167,515.3,24.555445544554455,101,30.81188118811881,158.2970297029703,5.0,-88.0,5.0,1
1725104025,18.5634233,73.8332167,515.3,24.321782178217823,101,30.81188118811881,158.2970297029703,6.0,-88.0,5.0,1
1725104026,18.5634233,73.8332167,515.3,24.407920792079207,101,30.81188118811881,158.2970297029703,6.0,-88.0,6.0,1
1725104027,18.5634233,73.8332167,515.3,24.361386138613863,101,30.81188118811881,158.2970297029703,5.0,-88.0,5.0,1
1725104028,18.5634233,73.8332167,515.3,24.334653465346538,101,30.821782178217823,158.2970297029703,5.0,-88.0,5.0,1
1725104029,18.5634233,73.8332167,515.3,24.39306930693069,101,30.831683168316832,158.30693069306932,5.0,-88.0,5.0,1
1725104030,18.5634233,73.8332167,515.3,24.113861386138613,101,30.831683168316832,158.30693069306932,6.0,-88.0,5.0,1
1725104031,18.5634233,73.8332167,515.3,24.211881188118813,101,30.831683168316832,158.30693069306932,5.0,-88.0,5.0,1
1725104032,18.5634233,73.8332167,515.3,24.126732673267327,101,30.217821782178216,150.24752475247524,5.0,-88.0,5.0,1
1725104033,18.5634233,73.8332167,515.3,24.167326732673267,101,30.514851485148515,159.66336633663366,6.0,-88.0,5.0,1
1725104034,18.5634233,73.8332167,515.3,24.30792079207921,101,30.514851485148515,159.66336633663366,6.0,-88.0,6.0,1
1725104035,18.5634233,73.8332167,515.3,24.27128712871287,101,30.514851485148515,159.66336633663366,6.0,-88.0,6.0,1
1725104036,18.5634233,73.8332167,515.3,24.417821782178216,101,30.514851485148515,159.66336633663366,6.0,-88.0,6.0,1
1725104037,18.5634233,73.8332167,515.3,24.35247524752475,101,30.514851485148515,159.66336633663366,6.0,-88.0,6.0,1
1725104038,18.5634233,73.8332167,515.3,24.335643564356438,101,30.514851485148515,159.66336633663366,6.0,-88.0,6.0,1
1725104039,18.5634233,73.8332167,515.3,24.306930693069308,101,30.514851485148515,159.66336633663366,6.0,-88.0,5.0,1
1725104040,18.5634233,73.8332167,515.3,24.191089108910894,101,30.514851485148515,159.66336633663366,6.0,-88.0,6.0,1
1725104041,18.5634233,73.8332167,515.3,24.465346534653467,101,30.514851485148515,159.66336633663366,5.0,-88.0,5.0,1
1725104042,18.5634233,73.8332167,515.3,24.404950495049505,101,29.97029702970297,158.30693069306932,7.0,-88.0,7.0,1
1725104043,18.5634233,73.8332167,515.3,24.324752475247525,101,29.97029702970297,158.2970297029703,6.0,-88.0,6.0,1
1725104044,18.5634233,73.8332167,515.3,24.167326732673267,101,29.97029702970297,158.2970297029703,6.0,-88.0,6.0,1
1725104045,18.5634233,73.8332167,515.3,24.376237623762375,101,29.97029702970297,158.2970297029703,7.0,-88.0,6.0,1
1725104046,18.5634233,73.8332167,515.3,24.327722772277227,101,29.97029702970297,158.2970297029703,6.0,-88.0,6.0,1
1725104047,18.5634233,73.8332167,515.3,24.559405940594058,101,29.97029702970297,158.2970297029703,6.0,-88.0,6.0,1
1725104048,18.5634233,73.8332167,515.3,24.512871287128714,101,29.97029702970297,158.2970297029703,6.0,-88.0,5.0,1
1725104049,18.5634233,73.8332167,515.3,24.325742574257426,101,29.97029702970297,158.2970297029703,7.0,-88.0,6.0,1
1725104050,18.5634233,73.8332167,515.3,24.213861386138614,101,29.97029702970297,158.2871287128713,6.0,-88.0,5.0,1
1725104051,18.5634233,73.8332167,515.3,24.344554455445547,101,29.712871287128714,154.74257425742573,6.0,-88.0,5.0,1
1725104052,18.5634233,73.8332167,515.3,24.236633663366337,101,29.73267326732673,154.78217821782178,6.0,-88.0,6.0,1
1725104053,18.5634233,73.8332167,515.3,24.44950495049505,101,29.73267326732673,154.78217821782178,5.0,-88.0,5.0,1
1725104054,18.5634233,73.8332167,515.3,24.585148514851483,101,29.73267326732673,154.78217821782178,6.0,-88.0,6.0,1
1725104055,18.5634233,73.8332167,515.3,24.681188118811882,101,29.742574257425744,154.79207920792078,6.0,-88.0,6.0,1
1725104056,18.5634233,73.8332167,515.3,24.485148514851485,101,29.752475247524753,154.78217821782178,6.0,-88.0,6.0,1
1725104057,18.5634233,73.8332167,515.3,24.62079207920792,101,29.752475247524753,154.8019801980198,6.0,-88.0,5.0,1
1725104058,18.5634233,73.8332167,515.3,24.797029702970296,101,29.752475247524753,154.8019801980198,6.0,-88.0,5.0,1
1725104059,18.5634233,73.8332167,515.3,24.451485148514852,101,29.752475247524753,154.8019801980198,7.0,-88.0,7.0,1
1725104060,18.5634233,73.8332167,515.3,24.428712871287132,101,29.752475247524753,154.8019801980198,6.0,-88.0,6.0,1
1725104061,18.5634233,73.8332167,515.3,24.7,101,29.752475247524753,154.8019801980198,7.0,-88.0,6.0,1
1725104062,18.5634233,73.8332167,515.3,24.705940594059406,101,29.752475247524753,154.8019801980198,7.0,-88.0,7.0,1
1725104063,18.5634233,73.8332167,515.3,24.55148514851485,101,29.752475247524753,154.8019801980198,6.0,-88.0,5.0,1
1725104064,18.5634233,73.8332167,515.3,24.764356435643563,101,29.762376237623762,154.77227722772278,6.0,-88.0,5.0,1
1725104065,18.5634233,73.8332167,515.3,24.74356435643564,101,29.762376237623762,154.77227722772278,6.0,-88.0,6.0,1
1725104066,18.5634233,73.8332167,515.3,24.706930693069307,101,29.762376237623762,154.77227722772278,6.0,-88.0,5.0,1
1725104067,18.5634233,73.8332167,515.3,24.944554455445545,101,29.762376237623762,154.77227722772278,6.0,-88.0,6.0,1
1725104068,18.5634233,73.8332167,515.3,24.86237623762376,101,29.762376237623762,154.77227722772278,6.0,-88.0,6.0,1
1725104069,18.5634233,73.8332167,515.3,24.816831683168317,101,29.752475247524753,154.76237623762376,6.0,-88.0,6.0,1
1725104070,18.5634233,73.8332167,515.3,24.705940594059406,101,29.752475247524753,154.76237623762376,6.0,-88.0,6.0,1
1725104071,18.5634233,73.8332167,515.3,24.797029702970296,101,29.752475247524753,154.76237623762376,7.0,-88.0,7.0,1
1725104072,18.5634233,73.8332167,515.3,24.868316831683167,101,29.752475247524753,154.76237623762376,7.0,-88.0,6.0,1
1725104073,18.5634233,73.8332167,515.3,24.758415841584156,101,29.752475247524753,154.76237623762376,7.0,-88.0,6.0,1
1725104074,18.5634233,73.8332167,515.3,24.856435643564357,101,29.73267326732673,154.74257425742573,7.0,-88.0,6.0,1
1725104075,18.5634233,73.8332167,515.3,24.787128712871286,101,29.73267326732673,154.72277227722773,6.0,-88.0,6.0,1
1725104076,18.5634233,73.8332167,515.3,24.729702970297026,101,29.722772277227723,154.73267326732673,6.0,-88.0,6.0,1
1725104077,18.5634233,73.8332167,515.3,24.66039603960396,101,29.722772277227723,154.73267326732673,7.0,-88.0,7.0,1
1725104078,18.5634233,73.8332167,515.3,24.639603960396038,101,29.722772277227723,154.73267326732673,7.0,-88.0,7.0,1
1725104079,18.5634233,73.8332167,515.3,24.822,100,29.93,155.35,6.0,-88.0,6.0,1
1725104080,18.5634233,73.8332167,515.3,24.846999999999998,100,29.91,155.37,7.0,-88.0,6.0,1
1725104081,18.5634233,73.8332167,515.3,25.018,100,29.91,155.37,7.0,-88.0,6.0,1
1725104082,18.5634233,73.8332167,515.3,24.94,100,29.91,155.37,7.0,-88.0,6.0,1
1725104083,18.5634233,73.8332167,515.3,24.773000000000003,100,31.22,158.99,6.0,-88.0,6.0,1
1725104084,18.5634233,73.8332167,515.3,24.904,100,31.22,158.99,7.0,-88.0,6.0,1
1725104085,18.5634233,73.8332167,515.3,24.825,100,31.22,158.99,7.0,-88.0,6.0,1
1725104086,18.5634233,73.8332167,515.3,24.77128712871287,101,31.198019801980198,159.87128712871288,7.0,-88.0,6.0,1
1725104087,18.5634233,73.8332167,515.3,24.94950495049505,101,31.198019801980198,159.87128712871288,7.0,-88.0,7.0,1
1725104088,18.5634233,73.8332167,515.3,24.60891089108911,101,31.198019801980198,159.87128712871288,6.0,-88.0,6.0,1
1725104089,18.5634233,73.8332167,515.3,24.666336633663366,101,31.198019801980198,159.87128712871288,6.0,-88.0,6.0,1
1725104090,18.5634233,73.8332167,515.3,24.657425742574258,101,31.198019801980198,159.87128712871288,6.0,-88.0,6.0,1
1725104091,18.5634233,73.8332167,515.3,24.723762376237623,101,31.217821782178216,159.8910891089109,6.0,-88.0,6.0,1
1725104092,18.5634233,73.8332167,515.3,24.765346534653467,101,31.217821782178216,159.8910891089109,6.0,-88.0,6.0,1
1725104093,18.5634233,73.8332167,515.3,24.72871287128713,101,31.07920792079208,159.85148514851485,6.0,-88.0,6.0,1
1725104094,18.5634233,73.8332167,515.3,24.748514851485147,101,31.07920792079208,159.85148514851485,7.0,-88.0,7.0,1
1725104095,18.5634233,73.8332167,515.3,24.735643564356437,101,31.07920792079208,159.85148514851485,7.0,-88.0,7.0,1
1725104096,18.5634233,73.8332167,515.3,24.759405940594057,101,31.07920792079208,159.86138613861385,7.0,-88.0,6.0,1
1725104097,18.5634233,73.8332167,515.3,25.004950495049506,101,31.07920792079208,159.84158415841586,7.0,-88.0,6.0,1
1725104098,18.5634233,73.8332167,515.3,25.153465346534652,101,31.07920792079208,159.82178217821783,7.0,-88.0,6.0,1
1725104099,18.5634233,73.8332167,515.3,24.9029702970297,101,31.059405940594058,159.8019801980198,6.0,-88.0,6.0,1
1725104100,18.5634233,73.8332167,515.3,24.860396039603962,101,31.059405940594058,159.8019801980198,6.0,-88.0,6.0,1
