timestamp,latitude,longitude,altitude,mean_snr,sat_count,mean_elevation,roll,pitch,yaw,is_inclined
1724165744,18.5632058,73.8329607,420.20000000000005,,0,,-2.0,-77.0,170.0,0
1724165743,18.5631346,73.8329067,419.20000000000005,,0,,,,,0
1724165745,18.5632257,73.832976,420.20000000000005,17.119767441860464,86,34.395348837209305,-2.0,-77.0,170.0,0
1724165746,18.5632312,73.8329802,420.20000000000005,17.1453488372093,86,34.395348837209305,-2.0,-77.0,170.0,0
1724165747,18.5632507,73.8329898,419.9,18.795348837209303,86,34.395348837209305,-2.0,-77.0,170.0,0
1724165748,18.5632719,73.833043,419.9,18.47093023255814,86,34.395348837209305,-2.0,-77.0,171.0,0
1724165749,18.5632779,73.833058,419.9,19.45632183908046,87,34.40229885057471,-2.0,-77.0,171.0,0
1724165750,18.5632795,73.8330621,419.9,19.89659090909091,88,34.69318181818182,-2.0,-77.0,171.0,0
1724165751,18.5632799,73.8330633,419.9,20.186363636363637,88,34.69318181818182,-2.0,-77.0,171.0,0
1724165752,18.56328,73.8330635,419.9,20.25340909090909,88,34.0,-2.0,-77.0,171.0,0
1724165753,18.56328,73.8330634,419.9,20.120224719101124,89,34.31460674157304,-2.0,-77.0,171.0,0
1724165754,18.5632932,73.833168,419.79999999999995,21.086516853932586,89,34.31460674157304,-2.0,-77.0,170.0,0
1724165755,18.5632969,73.8331972,419.79999999999995,21.09120879120879,91,34.35164835164835,-2.0,-77.0,170.0,0
1724165756,18.5632979,73.8332052,419.79999999999995,21.25054945054945,91,34.35164835164835,-2.0,-77.0,170.0,0
1724165757,18.5632898,73.8332099,419.79999999999995,20.59565217391304,92,34.59782608695652,-2.0,-77.0,170.0,0
1724165758,18.5632876,73.8332112,419.79999999999995,21.236263736263737,91,33.94505494505494,-2.0,-77.0,170.0,0
1724165759,18.5632869,73.8332116,419.79999999999995,21.128260869565217,92,34.19565217391305,-2.0,-77.0,171.0,0
1724165760,18.5632868,73.8332117,419.79999999999995,21.541304347826088,92,34.19565217391305,-2.0,-77.0,171.0,0
1724165761,18.5632867,73.8332117,419.79999999999995,21.755434782608695,92,34.40217391304348,-2.0,-77.0,171.0,0
1724165762,18.5632867,73.8332117,419.79999999999995,21.705434782608698,92,34.40217391304348,-2.0,-77.0,171.0,0
1724165763,18.5632867,73.8332117,419.79999999999995,22.3,91,34.15384615384615,-2.0,-77.0,171.0,0
1724165764,18.5632867,73.8332117,419.79999999999995,22.343333333333334,90,33.888888888888886,-2.0,-77.0,171.0,0
1724165765,18.5632867,73.8332117,419.79999999999995,22.2978021978022,91,34.15384615384615,-2.0,-77.0,171.0,0
1724165766,18.5632867,73.8332117,419.79999999999995,22.20769230769231,91,34.15384615384615,-2.0,-77.0,170.0,0
1724165767,18.5632867,73.8332117,419.79999999999995,22.303296703296702,91,34.16483516483517,-2.0,-77.0,171.0,0
1724165768,18.5632867,73.8332117,419.79999999999995,22.423076923076923,91,34.16483516483517,-2.0,-77.0,171.0,0
1724165769,18.5633107,73.8331612,420.5,22.43010752688172,93,34.1505376344086,-1.0,-75.0,171.0,0
1724165770,18.5633174,73.8331446,420.5,22.244086021505375,93,34.483870967741936,-2.0,-76.0,171.0,0
1724165771,18.5633205,73.8331364,420.5,22.140860215053763,93,34.483870967741936,-2.0,-76.0,170.0,0
1724165772,18.5633214,73.8331318,420.6,22.343010752688173,93,34.483870967741936,-2.0,-75.0,170.0,0
1724165773,18.5633216,73.8331281,420.79999999999995,22.279347826086955,92,34.76086956521739,-2.0,-75.0,170.0,0
1724165774,18.5633217,73.8331271,420.79999999999995,22.742391304347827,92,34.28260869565217,-2.0,-75.0,170.0,0
1724165775,18.5633217,73.8331268,420.79999999999995,22.657608695652176,92,34.28260869565217,-2.0,-75.0,171.0,0
1724165776,18.5633217,73.8331267,420.79999999999995,22.233695652173914,92,34.28260869565217,-5.0,-80.0,166.0,0
1724165777,18.5633217,73.8331267,420.79999999999995,21.93913043478261,92,34.03260869565217,-2.0,-77.0,170.0,0
1724165778,18.5633217,73.8331267,420.79999999999995,22.127956989247313,93,34.29032258064516,-3.0,-77.0,169.0,0
1724165779,18.5633217,73.8331267,420.79999999999995,22.58817204301075,93,33.473118279569896,-3.0,-77.0,170.0,0
1724165780,18.5633217,73.8331267,420.79999999999995,22.326373626373627,91,33.46153846153846,-3.0,-77.0,170.0,0
1724165781,18.5633217,73.8331267,420.79999999999995,22.346153846153847,91,33.45054945054945,-3.0,-77.0,169.0,0
1724165782,18.5633217,73.8331267,420.79999999999995,22.28901098901099,91,33.45054945054945,-3.0,-77.0,169.0,0
1724165783,18.5633217,73.8331267,420.79999999999995,22.371111111111112,90,33.18888888888889,-3.0,-77.0,170.0,0
1724165784,18.5633217,73.8331267,420.79999999999995,22.647777777777776,90,33.18888888888889,-3.0,-77.0,170.0,0
1724165785,18.5633217,73.8331267,420.79999999999995,22.61086956521739,92,33.71739130434783,-3.0,-77.0,170.0,0
1724165786,18.5633217,73.8331267,420.79999999999995,22.63186813186813,91,33.81318681318681,-3.0,-77.0,170.0,0
1724165787,18.5633217,73.8331267,420.79999999999995,22.460869565217394,92,33.68478260869565,-3.0,-77.0,170.0,0
1724165788,18.5633217,73.8331267,420.79999999999995,22.407526881720432,93,33.59139784946237,-3.0,-77.0,170.0,0
1724165789,18.5633217,73.8331267,420.79999999999995,22.587912087912088,91,33.0,-3.0,-77.0,170.0,0
1724165790,18.5633217,73.8331267,420.79999999999995,22.57912087912088,91,33.02197802197802,-3.0,-77.0,170.0,0
1724165791,18.5633217,73.8331267,420.79999999999995,22.44945054945055,91,33.02197802197802,-3.0,-77.0,170.0,0
1724165792,18.5633217,73.8331267,420.79999999999995,22.535483870967745,93,33.26881720430107,-3.0,-77.0,170.0,0
1724165793,18.5633217,73.8331267,420.79999999999995,22.59462365591398,93,33.25806451612903,-3.0,-77.0,170.0,0
1724165794,18.5633217,73.8331267,420.79999999999995,22.426881720430107,93,33.25806451612903,-3.0,-77.0,170.0,0
1724165795,18.5633217,73.8331267,420.79999999999995,22.37956989247312,93,33.25806451612903,-3.0,-77.0,170.0,0
1724165796,18.5633217,73.8331267,420.79999999999995,22.461290322580645,93,33.16129032258065,-3.0,-77.0,169.0,0
1724165797,18.5633217,73.8331267,420.79999999999995,22.366666666666667,93,33.16129032258065,-3.0,-77.0,170.0,0
1724165798,18.5633217,73.8331267,420.79999999999995,22.180645161290325,93,33.16129032258065,-3.0,-77.0,170.0,0
1724165799,18.5633217,73.8331267,420.79999999999995,22.7752688172043,93,33.16129032258065,-3.0,-77.0,170.0,0
1724165800,18.5633217,73.8331267,420.79999999999995,22.82688172043011,93,33.16129032258065,-3.0,-77.0,170.0,0
1724165801,18.5633217,73.8331267,420.79999999999995,22.60851063829787,94,33.638297872340424,-3.0,-77.0,170.0,0
1724165802,18.5633217,73.8331267,420.79999999999995,22.707526881720433,93,33.72043010752688,-3.0,-77.0,170.0,0
1724165803,18.5633217,73.8331267,420.79999999999995,22.327956989247312,93,34.344086021505376,-3.0,-77.0,170.0,0
1724165804,18.5633217,73.8331267,420.79999999999995,22.337634408602153,93,34.344086021505376,-3.0,-77.0,170.0,0
1724165805,18.5633217,73.8331267,420.79999999999995,22.403225806451612,93,34.344086021505376,-3.0,-77.0,170.0,0
1724165806,18.5633217,73.8331267,420.79999999999995,22.370967741935484,93,34.333333333333336,-3.0,-77.0,170.0,0
1724165807,18.5633217,73.8331267,420.79999999999995,22.37311827956989,93,34.956989247311824,-3.0,-77.0,170.0,0
1724165808,18.5633217,73.8331267,420.79999999999995,22.42043010752688,93,34.956989247311824,-3.0,-77.0,170.0,0
1724165809,18.5633217,73.8331267,420.79999999999995,22.48064516129032,93,34.956989247311824,-3.0,-77.0,170.0,0
1724165810,18.5633217,73.8331267,420.79999999999995,22.34731182795699,93,34.763440860215056,-3.0,-77.0,170.0,0
1724165811,18.5633217,73.8331267,420.79999999999995,22.146236559139783,93,34.763440860215056,-3.0,-77.0,170.0,0
1724165812,18.5633217,73.8331267,420.79999999999995,21.949462365591398,93,34.526881720430104,-3.0,-77.0,170.0,0
1724165813,18.5633217,73.8331267,420.79999999999995,20.833333333333332,93,34.526881720430104,-6.0,-83.0,166.0,0
1724165814,18.5633217,73.8331267,420.79999999999995,21.075531914893617,94,34.42553191489362,-170.0,-84.0,0.0,0
1724165815,18.5633217,73.8331267,420.79999999999995,20.77446808510638,94,34.42553191489362,0.0,-81.0,173.0,0
1724165816,18.5633217,73.8331267,420.79999999999995,20.920212765957448,94,34.01063829787234,0.0,-81.0,172.0,0
1724165817,18.5633217,73.8331267,420.79999999999995,21.66063829787234,94,34.01063829787234,-1.0,-81.0,172.0,0
1724165818,18.5633217,73.8331267,420.79999999999995,22.285106382978725,94,34.01063829787234,-1.0,-81.0,172.0,0
1724165819,18.5633217,73.8331267,420.79999999999995,22.359574468085107,94,33.61702127659574,-1.0,-80.0,171.0,0
1724165820,18.5633217,73.8331267,420.79999999999995,22.371276595744682,94,33.61702127659574,-1.0,-80.0,171.0,0
1724165821,18.5633217,73.8331267,420.79999999999995,22.170212765957448,94,33.319148936170215,-1.0,-80.0,171.0,0
1724165822,18.5633217,73.8331267,420.79999999999995,22.309473684210527,95,33.06315789473684,-1.0,-80.0,171.0,0
1724165823,18.5633217,73.8331267,420.79999999999995,22.256842105263157,95,33.06315789473684,-1.0,-80.0,171.0,0
1724165824,18.5633217,73.8331267,420.79999999999995,22.341052631578947,95,33.06315789473684,-1.0,-80.0,171.0,0
1724165825,18.5633217,73.8331267,420.79999999999995,22.426041666666666,96,32.520833333333336,-1.0,-80.0,172.0,0
1724165826,18.5633217,73.8331267,420.79999999999995,22.373684210526317,95,32.76842105263158,-1.0,-80.0,171.0,0
1724165827,18.5633217,73.8331267,420.79999999999995,22.375789473684208,95,32.76842105263158,-1.0,-80.0,171.0,0
1724165828,18.5633217,73.8331267,420.79999999999995,22.3,95,32.65263157894737,-1.0,-80.0,171.0,0
1724165829,18.5633217,73.8331267,420.79999999999995,22.123157894736842,95,32.65263157894737,-1.0,-80.0,171.0,0
1724165830,18.5633217,73.8331267,420.79999999999995,22.448421052631577,95,32.55789473684211,-1.0,-80.0,171.0,0
1724165831,18.5633217,73.8331267,420.79999999999995,22.72947368421053,95,32.55789473684211,-1.0,-80.0,171.0,0
1724165832,18.5633217,73.8331267,420.79999999999995,22.835789473684212,95,32.54736842105263,-1.0,-80.0,171.0,0
1724165833,18.5633217,73.8331267,420.79999999999995,23.08,95,32.54736842105263,-1.0,-80.0,172.0,0
1724165834,18.5633217,73.8331267,420.79999999999995,23.044210526315787,95,32.54736842105263,-1.0,-80.0,171.0,0
1724165835,18.5633217,73.8331267,420.79999999999995,23.05894736842105,95,32.54736842105263,-1.0,-80.0,171.0,0
1724165836,18.5633217,73.8331267,420.79999999999995,23.37263157894737,95,32.54736842105263,-1.0,-80.0,171.0,0
1724165837,18.5633217,73.8331267,420.79999999999995,23.27052631578947,95,32.54736842105263,-1.0,-80.0,171.0,0
1724165838,18.5633217,73.8331267,420.79999999999995,23.27684210526316,95,32.54736842105263,-1.0,-80.0,171.0,0
1724165839,18.5633217,73.8331267,420.79999999999995,23.034736842105264,95,32.54736842105263,-1.0,-80.0,171.0,0
1724165840,18.5633217,73.8331267,420.79999999999995,23.096842105263157,95,32.56842105263158,-1.0,-80.0,171.0,0
1724165841,18.5633217,73.8331267,420.79999999999995,22.969473684210524,95,32.54736842105263,-1.0,-80.0,171.0,0
1724165842,18.5633217,73.8331267,420.79999999999995,22.890625,96,32.302083333333336,-1.0,-80.0,171.0,0
1724165843,18.5633217,73.8331267,420.79999999999995,23.006249999999998,96,32.302083333333336,-1.0,-80.0,171.0,0
1724165844,18.5633217,73.8331267,420.79999999999995,22.675,96,32.302083333333336,-1.0,-80.0,171.0,0
1724165845,18.5633217,73.8331267,420.79999999999995,23.039583333333336,96,32.302083333333336,-1.0,-80.0,171.0,0
1724165846,18.5633217,73.8331267,420.79999999999995,22.805208333333336,96,32.989583333333336,-1.0,-80.0,171.0,0
1724165847,18.5633217,73.8331267,420.79999999999995,22.87708333333333,96,32.989583333333336,-1.0,-80.0,171.0,0
1724165848,18.5633217,73.8331267,420.79999999999995,22.855670103092784,97,33.371134020618555,-1.0,-80.0,171.0,0
1724165849,18.5633217,73.8331267,420.79999999999995,22.8,97,33.391752577319586,-1.0,-80.0,171.0,0
1724165850,18.5633217,73.8331267,420.79999999999995,22.77422680412371,97,33.98969072164948,-1.0,-80.0,171.0,0
1724165851,18.5633217,73.8331267,420.79999999999995,22.936458333333334,96,34.083333333333336,-1.0,-80.0,171.0,0
1724165852,18.5633217,73.8331267,420.79999999999995,23.003125,96,34.083333333333336,-1.0,-80.0,171.0,0
1724165853,18.5633217,73.8331267,420.79999999999995,23.160416666666666,96,34.083333333333336,-1.0,-80.0,171.0,0
1724165854,18.5633217,73.8331267,420.79999999999995,23.086458333333336,96,34.083333333333336,-1.0,-80.0,171.0,0
1724165855,18.5633217,73.8331267,420.79999999999995,23.035416666666666,96,33.895833333333336,-1.0,-80.0,171.0,0
1724165856,18.5633217,73.8331267,420.79999999999995,22.844791666666666,96,33.895833333333336,-1.0,-80.0,171.0,0
1724165857,18.5633217,73.8331267,420.79999999999995,22.813541666666666,96,33.666666666666664,-1.0,-80.0,171.0,0
1724165858,18.5633217,73.8331267,420.79999999999995,22.92105263157895,95,33.410526315789475,-1.0,-80.0,171.0,0
1724165859,18.5633217,73.8331267,420.79999999999995,22.870526315789473,95,33.43157894736842,-1.0,-80.0,171.0,0
1724165860,18.5633217,73.8331267,420.79999999999995,22.99473684210526,95,33.02105263157895,-1.0,-80.0,171.0,0
1724165861,18.5633217,73.8331267,420.79999999999995,22.89375,96,33.28125,-1.0,-80.0,171.0,0
1724165862,18.5633217,73.8331267,420.79999999999995,22.882474226804124,97,33.1958762886598,-1.0,-80.0,171.0,0
1724165863,18.5633217,73.8331267,420.79999999999995,22.86701030927835,97,33.1958762886598,-1.0,-80.0,171.0,0
1724165864,18.5633217,73.8331267,420.79999999999995,22.828865979381444,97,32.81443298969072,-1.0,-80.0,171.0,0
1724165865,18.5633217,73.8331267,420.79999999999995,22.74105263157895,95,32.90526315789474,-1.0,-80.0,171.0,0
1724165866,18.5633217,73.8331267,420.79999999999995,22.788659793814432,97,32.52577319587629,-1.0,-80.0,172.0,0
1724165867,18.5633217,73.8331267,420.79999999999995,23.117525773195876,97,32.51546391752577,0.0,-80.0,172.0,0
1724165868,18.5632569,73.8331219,441.70000000000005,22.6319587628866,97,32.51546391752577,-1.0,-80.0,171.0,0
1724165869,18.5632388,73.8331217,441.9,22.544329896907218,97,33.01030927835052,-1.0,-80.0,171.0,0
1724165870,18.5632337,73.8331217,442.1,22.421649484536083,97,33.01030927835052,0.0,-79.0,173.0,0
1724165871,18.563231,73.8331229,442.5,22.551546391752577,97,33.01030927835052,0.0,-79.0,172.0,0
1724165872,18.5632303,73.8331232,442.5,22.70412371134021,97,33.01030927835052,0.0,-79.0,172.0,0
1724165873,18.5632301,73.8331233,442.5,23.005208333333332,96,33.739583333333336,0.0,-79.0,173.0,0
1724165874,18.56323,73.8331233,442.5,22.913541666666664,96,33.739583333333336,-1.0,-79.0,172.0,0
1724165875,18.56323,73.8331233,442.5,22.986170212765956,94,33.308510638297875,-3.0,-76.0,169.0,0
1724165876,18.56323,73.8331233,442.5,23.4494623655914,93,33.39784946236559,-3.0,-80.0,170.0,0
1724165877,18.56323,73.8331233,442.5,23.28191489361702,94,33.308510638297875,0.0,-78.0,173.0,0
1724165878,18.56323,73.8331233,442.5,23.195789473684208,95,33.4,0.0,-77.0,173.0,0
1724165879,18.56323,73.8331233,442.5,22.957894736842107,95,33.4,0.0,-78.0,173.0,0
1724165880,18.56323,73.8331233,442.5,23.714893617021275,94,33.223404255319146,-3.0,-81.0,170.0,0
1724165881,18.56323,73.8331233,442.5,23.492553191489364,94,33.223404255319146,0.0,-78.0,173.0,0
1724165882,18.56323,73.8331233,442.5,23.72446808510638,94,33.1063829787234,-8.0,-82.0,161.0,0
1724165883,18.56323,73.8331233,442.5,24.26063829787234,94,33.1063829787234,-174.0,-87.0,357.0,0
1724165884,18.56323,73.8331233,442.5,24.193684210526317,95,33.37894736842105,2.0,-79.0,176.0,0
1724165885,18.56323,73.8331233,442.5,24.02,95,33.37894736842105,1.0,-79.0,175.0,0
1724165886,18.56323,73.8331233,442.5,24.037894736842105,95,33.37894736842105,1.0,-80.0,175.0,0
1724165887,18.56323,73.8331233,442.5,23.778125,96,32.979166666666664,1.0,-79.0,174.0,0
1724165888,18.56323,73.8331233,442.5,23.622105263157895,95,33.1578947368421,1.0,-79.0,174.0,0
1724165889,18.56323,73.8331233,442.5,23.71382978723404,94,33.170212765957444,1.0,-79.0,174.0,0
1724165890,18.56323,73.8331233,442.5,24.125806451612902,93,32.903225806451616,1.0,-79.0,174.0,0
1724165891,18.56323,73.8331233,442.5,24.413829787234043,94,32.8936170212766,0.0,-79.0,174.0,0
1724165892,18.56323,73.8331233,442.5,24.298936170212766,94,32.58510638297872,0.0,-79.0,174.0,0
1724165893,18.56323,73.8331233,442.5,24.535416666666666,96,33.03125,0.0,-79.0,174.0,0
1724165894,18.56323,73.8331233,442.5,24.290721649484535,97,32.8041237113402,0.0,-79.0,174.0,0
1724165895,18.56323,73.8331233,442.5,24.24020618556701,97,32.8041237113402,0.0,-79.0,174.0,0
1724165896,18.56323,73.8331233,442.5,24.565625,96,32.541666666666664,0.0,-79.0,174.0,0
1724165897,18.56323,73.8331233,442.5,24.599999999999998,96,32.458333333333336,0.0,-79.0,174.0,0
1724165898,18.56323,73.8331233,442.5,24.6125,96,32.458333333333336,0.0,-79.0,174.0,0
1724165899,18.56323,73.8331233,442.5,24.613541666666666,96,32.4375,0.0,-79.0,174.0,0
1724165900,18.56323,73.8331233,442.5,24.610416666666666,96,32.4375,0.0,-79.0,174.0,0
1724165901,18.56323,73.8331233,442.5,24.599999999999998,96,32.4375,0.0,-79.0,174.0,0
1724165902,18.56323,73.8331233,442.5,24.503125,96,32.239583333333336,0.0,-79.0,174.0,0
1724165903,18.56323,73.8331233,442.5,24.828125,96,32.239583333333336,0.0,-79.0,174.0,0
1724165904,18.56323,73.8331233,442.5,24.528125,96,32.239583333333336,0.0,-79.0,174.0,0
1724165905,18.56323,73.8331233,442.5,24.4875,96,32.145833333333336,0.0,-79.0,174.0,0
1724165906,18.56323,73.8331233,442.5,24.454166666666666,96,32.145833333333336,0.0,-79.0,174.0,0
1724165907,18.56323,73.8331233,442.5,24.56458333333333,96,32.145833333333336,0.0,-79.0,174.0,0
1724165908,18.56323,73.8331233,442.5,24.613541666666666,96,32.145833333333336,0.0,-79.0,174.0,0
1724165909,18.56323,73.8331233,442.5,24.4875,96,32.145833333333336,0.0,-79.0,174.0,0
1724165910,18.56323,73.8331233,442.5,24.148958333333336,96,32.166666666666664,0.0,-79.0,174.0,0
1724165911,18.56323,73.8331233,442.5,24.177083333333332,96,32.166666666666664,0.0,-79.0,174.0,0
1724165912,18.56323,73.8331233,442.5,24.403125,96,32.145833333333336,0.0,-79.0,174.0,0
1724165913,18.56323,73.8331233,442.5,24.503125,96,32.145833333333336,0.0,-79.0,174.0,0
1724165914,18.56323,73.8331233,442.5,24.551041666666666,96,32.135416666666664,0.0,-79.0,174.0,0
1724165915,18.56323,73.8331233,442.5,24.540625000000002,96,32.135416666666664,0.0,-79.0,174.0,0
1724165916,18.56323,73.8331233,442.5,24.38854166666667,96,32.135416666666664,0.0,-79.0,174.0,0
1724165917,18.56323,73.8331233,442.5,24.510416666666668,96,32.822916666666664,0.0,-79.0,174.0,0
1724165918,18.56323,73.8331233,442.5,24.641666666666666,96,32.822916666666664,0.0,-79.0,174.0,0
1724165919,18.56323,73.8331233,442.5,24.210416666666664,96,32.822916666666664,0.0,-79.0,174.0,0
1724165920,18.56323,73.8331233,442.5,24.601052631578945,95,33.526315789473685,0.0,-79.0,174.0,0
1724165921,18.56323,73.8331233,442.5,24.618947368421054,95,33.526315789473685,0.0,-79.0,174.0,0
1724165922,18.56323,73.8331233,442.5,24.70104166666667,96,33.427083333333336,0.0,-79.0,174.0,0
1724165923,18.56323,73.8331233,442.5,24.869791666666668,96,33.427083333333336,0.0,-79.0,174.0,0
1724165924,18.56323,73.8331233,442.5,24.552083333333332,96,33.427083333333336,0.0,-79.0,174.0,0
1724165925,18.56323,73.8331233,442.5,24.742708333333336,96,33.427083333333336,0.0,-79.0,174.0,0
1724165926,18.56323,73.8331233,442.5,24.977083333333336,96,33.427083333333336,0.0,-79.0,174.0,0
1724165927,18.56323,73.8331233,442.5,24.650000000000002,96,33.427083333333336,0.0,-79.0,174.0,0
1724165928,18.56323,73.8331233,442.5,24.631249999999998,96,33.427083333333336,0.0,-79.0,174.0,0
1724165929,18.56323,73.8331233,442.5,24.616666666666664,96,33.416666666666664,0.0,-79.0,174.0,0
1724165930,18.56323,73.8331233,442.5,24.453125,96,33.416666666666664,0.0,-79.0,174.0,0
1724165931,18.56323,73.8331233,442.5,24.444791666666664,96,33.416666666666664,0.0,-79.0,174.0,0
1724165932,18.56323,73.8331233,442.5,24.241666666666664,96,33.40625,0.0,-79.0,174.0,0
1724165933,18.56323,73.8331233,442.5,24.315625,96,33.40625,0.0,-79.0,174.0,0
1724165934,18.56323,73.8331233,442.5,24.414583333333336,96,33.40625,0.0,-79.0,174.0,0
1724165935,18.56323,73.8331233,442.5,24.148958333333336,96,33.447916666666664,0.0,-79.0,174.0,0
1724165936,18.56323,73.8331233,442.5,24.015625,96,33.447916666666664,0.0,-79.0,174.0,0
1724165937,18.56323,73.8331233,442.5,24.15833333333333,96,33.458333333333336,0.0,-79.0,174.0,0
1724165938,18.56323,73.8331233,442.5,24.17395833333333,96,33.375,0.0,-79.0,174.0,0
1724165939,18.56323,73.8331233,442.5,24.04479166666667,96,33.375,0.0,-79.0,174.0,0
1724165940,18.56323,73.8331233,442.5,24.490624999999998,96,33.354166666666664,0.0,-79.0,174.0,0
1724165941,18.56323,73.8331233,442.5,24.62708333333333,96,33.354166666666664,0.0,-79.0,174.0,0
1724165942,18.56323,73.8331233,442.5,24.758333333333336,96,33.354166666666664,0.0,-79.0,174.0,0
1724165943,18.56323,73.8331233,442.5,24.583333333333332,96,33.364583333333336,0.0,-79.0,174.0,0
1724165944,18.56323,73.8331233,442.5,24.882291666666664,96,33.34375,0.0,-79.0,174.0,0
1724165945,18.56323,73.8331233,442.5,24.844791666666666,96,33.34375,0.0,-79.0,174.0,0
1724165946,18.56323,73.8331233,442.5,24.957291666666666,96,33.34375,0.0,-79.0,174.0,0
1724165947,18.56323,73.8331233,442.5,25.014583333333334,96,33.34375,0.0,-79.0,174.0,0
1724165948,18.56323,73.8331233,442.5,24.846875,96,33.229166666666664,0.0,-79.0,174.0,0
1724165949,18.56323,73.8331233,442.5,24.776041666666668,96,33.229166666666664,0.0,-79.0,174.0,0
1724165950,18.56323,73.8331233,442.5,24.766666666666666,96,33.229166666666664,0.0,-79.0,174.0,0
1724165951,18.56323,73.8331233,442.5,24.787499999999998,96,33.229166666666664,0.0,-79.0,174.0,0
1724165952,18.56323,73.8331233,442.5,24.667708333333334,96,33.229166666666664,0.0,-79.0,174.0,0
1724165953,18.56323,73.8331233,442.5,24.791666666666668,96,33.229166666666664,0.0,-79.0,174.0,0
1724165954,18.56323,73.8331233,442.5,24.683157894736844,95,33.578947368421055,0.0,-79.0,174.0,0
1724165955,18.56323,73.8331233,442.5,24.725263157894737,95,33.578947368421055,0.0,-79.0,174.0,0
1724165956,18.56323,73.8331233,442.5,24.496842105263156,95,33.578947368421055,0.0,-79.0,174.0,0
1724165957,18.56323,73.8331233,442.5,24.594736842105263,95,33.34736842105263,0.0,-79.0,174.0,0
1724165958,18.56323,73.8331233,442.5,24.634736842105266,95,33.421052631578945,0.0,-79.0,174.0,0
1724165959,18.56323,73.8331233,442.5,24.51578947368421,95,33.4,0.0,-79.0,174.0,0
1724165960,18.56323,73.8331233,442.5,24.128421052631577,95,33.38947368421053,0.0,-79.0,174.0,0
1724165961,18.56323,73.8331233,442.5,24.47578947368421,95,33.38947368421053,0.0,-79.0,174.0,0
1724165962,18.56323,73.8331233,442.5,24.401052631578946,95,33.38947368421053,0.0,-79.0,174.0,0
1724165963,18.56323,73.8331233,442.5,24.517894736842102,95,33.38947368421053,0.0,-79.0,174.0,0
1724165964,18.56323,73.8331233,442.5,24.385106382978723,94,33.45744680851064,0.0,-79.0,174.0,0
1724165965,18.56323,73.8331233,442.5,24.481052631578944,95,33.410526315789475,0.0,-79.0,174.0,0
1724165966,18.56323,73.8331233,442.5,24.36,95,33.32631578947368,0.0,-79.0,174.0,0
1724165967,18.56323,73.8331233,442.5,24.60421052631579,95,33.32631578947368,0.0,-79.0,174.0,0
1724165968,18.56323,73.8331233,442.5,24.685263157894735,95,33.32631578947368,0.0,-79.0,174.0,0
1724165969,18.56323,73.8331233,442.5,24.52,95,33.32631578947368,0.0,-79.0,174.0,0
1724165970,18.56323,73.8331233,442.5,24.486315789473682,95,33.32631578947368,0.0,-79.0,174.0,0
1724165971,18.56323,73.8331233,442.5,24.44421052631579,95,33.32631578947368,0.0,-79.0,174.0,0
1724165972,18.56323,73.8331233,442.5,24.364210526315787,95,33.32631578947368,0.0,-79.0,174.0,0
1724165973,18.56323,73.8331233,442.5,24.461052631578948,95,33.34736842105263,0.0,-79.0,174.0,0
1724165974,18.56323,73.8331233,442.5,24.48,95,33.34736842105263,0.0,-79.0,174.0,0
1724165975,18.56323,73.8331233,442.5,24.274736842105263,95,33.23157894736842,0.0,-79.0,174.0,0
1724165976,18.56323,73.8331233,442.5,24.63157894736842,95,33.23157894736842,0.0,-79.0,174.0,0
1724165977,18.56323,73.8331233,442.5,24.669473684210526,95,33.23157894736842,0.0,-79.0,174.0,0
1724165978,18.56323,73.8331233,442.5,24.69789473684211,95,33.21052631578947,0.0,-79.0,174.0,0
1724165979,18.56323,73.8331233,442.5,24.777894736842107,95,33.2,0.0,-79.0,174.0,0
1724165980,18.56323,73.8331233,442.5,24.906382978723403,94,33.265957446808514,0.0,-79.0,174.0,0
1724165981,18.56323,73.8331233,442.5,24.99042553191489,94,33.255319148936174,0.0,-79.0,174.0,0
1724165982,18.56323,73.8331233,442.5,24.614736842105263,95,32.48421052631579,0.0,-79.0,174.0,0
1724165983,18.56323,73.8331233,442.5,24.734375,96,32.322916666666664,0.0,-79.0,174.0,0
1724165984,18.56323,73.8331233,442.5,24.867368421052632,95,32.38947368421053,0.0,-79.0,174.0,0
1724165985,18.56323,73.8331233,442.5,24.777659574468085,94,32.734042553191486,0.0,-79.0,174.0,0
1724165986,18.56323,73.8331233,442.5,24.715957446808513,94,32.723404255319146,0.0,-79.0,174.0,0
1724165987,18.56323,73.8331233,442.5,24.695789473684208,95,32.66315789473684,0.0,-79.0,174.0,0
1724165988,18.56323,73.8331233,442.5,24.972631578947368,95,32.66315789473684,0.0,-79.0,174.0,0
1724165989,18.56323,73.8331233,442.5,25.15684210526316,95,32.66315789473684,0.0,-79.0,174.0,0
1724165990,18.56323,73.8331233,442.5,25.133684210526315,95,32.66315789473684,0.0,-79.0,174.0,0
1724165991,18.56323,73.8331233,442.5,25.012631578947367,95,32.66315789473684,0.0,-79.0,174.0,0
1724165992,18.56323,73.8331233,442.5,24.916842105263157,95,32.67368421052632,0.0,-79.0,174.0,0
1724165993,18.56323,73.8331233,442.5,24.563541666666666,96,32.34375,0.0,-79.0,174.0,0
1724165994,18.56323,73.8331233,442.5,24.647916666666664,96,32.34375,0.0,-79.0,174.0,0
1724165995,18.56323,73.8331233,442.5,24.694791666666664,96,32.34375,0.0,-79.0,174.0,0
1724165996,18.56323,73.8331233,442.5,24.765625,96,32.333333333333336,0.0,-79.0,174.0,0
1724165997,18.56323,73.8331233,442.5,24.813541666666666,96,32.322916666666664,0.0,-79.0,174.0,0
1724165998,18.56323,73.8331233,442.5,24.640625,96,32.322916666666664,0.0,-79.0,174.0,0
1724165999,18.56323,73.8331233,442.5,24.696875000000002,96,32.322916666666664,0.0,-79.0,174.0,0
1724166000,18.56323,73.8331233,442.5,24.681250000000002,96,32.322916666666664,0.0,-79.0,174.0,0
1724166001,18.56323,73.8331233,442.5,24.878125,96,32.322916666666664,0.0,-79.0,174.0,0
1724166002,18.56323,73.8331233,442.5,24.777083333333334,96,32.322916666666664,0.0,-79.0,174.0,0
1724166003,18.56323,73.8331233,442.5,24.610416666666666,96,32.322916666666664,0.0,-79.0,174.0,0
1724166004,18.56323,73.8331233,442.5,24.663541666666664,96,32.322916666666664,0.0,-79.0,174.0,0
1724166005,18.56323,73.8331233,442.5,24.754166666666666,96,32.322916666666664,0.0,-79.0,174.0,0
1724166006,18.56323,73.8331233,442.5,24.816666666666666,96,33.010416666666664,0.0,-79.0,174.0,0
1724166007,18.563278,73.833163,492.79999999999995,24.813541666666666,96,33.010416666666664,0.0,-79.0,174.0,0
1724166008,18.5632915,73.8331741,492.69999999999993,24.302083333333332,96,33.0,0.0,-79.0,174.0,0
1724166009,18.563294,73.8331784,493.1,24.28125,96,33.0,0.0,-79.0,174.0,0
1724166010,18.5632947,73.8331795,493.19999999999993,24.434375,96,33.0,0.0,-79.0,174.0,0
1724166011,18.5632949,73.8331799,493.19999999999993,24.884375000000002,96,33.614583333333336,0.0,-79.0,174.0,0
1724166012,18.563295,73.83318,493.19999999999993,25.00842105263158,95,33.68421052631579,0.0,-79.0,174.0,0
1724166013,18.563295,73.83318,493.19999999999993,24.662499999999998,96,33.4375,0.0,-79.0,174.0,0
1724166014,18.563295,73.83318,493.19999999999993,24.54639175257732,97,33.23711340206186,0.0,-79.0,174.0,0
1724166015,18.563295,73.83318,493.19999999999993,24.604123711340204,97,33.154639175257735,0.0,-79.0,174.0,0
1724166016,18.563295,73.83318,493.19999999999993,24.59175257731959,97,33.175257731958766,0.0,-79.0,174.0,0
1724166017,18.563295,73.83318,493.19999999999993,24.63505154639175,97,33.175257731958766,0.0,-79.0,174.0,0
1724166018,18.563295,73.83318,493.19999999999993,24.64020618556701,97,33.175257731958766,0.0,-79.0,174.0,0
1724166019,18.563295,73.83318,493.19999999999993,24.70618556701031,97,33.175257731958766,0.0,-79.0,174.0,0
1724166020,18.563295,73.83318,493.19999999999993,24.51958762886598,97,33.175257731958766,0.0,-79.0,174.0,0
1724166021,18.563295,73.83318,493.19999999999993,24.38556701030928,97,33.07216494845361,0.0,-79.0,174.0,0
1724166022,18.563295,73.83318,493.19999999999993,24.37319587628866,97,33.07216494845361,0.0,-79.0,174.0,0
1724166023,18.563295,73.83318,493.19999999999993,24.556701030927837,97,33.03092783505155,0.0,-79.0,174.0,0
1724166024,18.563295,73.83318,493.19999999999993,24.83917525773196,97,32.91752577319588,0.0,-79.0,174.0,0
1724166025,18.563295,73.83318,493.19999999999993,24.530927835051546,97,32.91752577319588,0.0,-79.0,174.0,0
1724166026,18.563295,73.83318,493.19999999999993,24.554639175257734,97,32.91752577319588,0.0,-79.0,174.0,0
1724166027,18.563295,73.83318,493.19999999999993,24.78333333333333,96,32.979166666666664,0.0,-79.0,174.0,0
1724166028,18.563295,73.83318,493.19999999999993,24.72061855670103,97,32.91752577319588,0.0,-79.0,174.0,0
1724166029,18.563295,73.83318,493.19999999999993,24.50103092783505,97,32.91752577319588,0.0,-79.0,174.0,0
1724166030,18.563295,73.83318,493.19999999999993,24.552577319587627,97,32.628865979381445,0.0,-79.0,174.0,0
1724166031,18.563295,73.83318,493.19999999999993,24.354639175257734,97,32.608247422680414,0.0,-79.0,174.0,0
1724166032,18.563295,73.83318,493.19999999999993,24.389690721649487,97,32.608247422680414,0.0,-79.0,174.0,0
1724166033,18.563295,73.83318,493.19999999999993,24.348958333333332,96,32.395833333333336,0.0,-79.0,174.0,0
1724166034,18.563295,73.83318,493.19999999999993,24.61237113402062,97,32.34020618556701,0.0,-79.0,174.0,0
1724166035,18.563295,73.83318,493.19999999999993,24.61958762886598,97,32.34020618556701,0.0,-79.0,174.0,0
1724166036,18.563295,73.83318,493.19999999999993,24.572164948453608,97,32.34020618556701,0.0,-79.0,174.0,0
1724166037,18.563295,73.83318,493.19999999999993,24.673195876288663,97,32.34020618556701,0.0,-79.0,174.0,0
1724166038,18.563295,73.83318,493.19999999999993,24.573195876288658,97,32.34020618556701,0.0,-79.0,174.0,0
1724166039,18.563295,73.83318,493.19999999999993,24.738144329896905,97,32.824742268041234,0.0,-79.0,174.0,0
1724166040,18.563295,73.83318,493.19999999999993,24.762886597938145,97,32.824742268041234,0.0,-79.0,174.0,0
1724166041,18.563295,73.83318,493.19999999999993,24.79175257731959,97,32.824742268041234,0.0,-79.0,174.0,0
1724166042,18.563295,73.83318,493.19999999999993,24.643298969072166,97,32.81443298969072,0.0,-79.0,174.0,0
1724166043,18.563295,73.83318,493.19999999999993,24.422680412371133,97,32.8041237113402,0.0,-79.0,174.0,0
1724166044,18.563295,73.83318,493.19999999999993,24.438144329896907,97,32.8041237113402,0.0,-79.0,174.0,0
1724166045,18.563295,73.83318,493.19999999999993,24.437113402061858,97,32.8041237113402,0.0,-79.0,174.0,0
1724166046,18.563295,73.83318,493.19999999999993,24.528865979381447,97,32.8041237113402,0.0,-79.0,174.0,0
1724166047,18.563295,73.83318,493.19999999999993,24.688659793814434,97,32.8041237113402,0.0,-79.0,174.0,0
1724166048,18.563295,73.83318,493.19999999999993,24.508247422680416,97,32.7319587628866,0.0,-79.0,174.0,0
1724166049,18.563295,73.83318,493.19999999999993,24.916494845360827,97,32.7319587628866,0.0,-79.0,174.0,0
1724166050,18.563295,73.83318,493.19999999999993,24.68247422680412,97,32.72164948453608,0.0,-79.0,174.0,0
1724166051,18.563295,73.83318,493.19999999999993,24.73645833333333,96,32.96875,0.0,-79.0,174.0,0
1724166052,18.563295,73.83318,493.19999999999993,24.61958762886598,97,33.20618556701031,0.0,-79.0,174.0,0
1724166053,18.563295,73.83318,493.19999999999993,24.64270833333333,96,33.270833333333336,0.0,-79.0,174.0,0
1724166054,18.563295,73.83318,493.19999999999993,24.761458333333334,96,33.270833333333336,0.0,-79.0,174.0,0
1724166055,18.563295,73.83318,493.19999999999993,24.535051546391752,97,33.20618556701031,0.0,-79.0,174.0,0
1724166056,18.563295,73.83318,493.19999999999993,24.572916666666668,96,33.270833333333336,0.0,-79.0,174.0,0
1724166057,18.563295,73.83318,493.19999999999993,24.29381443298969,97,33.09278350515464,0.0,-79.0,174.0,0
1724166058,18.563295,73.83318,493.19999999999993,24.09175257731959,97,33.09278350515464,0.0,-79.0,174.0,0
1724166059,18.563295,73.83318,493.19999999999993,23.827835051546394,97,33.09278350515464,0.0,-79.0,174.0,0
1724166060,18.563295,73.83318,493.19999999999993,23.8680412371134,97,33.08247422680412,0.0,-79.0,174.0,0
1724166061,18.563295,73.83318,493.19999999999993,24.278350515463917,97,33.08247422680412,0.0,-79.0,174.0,0
1724166062,18.563295,73.83318,493.19999999999993,24.149484536082475,97,32.865979381443296,0.0,-79.0,174.0,0
1724166063,18.563295,73.83318,493.19999999999993,24.4340206185567,97,32.865979381443296,0.0,-79.0,174.0,0
1724166064,18.563295,73.83318,493.19999999999993,24.038144329896905,97,32.865979381443296,0.0,-79.0,174.0,0
1724166065,18.563295,73.83318,493.19999999999993,23.93092783505155,97,32.865979381443296,0.0,-79.0,174.0,0
1724166066,18.563295,73.83318,493.19999999999993,24.163917525773197,97,33.04123711340206,0.0,-79.0,174.0,0
1724166067,18.563295,73.83318,493.19999999999993,24.053124999999998,96,33.260416666666664,0.0,-79.0,174.0,0
1724166068,18.563295,73.83318,493.19999999999993,24.14639175257732,97,33.04123711340206,0.0,-79.0,174.0,0
1724166069,18.563295,73.83318,493.19999999999993,24.076288659793814,97,33.04123711340206,0.0,-79.0,174.0,0
1724166070,18.563295,73.83318,493.19999999999993,24.060824742268043,97,33.04123711340206,0.0,-79.0,174.0,0
1724166071,18.563295,73.83318,493.19999999999993,23.969072164948454,97,33.04123711340206,0.0,-79.0,174.0,0
1724166072,18.563295,73.83318,493.19999999999993,24.175257731958762,97,32.649484536082475,0.0,-79.0,174.0,0
1724166073,18.563295,73.83318,493.19999999999993,24.095876288659795,97,32.649484536082475,0.0,-79.0,174.0,0
1724166074,18.563295,73.83318,493.19999999999993,23.75463917525773,97,32.649484536082475,0.0,-79.0,174.0,0
1724166075,18.563295,73.83318,493.19999999999993,23.650515463917525,97,31.938144329896907,0.0,-79.0,174.0,0
1724166076,18.563295,73.83318,493.19999999999993,24.11145833333333,96,31.989583333333332,0.0,-79.0,174.0,0
1724166077,18.563295,73.83318,493.19999999999993,24.141666666666666,96,31.989583333333332,0.0,-79.0,174.0,0
1724166078,18.563295,73.83318,493.19999999999993,24.242268041237114,97,31.938144329896907,0.0,-79.0,174.0,0
1724166079,18.563295,73.83318,493.19999999999993,24.24639175257732,97,31.938144329896907,0.0,-79.0,174.0,0
1724166080,18.563295,73.83318,493.19999999999993,24.23298969072165,97,31.95876288659794,0.0,-79.0,174.0,0
1724166081,18.563295,73.83318,493.19999999999993,24.31237113402062,97,31.97938144329897,0.0,-79.0,174.0,0
1724166082,18.563295,73.83318,493.19999999999993,24.04845360824742,97,31.97938144329897,0.0,-79.0,174.0,0
1724166083,18.563295,73.83318,493.19999999999993,24.171134020618556,97,31.938144329896907,0.0,-79.0,174.0,0
1724166084,18.563295,73.83318,493.19999999999993,24.07010309278351,97,32.0,0.0,-79.0,174.0,0
1724166085,18.563295,73.83318,493.19999999999993,23.98556701030928,97,32.01030927835052,0.0,-79.0,174.0,0
1724166086,18.563295,73.83318,493.19999999999993,24.17938144329897,97,32.03092783505155,0.0,-79.0,174.0,0
1724166087,18.563295,73.83318,493.19999999999993,24.1340206185567,97,32.03092783505155,0.0,-79.0,174.0,0
1724166088,18.563295,73.83318,493.19999999999993,24.285567010309276,97,32.03092783505155,0.0,-79.0,174.0,0
1724166089,18.563295,73.83318,493.19999999999993,24.009278350515466,97,32.03092783505155,0.0,-79.0,174.0,0
1724166090,18.563295,73.83318,493.19999999999993,24.404123711340205,97,32.71134020618557,0.0,-79.0,174.0,0
1724166091,18.563295,73.83318,493.19999999999993,24.397938144329895,97,32.71134020618557,0.0,-79.0,174.0,0
1724166092,18.563295,73.83318,493.19999999999993,24.296907216494848,97,32.71134020618557,0.0,-79.0,174.0,0
1724166093,18.563295,73.83318,493.19999999999993,24.256701030927836,97,33.31958762886598,0.0,-79.0,174.0,0
1724166094,18.563295,73.83318,493.19999999999993,24.27422680412371,97,33.31958762886598,0.0,-79.0,174.0,0
1724166095,18.563295,73.83318,493.19999999999993,24.29175257731959,97,33.31958762886598,0.0,-79.0,174.0,0
1724166096,18.563295,73.83318,493.19999999999993,24.148453608247422,97,33.31958762886598,0.0,-79.0,174.0,0
1724166097,18.563295,73.83318,493.19999999999993,24.239583333333332,96,33.385416666666664,0.0,-79.0,174.0,0
1724166098,18.563295,73.83318,493.19999999999993,23.852083333333336,96,33.385416666666664,0.0,-79.0,174.0,0
1724166099,18.563295,73.83318,493.19999999999993,24.109375,96,33.302083333333336,0.0,-79.0,174.0,0
1724166100,18.563295,73.83318,493.19999999999993,24.10618556701031,97,33.23711340206186,0.0,-79.0,174.0,0
1724166101,18.563295,73.83318,493.19999999999993,24.029896907216497,97,33.23711340206186,0.0,-79.0,174.0,0
1724166102,18.563295,73.83318,493.19999999999993,23.904123711340205,97,33.144329896907216,0.0,-79.0,174.0,0
1724166103,18.563295,73.83318,493.19999999999993,24.62680412371134,97,33.144329896907216,0.0,-79.0,174.0,0
1724166104,18.563295,73.83318,493.19999999999993,24.594845360824742,97,33.144329896907216,0.0,-79.0,174.0,0
1724166105,18.563295,73.83318,493.19999999999993,24.448453608247423,97,33.144329896907216,0.0,-79.0,174.0,0
1724166106,18.563295,73.83318,493.19999999999993,24.46701030927835,97,33.134020618556704,0.0,-79.0,174.0,0
1724166107,18.563295,73.83318,493.19999999999993,24.455670103092782,97,33.134020618556704,0.0,-79.0,174.0,0
1724166108,18.563295,73.83318,493.19999999999993,24.463917525773194,97,32.91752577319588,0.0,-79.0,174.0,0
1724166109,18.563295,73.83318,493.19999999999993,24.308247422680413,97,32.91752577319588,0.0,-79.0,174.0,0
1724166110,18.563295,73.83318,493.19999999999993,24.431958762886598,97,32.91752577319588,0.0,-79.0,174.0,0
1724166111,18.563295,73.83318,493.19999999999993,24.5020618556701,97,32.8041237113402,0.0,-79.0,174.0,0
1724166112,18.563295,73.83318,493.19999999999993,24.501020408163264,98,32.91836734693877,0.0,-79.0,174.0,0
1724166113,18.563295,73.83318,493.19999999999993,24.462244897959184,98,32.92857142857143,0.0,-79.0,174.0,0
1724166114,18.563295,73.83318,493.19999999999993,24.471428571428568,98,32.93877551020408,0.0,-79.0,174.0,0
1724166115,18.563295,73.83318,493.19999999999993,24.563265306122446,98,32.93877551020408,0.0,-79.0,174.0,0
1724166116,18.563295,73.83318,493.19999999999993,24.516326530612243,98,32.93877551020408,0.0,-79.0,174.0,0
1724166117,18.563295,73.83318,493.19999999999993,24.442857142857143,98,32.56122448979592,0.0,-79.0,174.0,0
1724166118,18.563295,73.83318,493.19999999999993,24.341836734693878,98,32.56122448979592,0.0,-79.0,174.0,0
1724166119,18.563295,73.83318,493.19999999999993,24.21958762886598,97,32.63917525773196,0.0,-79.0,174.0,0
1724166120,18.563295,73.83318,493.19999999999993,23.95714285714286,98,32.57142857142857,0.0,-79.0,174.0,0
1724166121,18.563295,73.83318,493.19999999999993,23.879591836734694,98,32.57142857142857,0.0,-79.0,174.0,0
1724166122,18.563295,73.83318,493.19999999999993,23.859183673469385,98,31.908163265306122,0.0,-79.0,174.0,0
1724166123,18.563295,73.83318,493.19999999999993,23.836734693877553,98,31.908163265306122,0.0,-79.0,174.0,0
1724166124,18.563295,73.83318,493.19999999999993,23.958163265306123,98,31.897959183673468,0.0,-79.0,174.0,0
1724166125,18.563295,73.83318,493.19999999999993,24.022448979591836,98,31.897959183673468,0.0,-79.0,174.0,0
1724166126,18.563295,73.83318,493.19999999999993,24.227551020408164,98,31.897959183673468,0.0,-79.0,174.0,0
1724166127,18.563295,73.83318,493.19999999999993,24.36530612244898,98,31.897959183673468,0.0,-79.0,174.0,0
1724166128,18.563295,73.83318,493.19999999999993,24.451020408163263,98,31.897959183673468,0.0,-79.0,174.0,0
1724166129,18.563295,73.83318,493.19999999999993,24.636734693877553,98,31.897959183673468,0.0,-79.0,174.0,0
1724166130,18.563295,73.83318,493.19999999999993,24.403061224489797,98,31.897959183673468,0.0,-79.0,174.0,0
1724166131,18.563295,73.83318,493.19999999999993,24.928571428571427,98,31.897959183673468,0.0,-79.0,174.0,0
1724166132,18.563295,73.83318,493.19999999999993,25.060204081632655,98,31.897959183673468,0.0,-79.0,174.0,0
1724166133,18.563295,73.83318,493.19999999999993,24.746938775510202,98,31.897959183673468,0.0,-79.0,174.0,0
1724166134,18.563295,73.83318,493.19999999999993,24.863265306122447,98,31.897959183673468,0.0,-79.0,174.0,0
1724166135,18.563295,73.83318,493.19999999999993,24.841836734693878,98,31.877551020408163,0.0,-79.0,174.0,0
1724166136,18.563295,73.83318,493.19999999999993,24.659183673469386,98,31.8265306122449,0.0,-79.0,174.0,0
1724166137,18.563295,73.83318,493.19999999999993,24.712371134020618,97,31.876288659793815,0.0,-79.0,174.0,0
1724166138,18.563295,73.83318,493.19999999999993,24.524489795918367,98,31.8265306122449,0.0,-79.0,174.0,0
1724166139,18.563295,73.83318,493.19999999999993,24.555102040816326,98,31.8265306122449,0.0,-79.0,174.0,0
1724166140,18.563295,73.83318,493.19999999999993,24.53061224489796,98,31.8265306122449,0.0,-79.0,174.0,0
1724166141,18.563295,73.83318,493.19999999999993,24.474489795918366,98,31.8265306122449,0.0,-79.0,174.0,0
1724166142,18.563295,73.83318,493.19999999999993,24.540816326530614,98,31.8265306122449,0.0,-79.0,174.0,0
1724166143,18.563295,73.83318,493.19999999999993,24.467346938775513,98,31.785714285714285,0.0,-79.0,174.0,0
1724166144,18.563295,73.83318,493.19999999999993,24.4234693877551,98,31.816326530612244,0.0,-79.0,174.0,0
1724166145,18.563295,73.83318,493.19999999999993,24.48469387755102,98,31.8265306122449,0.0,-79.0,174.0,0
1724166146,18.563295,73.83318,493.19999999999993,24.510204081632654,98,31.836734693877553,0.0,-79.0,174.0,0
1724166147,18.563295,73.83318,493.19999999999993,24.53469387755102,98,31.846938775510203,0.0,-79.0,174.0,0
1724166148,18.563295,73.83318,493.19999999999993,24.509183673469387,98,31.846938775510203,0.0,-79.0,174.0,0
1724166149,18.563295,73.83318,493.19999999999993,24.53469387755102,98,31.867346938775512,0.0,-79.0,174.0,0
1724166150,18.563295,73.83318,493.19999999999993,24.378571428571426,98,31.867346938775512,0.0,-79.0,174.0,0
1724166151,18.563295,73.83318,493.19999999999993,24.347959183673467,98,31.867346938775512,0.0,-79.0,174.0,0
1724166152,18.563295,73.83318,493.19999999999993,24.60408163265306,98,32.55102040816327,0.0,-79.0,174.0,0
1724166153,18.563295,73.83318,493.19999999999993,24.588659793814433,97,33.422680412371136,0.0,-79.0,174.0,0
1724166154,18.563295,73.83318,493.19999999999993,24.65408163265306,98,33.204081632653065,0.0,-79.0,174.0,0
1724166155,18.563295,73.83318,493.19999999999993,24.567346938775508,98,33.183673469387756,0.0,-79.0,174.0,0
1724166156,18.563295,73.83318,493.19999999999993,24.413265306122447,98,33.183673469387756,0.0,-79.0,174.0,0
1724166157,18.563295,73.83318,493.19999999999993,24.48061224489796,98,33.173469387755105,0.0,-79.0,174.0,0
1724166158,18.563295,73.83318,493.19999999999993,24.270408163265305,98,33.16326530612245,0.0,-79.0,174.0,0
1724166159,18.563295,73.83318,493.19999999999993,24.494897959183675,98,33.16326530612245,0.0,-79.0,174.0,0
1724166160,18.563295,73.83318,493.19999999999993,24.377551020408163,98,33.173469387755105,0.0,-79.0,174.0,0
1724166161,18.563295,73.83318,493.19999999999993,24.303061224489795,98,33.10204081632653,0.0,-79.0,174.0,0
1724166162,18.563295,73.83318,493.19999999999993,24.122448979591837,98,33.03061224489796,0.0,-79.0,174.0,0
1724166163,18.563295,73.83318,493.19999999999993,24.112244897959183,98,33.03061224489796,0.0,-79.0,174.0,0
1724166164,18.563295,73.83318,493.19999999999993,24.232653061224493,98,33.03061224489796,0.0,-79.0,174.0,0
1724166165,18.563295,73.83318,493.19999999999993,24.43877551020408,98,33.03061224489796,0.0,-79.0,174.0,0
1724166166,18.563295,73.83318,493.19999999999993,24.328571428571426,98,33.03061224489796,0.0,-79.0,174.0,0
1724166167,18.563295,73.83318,493.19999999999993,24.242857142857144,98,33.03061224489796,0.0,-79.0,174.0,0
1724166168,18.563295,73.83318,493.19999999999993,24.511224489795918,98,33.04081632653061,0.0,-79.0,174.0,0
1724166169,18.563295,73.83318,493.19999999999993,24.54387755102041,98,33.04081632653061,0.0,-79.0,174.0,0
1724166170,18.563295,73.83318,493.19999999999993,24.772448979591836,98,32.91836734693877,0.0,-79.0,174.0,0
1724166171,18.563295,73.83318,493.19999999999993,24.672448979591838,98,32.704081632653065,0.0,-79.0,174.0,0
1724166172,18.563295,73.83318,493.19999999999993,24.83469387755102,98,32.704081632653065,0.0,-79.0,174.0,0
1724166173,18.563295,73.83318,493.19999999999993,24.85816326530612,98,32.704081632653065,0.0,-79.0,174.0,0
1724166174,18.563295,73.83318,493.19999999999993,24.694897959183674,98,32.704081632653065,0.0,-79.0,174.0,0
1724166175,18.563295,73.83318,493.19999999999993,24.678571428571427,98,32.704081632653065,0.0,-79.0,174.0,0
1724166176,18.563295,73.83318,493.19999999999993,24.913265306122447,98,32.704081632653065,0.0,-79.0,174.0,0
1724166177,18.563295,73.83318,493.19999999999993,24.968367346938777,98,32.704081632653065,0.0,-79.0,174.0,0
1724166178,18.563295,73.83318,493.19999999999993,24.917346938775513,98,32.69387755102041,0.0,-79.0,174.0,0
1724166179,18.563295,73.83318,493.19999999999993,25.035714285714285,98,32.683673469387756,0.0,-79.0,174.0,0
1724166180,18.563295,73.83318,493.19999999999993,24.933673469387756,98,33.1530612244898,0.0,-79.0,174.0,0
1724166181,18.563295,73.83318,493.19999999999993,24.882653061224488,98,33.16326530612245,0.0,-79.0,174.0,0
1724166182,18.563295,73.83318,493.19999999999993,24.958163265306123,98,33.16326530612245,0.0,-79.0,174.0,0
1724166183,18.563295,73.83318,493.19999999999993,24.878571428571426,98,33.16326530612245,0.0,-79.0,174.0,0
1724166184,18.563295,73.83318,493.19999999999993,24.814285714285717,98,33.1530612244898,0.0,-79.0,174.0,0
1724166185,18.563295,73.83318,493.19999999999993,24.764948453608245,97,33.21649484536083,0.0,-79.0,174.0,0
1724166186,18.563295,73.83318,493.19999999999993,24.580412371134024,97,33.21649484536083,0.0,-79.0,174.0,0
1724166187,18.563295,73.83318,493.19999999999993,24.56530612244898,98,33.16326530612245,0.0,-79.0,174.0,0
1724166188,18.563295,73.83318,493.19999999999993,24.594845360824742,97,33.36082474226804,0.0,-79.0,174.0,0
1724166189,18.563295,73.83318,493.19999999999993,25.028865979381447,97,33.20618556701031,0.0,-79.0,174.0,0
1724166190,18.563295,73.83318,493.19999999999993,24.790816326530614,98,32.97959183673469,0.0,-79.0,174.0,0
1724166191,18.563295,73.83318,493.19999999999993,24.73775510204082,98,32.97959183673469,0.0,-79.0,174.0,0
1724166192,18.563295,73.83318,493.19999999999993,24.78061224489796,98,32.97959183673469,0.0,-79.0,174.0,0
1724166193,18.563295,73.83318,493.19999999999993,24.922448979591838,98,32.95918367346939,0.0,-79.0,174.0,0
1724166194,18.563295,73.83318,493.19999999999993,24.73775510204082,98,32.95918367346939,0.0,-79.0,174.0,0
1724166195,18.563295,73.83318,493.19999999999993,24.58061224489796,98,32.95918367346939,0.0,-79.0,174.0,0
1724166196,18.563295,73.83318,493.19999999999993,24.721428571428568,98,32.95918367346939,0.0,-79.0,174.0,0
1724166197,18.563295,73.83318,493.19999999999993,24.667346938775513,98,32.95918367346939,0.0,-79.0,174.0,0
1724166198,18.563295,73.83318,493.19999999999993,24.806122448979593,98,32.63265306122449,0.0,-79.0,174.0,0
1724166199,18.563295,73.83318,493.19999999999993,24.812244897959182,98,32.63265306122449,0.0,-79.0,174.0,0
1724166200,18.563295,73.83318,493.19999999999993,24.867346938775512,98,32.62244897959184,0.0,-79.0,174.0,0
1724166201,18.563295,73.83318,493.19999999999993,24.65714285714286,98,32.62244897959184,0.0,-79.0,174.0,0
1724166202,18.563295,73.83318,493.19999999999993,24.61122448979592,98,32.61224489795919,0.0,-79.0,174.0,0
1724166203,18.563295,73.83318,493.19999999999993,24.516326530612243,98,32.57142857142857,0.0,-79.0,174.0,0
1724166204,18.563295,73.83318,493.19999999999993,24.49484536082474,97,32.76288659793814,0.0,-79.0,174.0,0
1724166205,18.563295,73.83318,493.19999999999993,24.697959183673472,98,32.57142857142857,0.0,-79.0,174.0,0
1724166206,18.563295,73.83318,493.19999999999993,24.759183673469387,98,32.58163265306123,0.0,-79.0,174.0,0
1724166207,18.563295,73.83318,493.19999999999993,24.61530612244898,98,32.57142857142857,0.0,-79.0,174.0,0
1724166208,18.563295,73.83318,493.19999999999993,24.677551020408163,98,31.714285714285715,0.0,-79.0,174.0,0
1724166209,18.563295,73.83318,493.19999999999993,24.866326530612245,98,31.724489795918366,0.0,-79.0,174.0,0
1724166210,18.563295,73.83318,493.19999999999993,24.702040816326534,98,31.73469387755102,0.0,-79.0,174.0,0
1724166211,18.563295,73.83318,493.19999999999993,25.01224489795918,98,31.744897959183675,0.0,-79.0,174.0,0
1724166212,18.563295,73.83318,493.19999999999993,24.992857142857144,98,31.744897959183675,0.0,-79.0,174.0,0
1724166213,18.563295,73.83318,493.19999999999993,24.916326530612245,98,31.755102040816325,0.0,-79.0,174.0,0
1724166214,18.563295,73.83318,493.19999999999993,24.686734693877554,98,31.755102040816325,0.0,-79.0,174.0,0
1724166215,18.563295,73.83318,493.19999999999993,24.75,98,31.755102040816325,0.0,-79.0,174.0,0
1724166216,18.563295,73.83318,493.19999999999993,24.670408163265304,98,31.76530612244898,0.0,-79.0,174.0,0
1724166217,18.563295,73.83318,493.19999999999993,24.717346938775513,98,31.76530612244898,0.0,-79.0,174.0,0
1724166218,18.563295,73.83318,493.19999999999993,24.562244897959182,98,31.76530612244898,0.0,-79.0,174.0,0
1724166219,18.563295,73.83318,493.19999999999993,24.289795918367346,98,31.755102040816325,0.0,-79.0,174.0,0
1724166220,18.563295,73.83318,493.19999999999993,24.453061224489797,98,31.755102040816325,0.0,-79.0,174.0,0
1724166221,18.563295,73.83318,493.19999999999993,24.724489795918366,98,31.755102040816325,0.0,-79.0,174.0,0
1724166222,18.563295,73.83318,493.19999999999993,24.372448979591837,98,31.755102040816325,0.0,-79.0,174.0,0
1724166223,18.563295,73.83318,493.19999999999993,24.45,98,31.755102040816325,0.0,-79.0,174.0,0
1724166224,18.563295,73.83318,493.19999999999993,24.544897959183675,98,31.755102040816325,0.0,-79.0,174.0,0
1724166225,18.563295,73.83318,493.19999999999993,24.591836734693878,98,31.755102040816325,0.0,-79.0,174.0,0
1724166226,18.563295,73.83318,493.19999999999993,24.632653061224488,98,33.09183673469388,0.0,-79.0,174.0,0
1724166227,18.563295,73.83318,493.19999999999993,24.582653061224487,98,33.09183673469388,0.0,-79.0,174.0,0
1724166228,18.563295,73.83318,493.19999999999993,24.301020408163264,98,33.09183673469388,0.0,-79.0,174.0,0
1724166229,18.563295,73.83318,493.19999999999993,24.516326530612243,98,33.09183673469388,0.0,-79.0,174.0,0
1724166230,18.563295,73.83318,493.19999999999993,24.514285714285716,98,33.09183673469388,0.0,-79.0,174.0,0
1724166231,18.563295,73.83318,493.19999999999993,24.35,98,33.09183673469388,0.0,-79.0,174.0,0
1724166232,18.563295,73.83318,493.19999999999993,24.386734693877553,98,33.09183673469388,0.0,-79.0,174.0,0
1724166233,18.563295,73.83318,493.19999999999993,24.379591836734694,98,33.09183673469388,0.0,-79.0,174.0,0
1724166234,18.563295,73.83318,493.19999999999993,24.467346938775513,98,33.08163265306123,0.0,-79.0,174.0,0
1724166235,18.563295,73.83318,493.19999999999993,24.671134020618556,97,33.0,0.0,-79.0,174.0,0
1724166236,18.563295,73.83318,493.19999999999993,24.55816326530612,98,32.93877551020408,0.0,-79.0,174.0,0
1724166237,18.563295,73.83318,493.19999999999993,24.442857142857143,98,32.93877551020408,0.0,-79.0,174.0,0
1724166238,18.563295,73.83318,493.19999999999993,24.443877551020407,98,32.93877551020408,0.0,-79.0,174.0,0
1724166239,18.563295,73.83318,493.19999999999993,24.75,98,32.92857142857143,0.0,-79.0,174.0,0
1724166240,18.563295,73.83318,493.19999999999993,24.532653061224487,98,32.92857142857143,0.0,-79.0,174.0,0
1724166241,18.563295,73.83318,493.19999999999993,24.517346938775507,98,32.92857142857143,0.0,-79.0,174.0,0
1724166242,18.563295,73.83318,493.19999999999993,24.378571428571426,98,32.91836734693877,0.0,-79.0,174.0,0
1724166243,18.563295,73.83318,493.19999999999993,24.494897959183675,98,32.90816326530612,0.0,-79.0,174.0,0
1724166244,18.563295,73.83318,493.19999999999993,24.416326530612245,98,32.58163265306123,0.0,-79.0,174.0,0
1724166245,18.563295,73.83318,493.19999999999993,24.46530612244898,98,32.58163265306123,0.0,-79.0,174.0,0
1724166246,18.563295,73.83318,493.19999999999993,24.302040816326528,98,32.58163265306123,0.0,-79.0,174.0,0
1724166247,18.563295,73.83318,493.19999999999993,24.33061224489796,98,32.58163265306123,0.0,-79.0,174.0,0
1724166248,18.563295,73.83318,493.19999999999993,23.971428571428568,98,32.58163265306123,0.0,-79.0,174.0,0
1724166249,18.563295,73.83318,493.19999999999993,24.248979591836736,98,32.58163265306123,0.0,-79.0,174.0,0
1724166250,18.563295,73.83318,493.19999999999993,24.081632653061224,98,32.58163265306123,0.0,-79.0,174.0,0
1724166251,18.563295,73.83318,493.19999999999993,24.15463917525773,97,32.618556701030926,0.0,-79.0,174.0,0
1724166252,18.563295,73.83318,493.19999999999993,24.071428571428573,98,32.53061224489796,0.0,-79.0,174.0,0
1724166253,18.563295,73.83318,493.19999999999993,24.133673469387755,98,31.663265306122447,0.0,-79.0,174.0,0
1724166254,18.563295,73.83318,493.19999999999993,24.098979591836734,98,31.663265306122447,0.0,-79.0,174.0,0
1724166255,18.563295,73.83318,493.19999999999993,24.392857142857142,98,31.6734693877551,0.0,-79.0,174.0,0
1724166256,18.563295,73.83318,493.19999999999993,24.082653061224487,98,31.6734693877551,0.0,-79.0,174.0,0
1724166257,18.563295,73.83318,493.19999999999993,24.335714285714285,98,31.714285714285715,0.0,-79.0,174.0,0
1724166258,18.563295,73.83318,493.19999999999993,24.397959183673468,98,31.714285714285715,0.0,-79.0,174.0,0
1724166259,18.563295,73.83318,493.19999999999993,24.59285714285714,98,31.714285714285715,0.0,-79.0,174.0,0
1724166260,18.563295,73.83318,493.19999999999993,24.666326530612245,98,31.714285714285715,0.0,-79.0,174.0,0
1724166261,18.563295,73.83318,493.19999999999993,24.548979591836737,98,31.714285714285715,0.0,-79.0,174.0,0
1724166262,18.563295,73.83318,493.19999999999993,24.520408163265305,98,31.73469387755102,0.0,-79.0,174.0,0
1724166263,18.563295,73.83318,493.19999999999993,24.27755102040816,98,31.683673469387756,0.0,-79.0,174.0,0
1724166264,18.563295,73.83318,493.19999999999993,24.414285714285715,98,31.755102040816325,0.0,-79.0,174.0,0
1724166265,18.563295,73.83318,493.19999999999993,24.455102040816325,98,31.755102040816325,0.0,-79.0,174.0,0
1724166266,18.563295,73.83318,493.19999999999993,24.43469387755102,98,31.755102040816325,0.0,-79.0,174.0,0
1724166267,18.563295,73.83318,493.19999999999993,24.537113402061856,97,31.917525773195877,0.0,-79.0,174.0,0
1724166268,18.563295,73.83318,493.19999999999993,24.556701030927837,97,31.917525773195877,0.0,-79.0,174.0,0
1724166269,18.563295,73.83318,493.19999999999993,24.47216494845361,97,31.917525773195877,0.0,-79.0,174.0,0
1724166270,18.563295,73.83318,493.19999999999993,24.314432989690722,97,31.917525773195877,0.0,-79.0,174.0,0
1724166271,18.563295,73.83318,493.19999999999993,24.456701030927835,97,31.917525773195877,0.0,-79.0,174.0,0
1724166272,18.563295,73.83318,493.19999999999993,24.77422680412371,97,31.917525773195877,0.0,-79.0,174.0,0
1724166273,18.563295,73.83318,493.19999999999993,24.65567010309278,97,31.917525773195877,0.0,-79.0,174.0,0
1724166274,18.563295,73.83318,493.19999999999993,24.584536082474227,97,31.917525773195877,0.0,-79.0,174.0,0
1724166275,18.563295,73.83318,493.19999999999993,24.390721649484536,97,31.896907216494846,0.0,-79.0,174.0,0
1724166276,18.563295,73.83318,493.19999999999993,24.594845360824742,97,31.896907216494846,0.0,-79.0,174.0,0
1724166277,18.563295,73.83318,493.19999999999993,24.57113402061856,97,31.896907216494846,0.0,-79.0,174.0,0
1724166278,18.563295,73.83318,493.19999999999993,24.56494845360825,97,31.896907216494846,0.0,-79.0,174.0,0
1724166279,18.563295,73.83318,493.19999999999993,24.362886597938143,97,31.896907216494846,0.0,-79.0,174.0,0
1724166280,18.563295,73.83318,493.19999999999993,24.403092783505155,97,31.896907216494846,0.0,-79.0,174.0,0
1724166281,18.563295,73.83318,493.19999999999993,24.427835051546392,97,31.896907216494846,0.0,-79.0,174.0,0
1724166282,18.563295,73.83318,493.19999999999993,24.625773195876288,97,31.88659793814433,0.0,-79.0,174.0,0
1724166283,18.563295,73.83318,493.19999999999993,24.390721649484536,97,32.56701030927835,0.0,-79.0,174.0,0
1724166284,18.563295,73.83318,493.19999999999993,24.482474226804126,97,32.55670103092783,0.0,-79.0,174.0,0
1724166285,18.563295,73.83318,493.19999999999993,24.354639175257734,97,32.55670103092783,0.0,-79.0,174.0,0
1724166286,18.563295,73.83318,493.19999999999993,24.269072164948454,97,32.55670103092783,0.0,-79.0,174.0,0
1724166287,18.563295,73.83318,493.19999999999993,24.349484536082475,97,32.55670103092783,0.0,-79.0,174.0,0
1724166288,18.563295,73.83318,493.19999999999993,24.54226804123711,97,32.55670103092783,0.0,-79.0,174.0,0
1724166289,18.563295,73.83318,493.19999999999993,24.47422680412371,97,33.22680412371134,0.0,-79.0,174.0,0
1724166290,18.563295,73.83318,493.19999999999993,24.490721649484534,97,33.23711340206186,0.0,-79.0,174.0,0
1724166291,18.563295,73.83318,493.19999999999993,24.289690721649485,97,33.23711340206186,0.0,-79.0,174.0,0
1724166292,18.563295,73.83318,493.19999999999993,24.54639175257732,97,33.144329896907216,0.0,-79.0,174.0,0
1724166293,18.563295,73.83318,493.19999999999993,24.669072164948453,97,33.144329896907216,0.0,-79.0,174.0,0
1724166294,18.563295,73.83318,493.19999999999993,24.484536082474225,97,33.144329896907216,0.0,-79.0,174.0,0
1724166295,18.563295,73.83318,493.19999999999993,24.524742268041237,97,33.16494845360825,0.0,-79.0,174.0,0
1724166296,18.563295,73.83318,493.19999999999993,24.43505154639175,97,33.154639175257735,0.0,-79.0,174.0,0
1724166297,18.563295,73.83318,493.19999999999993,24.543298969072165,97,33.154639175257735,0.0,-79.0,174.0,0
1724166298,18.563295,73.83318,493.19999999999993,24.674226804123712,97,33.154639175257735,0.0,-79.0,174.0,0
1724166299,18.563295,73.83318,493.19999999999993,24.47216494845361,97,33.08247422680412,0.0,-79.0,174.0,0
1724166300,18.563295,73.83318,493.19999999999993,24.471134020618553,97,33.07216494845361,0.0,-79.0,174.0,0
1724166301,18.563295,73.83318,493.19999999999993,24.442268041237114,97,32.95876288659794,0.0,-79.0,174.0,0
1724166302,18.563295,73.83318,493.19999999999993,24.37319587628866,97,32.95876288659794,0.0,-79.0,174.0,0
1724166303,18.563295,73.83318,493.19999999999993,24.484536082474225,97,32.95876288659794,0.0,-79.0,174.0,0
1724166304,18.563295,73.83318,493.19999999999993,24.400000000000002,96,33.020833333333336,0.0,-79.0,174.0,0
1724166305,18.563295,73.83318,493.19999999999993,24.215625,96,33.020833333333336,0.0,-79.0,174.0,0
1724166306,18.563295,73.83318,493.19999999999993,24.104123711340204,97,32.95876288659794,0.0,-79.0,174.0,0
1724166307,18.563295,73.83318,493.19999999999993,24.157731958762888,97,32.95876288659794,0.0,-79.0,174.0,0
1724166308,18.563295,73.83318,493.19999999999993,24.15567010309278,97,32.74226804123711,0.0,-79.0,174.0,0
1724166309,18.563295,73.83318,493.19999999999993,24.37319587628866,97,32.74226804123711,0.0,-79.0,174.0,0
1724166310,18.563295,73.83318,493.19999999999993,24.347422680412368,97,32.92783505154639,0.0,-79.0,174.0,0
1724166311,18.563295,73.83318,493.19999999999993,24.45263157894737,95,33.01052631578948,0.0,-79.0,174.0,0
1724166312,18.563295,73.83318,493.19999999999993,24.593684210526316,95,32.97894736842105,0.0,-79.0,174.0,0
1724166313,18.563295,73.83318,493.19999999999993,24.568421052631578,95,32.97894736842105,0.0,-79.0,174.0,0
1724166314,18.563295,73.83318,493.19999999999993,24.801052631578948,95,32.97894736842105,0.0,-79.0,174.0,0
1724166315,18.563295,73.83318,493.19999999999993,24.66105263157895,95,32.97894736842105,0.0,-79.0,174.0,0
1724166316,18.563295,73.83318,493.19999999999993,24.406315789473684,95,32.97894736842105,0.0,-79.0,174.0,0
1724166317,18.563295,73.83318,493.19999999999993,24.146315789473686,95,33.294736842105266,0.0,-79.0,174.0,0
1724166318,18.563295,73.83318,493.19999999999993,24.050526315789476,95,33.294736842105266,0.0,-79.0,174.0,0
1724166319,18.563295,73.83318,493.19999999999993,24.086458333333336,96,33.15625,0.0,-79.0,174.0,0
1724166320,18.563295,73.83318,493.19999999999993,24.148421052631576,95,33.22105263157895,0.0,-79.0,174.0,0
1724166321,18.563295,73.83318,493.19999999999993,24.09578947368421,95,33.22105263157895,0.0,-79.0,174.0,0
