timestamp,latitude,longitude,altitude,mean_snr,sat_count,mean_elevation,mean_azimuth,roll,pitch,yaw,is_inclined
1724394805,18.5632133,73.8332394,474.9,,0,,,8.0,-85.0,195.0,0
1724394804,18.563213,73.8332449,474.9,,0,,,,,,0
1724394806,18.5632064,73.833233,474.9,25.48076923076923,78,36.37179487179487,160.0897435897436,2.0,-85.0,189.0,0
1724394807,18.5632025,73.8332263,474.9,25.610256410256408,78,36.37179487179487,160.0897435897436,6.0,-85.0,192.0,0
1724394808,18.563199,73.8332237,474.9,25.416455696202533,79,35.46835443037975,161.21518987341773,6.0,-85.0,193.0,0
1724394809,18.5631985,73.8332204,474.79999999999995,25.05,80,35.0875,160.1125,4.0,-85.0,191.0,0
1724394810,18.5631908,73.8332143,474.79999999999995,25.426829268292682,82,34.80487804878049,161.3170731707317,0.0,-84.0,186.0,0
1724394811,18.563197,73.8332077,474.79999999999995,25.238095238095237,84,34.82142857142857,161.77380952380952,5.0,-85.0,192.0,0
1724394812,18.5632002,73.8332061,474.79999999999995,25.150000000000002,86,35.31395348837209,163.1860465116279,5.0,-85.0,192.0,0
1724394813,18.5632038,73.8332061,474.9,25.754651162790697,86,35.31395348837209,163.2093023255814,1.0,-84.0,188.0,0
1724394814,18.563213,73.8332021,474.79999999999995,25.366666666666667,87,35.2183908045977,162.10344827586206,3.0,-85.0,190.0,0
1724394815,18.563223,73.8332003,474.9,25.39310344827586,87,35.2183908045977,162.10344827586206,5.0,-84.0,191.0,0
1724394816,18.5632344,73.8331985,474.9,,0,,,4.0,-85.0,191.0,0
1724394817,18.5632379,73.8331975,474.9,25.200574712643675,174,34.89655172413793,162.32183908045977,4.0,-85.0,191.0,0
1724394818,18.5632359,73.8331882,474.9,25.304651162790694,86,34.53488372093023,158.6860465116279,4.0,-85.0,191.0,0
1724394819,18.5632349,73.8331794,474.9,25.154022988505748,87,34.51724137931034,160.183908045977,4.0,-85.0,191.0,0
1724394820,18.5632348,73.8331789,474.9,25.349425287356322,87,34.51724137931034,160.183908045977,5.0,-85.0,192.0,0
1724394821,18.563242,73.8331632,474.9,25.44712643678161,87,34.51724137931034,160.183908045977,9.0,-84.0,195.0,0
1724394822,18.5632487,73.8331592,474.9,25.830681818181816,88,34.40909090909091,159.4431818181818,8.0,-85.0,195.0,0
1724394823,18.5632568,73.8331586,474.9,25.530681818181815,88,34.40909090909091,159.4431818181818,4.0,-85.0,191.0,0
1724394824,18.5632623,73.8331655,474.9,25.272727272727273,88,34.40909090909091,159.4431818181818,6.0,-85.0,193.0,0
1724394825,18.5632647,73.8331721,474.9,25.013483146067415,89,34.662921348314605,159.01123595505618,5.0,-85.0,192.0,0
1724394826,18.563265,73.8331732,474.9,24.164044943820222,89,34.842696629213485,157.82022471910113,5.0,-85.0,192.0,0
1724394827,18.5632875,73.8332001,475.0,24.44157303370787,89,36.03370786516854,159.9438202247191,5.0,-84.0,192.0,0
1724394828,18.5632995,73.8332128,475.0,24.342222222222226,90,35.75555555555555,160.0888888888889,5.0,-85.0,192.0,0
1724394829,18.5633069,73.8332174,475.19999999999993,23.939999999999998,90,35.75555555555555,160.0888888888889,5.0,-85.0,192.0,0
1724394830,18.5633109,73.8332182,475.4,24.675555555555558,90,35.75555555555555,160.0888888888889,6.0,-85.0,193.0,0
1724394831,18.5633116,73.8332183,475.4,24.92888888888889,90,35.75555555555555,160.1,9.0,-85.0,196.0,0
1724394832,18.5633117,73.8332183,475.4,25.17,90,35.75555555555555,160.1,8.0,-85.0,194.0,0
1724394833,18.5633117,73.8332183,475.4,24.244444444444444,90,35.75555555555555,160.1,4.0,-85.0,190.0,0
1724394834,18.5633117,73.8332183,475.4,24.804444444444446,90,35.577777777777776,160.46666666666667,3.0,-84.0,190.0,0
1724394835,18.5633117,73.8332183,475.4,24.97222222222222,90,35.577777777777776,160.46666666666667,9.0,-84.0,195.0,0
1724394836,18.5633117,73.8332183,475.4,25.249438202247187,89,34.87640449438202,161.4943820224719,4.0,-85.0,191.0,0
1724394837,18.5633117,73.8332183,475.4,25.17888888888889,90,34.855555555555554,162.9,4.0,-85.0,191.0,0
1724394838,18.5633117,73.8332183,475.4,25.346666666666664,90,34.855555555555554,162.9,5.0,-85.0,193.0,0
1724394839,18.5633117,73.8332183,475.4,25.56179775280899,89,34.943820224719104,163.97752808988764,8.0,-86.0,195.0,0
1724394840,18.5633117,73.8332183,475.4,25.220454545454547,88,35.04545454545455,164.73863636363637,6.0,-85.0,193.0,0
1724394841,18.5633117,73.8332183,475.4,25.358426966292136,89,34.943820224719104,163.97752808988764,5.0,-85.0,192.0,0
1724394842,18.5633117,73.8332183,475.4,25.251685393258427,89,34.943820224719104,163.97752808988764,5.0,-85.0,192.0,0
1724394843,18.5633117,73.8332183,475.4,25.642045454545453,88,34.34090909090909,164.9659090909091,-1.0,-83.0,185.0,0
1724394844,18.5633117,73.8332183,475.4,25.393181818181816,88,34.31818181818182,164.9659090909091,0.0,-50.0,185.0,0
1724394845,18.5633117,73.8332183,475.4,25.248314606741573,89,34.58426966292135,164.2134831460674,1.0,-49.0,184.0,0
1724394846,18.5633117,73.8332183,475.4,24.955555555555556,90,34.233333333333334,161.3,1.0,-49.0,184.0,0
1724394847,18.5633117,73.8332183,475.4,25.186813186813186,91,34.15384615384615,160.26373626373626,0.0,-49.0,184.0,0
1724394848,18.5633117,73.8332183,475.4,25.471910112359552,89,33.8876404494382,159.8876404494382,0.0,-49.0,184.0,0
1724394849,18.5633117,73.8332183,475.4,25.772527472527475,91,34.15384615384615,160.26373626373626,0.0,-49.0,184.0,0
1724394850,18.5633117,73.8332183,475.4,26.16333333333333,90,34.166666666666664,158.84444444444443,0.0,-49.0,184.0,0
1724394851,18.5633117,73.8332183,475.4,26.171111111111113,90,34.24444444444445,160.96666666666667,0.0,-49.0,184.0,0
1724394852,18.5633117,73.8332183,475.4,26.52417582417582,91,33.934065934065934,157.3846153846154,0.0,-49.0,184.0,0
1724394853,18.5633117,73.8332183,475.4,26.595555555555556,90,34.022222222222226,158.05555555555554,0.0,-49.0,184.0,0
1724394854,18.5633117,73.8332183,475.4,26.083333333333332,90,34.022222222222226,158.05555555555554,0.0,-49.0,184.0,0
1724394855,18.5633117,73.8332183,475.4,25.82696629213483,89,33.651685393258425,159.68539325842696,0.0,-49.0,184.0,0
1724394856,18.5633117,73.8332183,475.4,26.006741573033707,89,33.42696629213483,157.5505617977528,0.0,-49.0,184.0,0
1724394857,18.5633117,73.8332183,475.4,26.035955056179773,89,33.42696629213483,157.5505617977528,0.0,-49.0,184.0,0
1724394858,18.5633117,73.8332183,475.4,26.028089887640448,89,33.42696629213483,157.5505617977528,0.0,-49.0,184.0,0
1724394859,18.5633117,73.8332183,475.4,26.18426966292135,89,33.42696629213483,157.5505617977528,0.0,-49.0,184.0,0
1724394860,18.5633117,73.8332183,475.4,26.030337078651684,89,33.42696629213483,157.5505617977528,0.0,-49.0,184.0,0
1724394861,18.5633117,73.8332183,475.4,26.1123595505618,89,33.42696629213483,157.5505617977528,0.0,-49.0,184.0,0
1724394862,18.5633117,73.8332183,475.4,25.912359550561796,89,34.168539325842694,159.91011235955057,0.0,-49.0,184.0,0
1724394863,18.5633117,73.8332183,475.4,26.193258426966292,89,34.168539325842694,159.91011235955057,0.0,-49.0,184.0,0
1724394864,18.5633117,73.8332183,475.4,26.35,88,33.80681818181818,158.8068181818182,1.0,-49.0,184.0,0
1724394865,18.5633117,73.8332183,475.4,26.336363636363636,88,34.54545454545455,160.5340909090909,0.0,-50.0,184.0,0
1724394866,18.5633117,73.8332183,475.4,26.244318181818183,88,34.54545454545455,160.5340909090909,0.0,-49.0,184.0,0
1724394867,18.5633117,73.8332183,475.4,26.002272727272725,88,34.54545454545455,160.5340909090909,0.0,-49.0,184.0,0
1724394868,18.5633117,73.8332183,475.4,26.141573033707864,89,34.89887640449438,161.61797752808988,0.0,-49.0,184.0,0
1724394869,18.5633117,73.8332183,475.4,26.039772727272727,88,35.13636363636363,163.6818181818182,0.0,-49.0,184.0,0
1724394870,18.5633117,73.8332183,475.4,26.47752808988764,89,35.561797752808985,164.1685393258427,0.0,-49.0,184.0,0
1724394871,18.5633117,73.8332183,475.4,26.304494382022472,89,35.57303370786517,164.17977528089887,0.0,-49.0,184.0,0
1724394872,18.5633117,73.8332183,475.4,26.578651685393258,89,35.37078651685393,164.5505617977528,0.0,-48.0,184.0,0
1724394873,18.5633117,73.8332183,475.4,26.610112359550563,89,35.37078651685393,164.5505617977528,0.0,-49.0,184.0,0
1724394874,18.5633117,73.8332183,475.4,26.50561797752809,89,35.056179775280896,165.65168539325842,0.0,-49.0,184.0,0
1724394875,18.5633117,73.8332183,475.4,26.637078651685393,89,35.056179775280896,165.65168539325842,0.0,-49.0,184.0,0
1724394876,18.5633117,73.8332183,475.4,26.78314606741573,89,35.056179775280896,165.65168539325842,0.0,-49.0,184.0,0
1724394877,18.5633117,73.8332183,475.4,26.714606741573032,89,35.056179775280896,165.6629213483146,0.0,-49.0,184.0,0
1724394878,18.5633117,73.8332183,475.4,27.214606741573032,89,35.04494382022472,165.67415730337078,0.0,-49.0,184.0,0
1724394879,18.5633117,73.8332183,475.4,27.03370786516854,89,35.04494382022472,165.67415730337078,0.0,-49.0,184.0,0
1724394880,18.5633117,73.8332183,475.4,27.160674157303372,89,35.04494382022472,165.6629213483146,0.0,-49.0,184.0,0
1724394881,18.5633117,73.8332183,475.4,27.063333333333333,90,34.37777777777778,166.7111111111111,0.0,-49.0,184.0,0
1724394882,18.5633117,73.8332183,475.4,27.02857142857143,91,34.285714285714285,165.94505494505495,0.0,-49.0,184.0,0
1724394883,18.5633117,73.8332183,475.4,27.267777777777777,90,34.18888888888889,166.84444444444443,0.0,-49.0,184.0,0
1724394884,18.5633117,73.8332183,475.4,27.324444444444442,90,34.18888888888889,166.84444444444443,0.0,-49.0,184.0,0
1724394885,18.5633117,73.8332183,475.4,27.474444444444444,90,34.18888888888889,166.84444444444443,0.0,-49.0,184.0,0
1724394886,18.5633117,73.8332183,475.4,27.689999999999998,90,34.18888888888889,166.84444444444443,0.0,-49.0,184.0,0
1724394887,18.5633117,73.8332183,475.4,27.187912087912085,91,33.83516483516483,166.78021978021977,0.0,-49.0,184.0,0
1724394888,18.5633117,73.8332183,475.4,27.033333333333335,90,34.18888888888889,166.84444444444443,0.0,-49.0,184.0,0
1724394889,18.5633117,73.8332183,475.4,26.985714285714284,91,33.83516483516483,166.78021978021977,0.0,-49.0,184.0,0
1724394890,18.5633117,73.8332183,475.4,27.06923076923077,91,33.714285714285715,163.98901098901098,0.0,-49.0,184.0,0
1724394891,18.5633117,73.8332183,475.4,26.95054945054945,91,33.7032967032967,163.98901098901098,0.0,-49.0,184.0,0
1724394892,18.5633117,73.8332183,475.4,26.786813186813188,91,32.604395604395606,161.4945054945055,0.0,-49.0,184.0,0
1724394893,18.5633117,73.8332183,475.4,26.94835164835165,91,33.582417582417584,162.16483516483515,0.0,-49.0,184.0,0
1724394894,18.5633117,73.8332183,475.4,26.967032967032967,91,33.582417582417584,162.16483516483515,0.0,-49.0,184.0,0
1724394895,18.5633117,73.8332183,475.4,26.787912087912087,91,33.582417582417584,162.16483516483515,0.0,-49.0,184.0,0
1724394896,18.5633117,73.8332183,475.4,26.89230769230769,91,33.582417582417584,162.16483516483515,0.0,-49.0,184.0,0
1724394897,18.5633117,73.8332183,475.4,26.9010989010989,91,33.582417582417584,162.16483516483515,0.0,-49.0,184.0,0
1724394898,18.5633117,73.8332183,475.4,26.86813186813187,91,33.582417582417584,162.16483516483515,0.0,-49.0,184.0,0
1724394899,18.5633117,73.8332183,475.4,26.97582417582418,91,33.582417582417584,162.16483516483515,0.0,-49.0,184.0,0
1724394900,18.5633117,73.8332183,475.4,27.042857142857144,91,33.46153846153846,161.13186813186815,0.0,-49.0,184.0,0
1724394901,18.5633117,73.8332183,475.4,27.087912087912088,91,33.45054945054945,161.13186813186815,0.0,-49.0,184.0,0
1724394902,18.5633117,73.8332183,475.4,26.846153846153847,91,33.35164835164835,160.07692307692307,0.0,-49.0,184.0,0
1724394903,18.5633117,73.8332183,475.4,26.9978021978022,91,33.362637362637365,160.07692307692307,0.0,-49.0,184.0,0
1724394904,18.5633117,73.8332183,475.4,26.994505494505493,91,33.362637362637365,160.06593406593407,0.0,-49.0,184.0,0
1724394905,18.5633117,73.8332183,475.4,27.0010989010989,91,33.362637362637365,160.04395604395606,0.0,-49.0,184.0,0
1724394906,18.5633117,73.8332183,475.4,26.98681318681319,91,32.7032967032967,157.54945054945054,0.0,-49.0,184.0,0
1724394907,18.5633117,73.8332183,475.4,26.98901098901099,91,32.7032967032967,157.56043956043956,0.0,-49.0,184.0,0
1724394908,18.5633117,73.8332183,475.4,27.025274725274727,91,32.7032967032967,157.57142857142858,0.0,-49.0,184.0,0
1724394909,18.5633117,73.8332183,475.4,27.084615384615383,91,32.7032967032967,157.57142857142858,0.0,-49.0,184.0,0
1724394910,18.5633117,73.8332183,475.4,26.943956043956046,91,32.7032967032967,157.57142857142858,0.0,-49.0,184.0,0
1724394911,18.5633117,73.8332183,475.4,27.03516483516483,91,32.64835164835165,157.72527472527472,0.0,-49.0,184.0,0
1724394912,18.5633117,73.8332183,475.4,27.004395604395604,91,32.68131868131868,157.72527472527472,0.0,-49.0,184.0,0
1724394913,18.5633117,73.8332183,475.4,27.296666666666663,90,32.74444444444445,156.55555555555554,0.0,-49.0,184.0,0
1724394914,18.5633117,73.8332183,475.4,27.355555555555554,90,32.84444444444444,156.54444444444445,0.0,-49.0,184.0,0
1724394915,18.5633117,73.8332183,475.4,27.253333333333334,90,32.96666666666667,156.54444444444445,0.0,-49.0,184.0,0
1724394916,18.5633117,73.8332183,475.4,27.36,90,33.2,156.48888888888888,0.0,-49.0,184.0,0
1724394917,18.5633117,73.8332183,475.4,27.362222222222222,90,33.44444444444444,160.32222222222222,0.0,-49.0,184.0,0
1724394918,18.5633117,73.8332183,475.4,27.354945054945055,91,33.94505494505494,158.06593406593407,0.0,-49.0,184.0,0
1724394919,18.5633117,73.8332183,475.4,27.410989010989013,91,33.89010989010989,157.5054945054945,0.0,-49.0,184.0,0
1724394920,18.5633117,73.8332183,475.4,27.323076923076925,91,33.84615384615385,157.34065934065933,0.0,-49.0,184.0,0
1724394921,18.5633117,73.8332183,475.4,27.290109890109893,91,33.8021978021978,157.28571428571428,0.0,-49.0,184.0,0
1724394922,18.5633117,73.8332183,475.4,27.2978021978022,91,33.78021978021978,157.27472527472528,0.0,-49.0,184.0,0
1724394923,18.5633117,73.8332183,475.4,27.332967032967034,91,33.75824175824176,157.27472527472528,0.0,-49.0,184.0,0
1724394924,18.5633117,73.8332183,475.4,27.23186813186813,91,33.75824175824176,157.28571428571428,0.0,-49.0,184.0,0
1724394925,18.5633117,73.8332183,475.4,27.283516483516486,91,33.747252747252745,157.2967032967033,0.0,-49.0,184.0,0
1724394926,18.5633117,73.8332183,475.4,27.372527472527473,91,33.747252747252745,157.30769230769232,0.0,-49.0,184.0,0
1724394927,18.5633117,73.8332183,475.4,27.295604395604396,91,33.747252747252745,157.35164835164835,0.0,-49.0,184.0,0
1724394928,18.5633117,73.8332183,475.4,27.18901098901099,91,33.72527472527472,157.35164835164835,0.0,-49.0,184.0,0
1724394929,18.5633117,73.8332183,475.4,27.223076923076924,91,33.72527472527472,157.3846153846154,0.0,-49.0,184.0,0
1724394930,18.5633117,73.8332183,475.4,27.274725274725274,91,33.73626373626374,157.4065934065934,0.0,-49.0,184.0,0
1724394931,18.5633117,73.8332183,475.4,27.303260869565218,92,34.17391304347826,161.5108695652174,0.0,-49.0,184.0,0
1724394932,18.5633117,73.8332183,475.4,27.07912087912088,91,34.472527472527474,159.8021978021978,0.0,-49.0,184.0,0
1724394933,18.5633117,73.8332183,475.4,26.520879120879123,91,35.20879120879121,161.4835164835165,0.0,-49.0,184.0,0
1724394934,18.5633117,73.8332183,475.4,26.104395604395606,91,35.20879120879121,161.5164835164835,1.0,-49.0,185.0,0
1724394935,18.5633117,73.8332183,475.4,26.036263736263738,91,35.21978021978022,161.54945054945054,0.0,-48.0,184.0,0
1724394936,18.5633117,73.8332183,475.4,26.02747252747253,91,35.21978021978022,161.63736263736263,0.0,-49.0,184.0,0
1724394937,18.5633117,73.8332183,475.4,25.99891304347826,92,35.141304347826086,160.94565217391303,0.0,-49.0,184.0,0
1724394938,18.5633117,73.8332183,475.4,26.056043956043954,91,35.21978021978022,161.6813186813187,1.0,-48.0,185.0,0
1724394939,18.5633117,73.8332183,475.4,25.833695652173912,92,35.119565217391305,161.0,0.0,-49.0,184.0,0
1724394940,18.5633117,73.8332183,475.4,25.76086956521739,92,35.119565217391305,161.0326086956522,0.0,-48.0,184.0,0
1724394941,18.5633117,73.8332183,475.4,25.630434782608695,92,34.92391304347826,161.42391304347825,0.0,-48.0,184.0,0
1724394942,18.5633117,73.8332183,475.4,25.745652173913044,92,33.66304347826087,161.8586956521739,0.0,-49.0,184.0,0
1724394943,18.5633117,73.8332183,475.4,25.346666666666664,90,34.25555555555555,160.12222222222223,0.0,-49.0,184.0,0
1724394944,18.5633117,73.8332183,475.4,25.556666666666665,90,34.7,161.93333333333334,0.0,-48.0,184.0,0
1724394945,18.5633117,73.8332183,475.4,25.34945054945055,91,34.604395604395606,161.25274725274724,0.0,-49.0,184.0,0
1724394946,18.5633117,73.8332183,475.4,25.505494505494507,91,34.59340659340659,161.27472527472528,1.0,-49.0,184.0,0
1724394947,18.5633117,73.8332183,475.4,25.571428571428573,91,34.59340659340659,161.30769230769232,0.0,-48.0,184.0,0
1724394948,18.5633117,73.8332183,475.4,25.81111111111111,90,34.24444444444445,160.26666666666668,0.0,-49.0,184.0,0
1724394949,18.5633117,73.8332183,475.4,25.825555555555557,90,34.233333333333334,160.3,0.0,-49.0,184.0,0
1724394950,18.5633117,73.8332183,475.4,25.86777777777778,90,34.233333333333334,160.32222222222222,0.0,-49.0,184.0,0
1724394951,18.5633117,73.8332183,475.4,25.92222222222222,90,33.93333333333333,161.51111111111112,0.0,-49.0,184.0,0
1724394952,18.5633117,73.8332183,475.4,26.02111111111111,90,33.733333333333334,161.66666666666666,0.0,-49.0,184.0,0
1724394953,18.5633117,73.8332183,475.4,25.717777777777776,90,33.733333333333334,161.6888888888889,0.0,-49.0,184.0,0
1724394954,18.5633117,73.8332183,475.4,25.404444444444444,90,33.72222222222222,161.7,0.0,-49.0,184.0,0
1724394955,18.5633117,73.8332183,475.4,25.665555555555557,90,33.72222222222222,161.72222222222223,0.0,-49.0,184.0,0
1724394956,18.5633117,73.8332183,475.4,25.673333333333332,90,33.71111111111111,161.74444444444444,0.0,-49.0,184.0,0
1724394957,18.5633117,73.8332183,475.4,26.026666666666667,90,33.71111111111111,161.75555555555556,1.0,-49.0,184.0,0
1724394958,18.5633117,73.8332183,475.4,26.246666666666666,90,33.7,161.76666666666668,0.0,-49.0,184.0,0
1724394959,18.5633117,73.8332183,475.4,25.764835164835162,91,34.043956043956044,162.83516483516485,0.0,-48.0,184.0,0
1724394960,18.5633117,73.8332183,475.4,25.84945054945055,91,33.92307692307692,160.05494505494505,0.0,-49.0,184.0,0
1724394961,18.5633117,73.8332183,475.4,25.824444444444442,90,33.87777777777778,158.92222222222222,0.0,-49.0,184.0,0
1724394962,18.5633117,73.8332183,475.4,26.20888888888889,90,33.87777777777778,158.93333333333334,1.0,-49.0,185.0,0
1724394963,18.5633117,73.8332183,475.4,26.72222222222222,90,33.86666666666667,158.94444444444446,0.0,-48.0,184.0,0
1724394964,18.5633117,73.8332183,475.4,26.75111111111111,90,33.86666666666667,158.95555555555555,0.0,-49.0,184.0,0
1724394965,18.5633117,73.8332183,475.4,26.76888888888889,90,33.855555555555554,158.96666666666667,0.0,-49.0,184.0,0
1724394966,18.5633117,73.8332183,475.4,26.746666666666666,90,33.855555555555554,158.9777777777778,0.0,-49.0,184.0,0
1724394967,18.5633117,73.8332183,475.4,26.75,90,33.84444444444444,158.98888888888888,0.0,-49.0,184.0,0
1724394968,18.5633117,73.8332183,475.4,26.854444444444447,90,33.84444444444444,158.98888888888888,0.0,-49.0,184.0,0
1724394969,18.5633117,73.8332183,475.4,27.063333333333333,90,34.44444444444444,160.2888888888889,0.0,-49.0,184.0,0
1724394970,18.5633117,73.8332183,475.4,26.82777777777778,90,35.06666666666667,160.92222222222222,0.0,-49.0,184.0,0
1724394971,18.5633117,73.8332183,475.4,26.917777777777776,90,35.06666666666667,160.93333333333334,0.0,-49.0,184.0,0
1724394972,18.5633117,73.8332183,475.4,27.185555555555553,90,35.05555555555556,160.93333333333334,0.0,-48.0,184.0,0
1724394973,18.5633117,73.8332183,475.4,27.067777777777778,90,35.05555555555556,160.94444444444446,0.0,-48.0,184.0,0
1724394974,18.5633117,73.8332183,475.4,26.77111111111111,90,35.044444444444444,160.94444444444446,0.0,-49.0,184.0,0
1724394975,18.5633117,73.8332183,475.4,26.996666666666666,90,35.044444444444444,160.95555555555555,0.0,-49.0,184.0,0
1724394976,18.5633117,73.8332183,475.4,26.953846153846158,91,34.75824175824176,162.62637362637363,1.0,-48.0,185.0,0
1724394977,18.5633117,73.8332183,475.4,26.89120879120879,91,34.75824175824176,162.62637362637363,0.0,-49.0,184.0,0
1724394978,18.5633117,73.8332183,475.4,27.0,91,34.56043956043956,163.0,0.0,-49.0,184.0,0
1724394979,18.5633117,73.8332183,475.4,27.07912087912088,91,34.24175824175824,164.05494505494505,0.0,-49.0,184.0,0
1724394980,18.5633117,73.8332183,475.4,27.028260869565216,92,33.95652173913044,165.77173913043478,0.0,-49.0,184.0,0
1724394981,18.5633117,73.8332183,475.4,27.166304347826088,92,33.95652173913044,165.82608695652175,0.0,-48.0,184.0,0
1724394982,18.5633117,73.8332183,475.4,27.154945054945053,91,33.285714285714285,163.42857142857142,0.0,-49.0,184.0,0
1724394983,18.5633117,73.8332183,475.4,27.04065934065934,91,34.23076923076923,164.12087912087912,0.0,-49.0,184.0,0
1724394984,18.5633117,73.8332183,475.4,26.98681318681319,91,34.23076923076923,164.12087912087912,0.0,-48.0,184.0,0
1724394985,18.5633117,73.8332183,475.4,26.646153846153847,91,34.21978021978022,164.12087912087912,0.0,-49.0,184.0,0
1724394986,18.5633117,73.8332183,475.4,26.592307692307692,91,34.21978021978022,164.13186813186815,0.0,-50.0,184.0,0
1724394987,18.5633117,73.8332183,475.4,26.843956043956045,91,33.934065934065934,165.28571428571428,0.0,-49.0,184.0,0
1724394988,18.5633117,73.8332183,475.4,26.77142857142857,91,33.73626373626374,165.41758241758242,0.0,-48.0,184.0,0
1724394989,18.5633117,73.8332183,475.4,26.83186813186813,91,33.91208791208791,164.32967032967034,1.0,-49.0,184.0,0
1724394990,18.5633117,73.8332183,475.4,26.8043956043956,91,33.714285714285715,165.47252747252747,0.0,-49.0,184.0,0
1724394991,18.5633117,73.8332183,475.4,26.739560439560442,91,33.714285714285715,165.47252747252747,0.0,-49.0,184.0,0
1724394992,18.5633117,73.8332183,475.4,26.615384615384617,91,32.75824175824176,164.8021978021978,0.0,-49.0,184.0,0
1724394993,18.5633117,73.8332183,475.4,26.77912087912088,91,33.7032967032967,165.4835164835165,0.0,-49.0,184.0,0
1724394994,18.5633117,73.8332183,475.4,26.630769230769232,91,33.7032967032967,165.5054945054945,0.0,-49.0,184.0,0
1724394995,18.5633117,73.8332183,475.4,26.832608695652173,92,33.42391304347826,167.18478260869566,0.0,-49.0,184.0,0
1724394996,18.5633117,73.8332183,475.4,26.854347826086954,92,33.29347826086956,164.43478260869566,0.0,-49.0,184.0,0
1724394997,18.5633117,73.8332183,475.4,26.915217391304346,92,33.17391304347826,162.6304347826087,0.0,-49.0,184.0,0
1724394998,18.5633117,73.8332183,475.4,27.00978260869565,92,33.18478260869565,162.6195652173913,0.0,-48.0,184.0,0
1724394999,18.5633117,73.8332183,475.4,27.08021978021978,91,33.48351648351648,160.85714285714286,0.0,-48.0,184.0,0
1724395000,18.5633117,73.8332183,475.4,27.082417582417584,91,33.46153846153846,160.86813186813185,0.0,-49.0,184.0,0
1724395001,18.5633117,73.8332183,475.4,27.063736263736267,91,33.46153846153846,160.86813186813185,0.0,-48.0,184.0,0
1724395002,18.5633117,73.8332183,475.4,27.06263736263736,91,33.46153846153846,160.86813186813185,0.0,-49.0,184.0,0
1724395003,18.5633117,73.8332183,475.4,27.31098901098901,91,33.46153846153846,160.95604395604394,0.0,-48.0,184.0,0
1724395004,18.5633117,73.8332183,475.4,27.208791208791208,91,33.46153846153846,160.95604395604394,0.0,-49.0,184.0,0
1724395005,18.5633117,73.8332183,475.4,27.38791208791209,91,33.32967032967033,159.93406593406593,0.0,-49.0,184.0,0
1724395006,18.5633117,73.8332183,475.4,27.286813186813188,91,33.23076923076923,158.87912087912088,0.0,-49.0,184.0,0
1724395007,18.5633117,73.8332183,475.4,27.12826086956522,92,32.95652173913044,160.65217391304347,0.0,-48.0,184.0,0
1724395008,18.5633117,73.8332183,475.4,27.209782608695654,92,32.95652173913044,160.65217391304347,0.0,-49.0,184.0,0
1724395009,18.5633117,73.8332183,475.4,27.078260869565216,92,32.95652173913044,160.65217391304347,0.0,-49.0,184.0,0
1724395010,18.5633117,73.8332183,475.4,27.11195652173913,92,32.96739130434783,160.72826086956522,0.0,-49.0,184.0,0
1724395011,18.5633117,73.8332183,475.4,27.160869565217393,92,32.95652173913044,160.72826086956522,0.0,-48.0,184.0,0
1724395012,18.5633117,73.8332183,475.4,27.096739130434784,92,32.95652173913044,160.72826086956522,0.0,-48.0,184.0,0
1724395013,18.5633117,73.8332183,475.4,27.10217391304348,92,32.96739130434783,160.7391304347826,0.0,-49.0,184.0,0
1724395014,18.5633117,73.8332183,475.4,27.11195652173913,92,32.94565217391305,160.7391304347826,0.0,-49.0,184.0,0
1724395015,18.5633117,73.8332183,475.4,26.995652173913044,92,32.96739130434783,160.7826086956522,0.0,-49.0,184.0,0
1724395016,18.5633117,73.8332183,475.4,27.058695652173913,92,32.96739130434783,160.7826086956522,1.0,-48.0,184.0,0
1724395017,18.5633117,73.8332183,475.4,27.02173913043478,92,32.95652173913044,160.79347826086956,0.0,-48.0,184.0,0
1724395018,18.5633117,73.8332183,475.4,27.34891304347826,92,33.67391304347826,163.07608695652175,0.0,-48.0,184.0,0
1724395019,18.5633117,73.8332183,475.4,27.183695652173913,92,33.65217391304348,163.09782608695653,0.0,-48.0,184.0,0
1724395020,18.5633117,73.8332183,475.4,27.355434782608693,92,33.65217391304348,163.1195652173913,0.0,-49.0,184.0,0
1724395021,18.5633117,73.8332183,475.4,27.247826086956525,92,33.65217391304348,163.16304347826087,0.0,-49.0,184.0,0
1724395022,18.5633117,73.8332183,475.4,27.122826086956525,92,33.65217391304348,163.18478260869566,0.0,-49.0,184.0,0
1724395023,18.5633117,73.8332183,475.4,26.95,92,33.65217391304348,163.18478260869566,0.0,-49.0,184.0,0
1724395024,18.5633117,73.8332183,475.4,27.094565217391303,92,34.34782608695652,164.83695652173913,0.0,-48.0,184.0,0
1724395025,18.5633117,73.8332183,475.4,27.01304347826087,92,34.34782608695652,164.84782608695653,0.0,-48.0,184.0,0
1724395026,18.5633117,73.8332183,475.4,27.23913043478261,92,34.34782608695652,164.84782608695653,0.0,-49.0,184.0,0
1724395027,18.5633117,73.8332183,475.4,27.506521739130434,92,34.15217391304348,165.20652173913044,0.0,-49.0,184.0,0
1724395028,18.5633117,73.8332183,475.4,27.28369565217391,92,34.15217391304348,165.20652173913044,0.0,-48.0,185.0,0
1724395029,18.5633117,73.8332183,475.4,27.258695652173916,92,34.15217391304348,165.20652173913044,0.0,-48.0,184.0,0
1724395030,18.5633117,73.8332183,475.4,27.308695652173913,92,34.15217391304348,165.20652173913044,0.0,-48.0,184.0,0
1724395031,18.5633117,73.8332183,475.4,27.506521739130434,92,34.15217391304348,165.20652173913044,0.0,-48.0,184.0,0
1724395032,18.5633117,73.8332183,475.4,27.48804347826087,92,34.141304347826086,165.20652173913044,0.0,-48.0,185.0,0
1724395033,18.5633117,73.8332183,475.4,27.47826086956522,92,33.83695652173913,166.27173913043478,0.0,-48.0,184.0,0
1724395034,18.5633117,73.8332183,475.4,27.42391304347826,92,33.83695652173913,166.2608695652174,0.0,-49.0,184.0,0
1724395035,18.5633117,73.8332183,475.4,27.436956521739127,92,33.83695652173913,166.25,0.0,-49.0,184.0,0
1724395036,18.5633117,73.8332183,475.4,27.327173913043477,92,33.55434782608695,167.3913043478261,0.0,-49.0,184.0,0
1724395037,18.5633117,73.8332183,475.4,27.419565217391302,92,33.55434782608695,167.3913043478261,0.0,-49.0,184.0,0
1724395038,18.5633117,73.8332183,475.4,27.517391304347825,92,33.55434782608695,167.3913043478261,0.0,-49.0,184.0,0
1724395039,18.5633117,73.8332183,475.4,27.51195652173913,92,33.55434782608695,167.3913043478261,0.0,-49.0,184.0,0
1724395040,18.5633117,73.8332183,475.4,27.11195652173913,92,33.55434782608695,167.3913043478261,0.0,-49.0,184.0,0
1724395041,18.5633117,73.8332183,475.4,27.198913043478264,92,33.54347826086956,167.3913043478261,0.0,-49.0,184.0,0
1724395042,18.5633117,73.8332183,475.4,27.255434782608695,92,32.42391304347826,166.84782608695653,0.0,-49.0,184.0,0
1724395043,18.5633117,73.8332183,475.4,27.31847826086957,92,33.358695652173914,167.52173913043478,0.0,-49.0,184.0,0
1724395044,18.5633117,73.8332183,475.4,27.333695652173912,92,33.380434782608695,167.54347826086956,0.0,-49.0,184.0,0
1724395045,18.5633117,73.8332183,475.4,27.545054945054943,91,32.83516483516483,164.32967032967034,0.0,-49.0,184.0,0
1724395046,18.5633117,73.8332183,475.4,27.448913043478264,92,33.28260869565217,164.81521739130434,0.0,-49.0,184.0,0
1724395047,18.5633117,73.8332183,475.4,27.444565217391304,92,33.28260869565217,164.81521739130434,0.0,-49.0,184.0,0
1724395048,18.5633117,73.8332183,475.4,27.305434782608696,92,33.28260869565217,164.81521739130434,0.0,-49.0,184.0,0
1724395049,18.5633117,73.8332183,475.4,26.775000000000002,92,33.28260869565217,164.81521739130434,0.0,-49.0,184.0,0
1724395050,18.5633117,73.8332183,475.4,26.38021978021978,91,32.92307692307692,166.47252747252747,0.0,-49.0,184.0,0
1724395051,18.5633117,73.8332183,475.4,25.53846153846154,91,32.8021978021978,164.64835164835165,0.0,-48.0,184.0,0
1724395052,18.5633117,73.8332183,475.4,24.748351648351647,91,32.94505494505494,161.2087912087912,0.0,-47.0,184.0,0
1724395053,18.5633117,73.8332183,475.4,24.593478260869563,92,32.83695652173913,160.33695652173913,0.0,-48.0,184.0,0
1724395054,18.5633117,73.8332183,475.4,23.816304347826087,92,32.70652173913044,159.33695652173913,0.0,-47.0,183.0,0
1724395055,18.5633116667,73.8332183333,475.4,,0,,,0.0,-49.0,184.0,0
1724395058,18.5633117,73.83318,509.79999999999995,14.870454545454546,132,34.015151515151516,160.5530303030303,-1.0,-49.0,182.0,0
1724395059,18.5633165,73.8331818,510.1,20.1,140,34.65714285714286,157.4142857142857,0.0,-49.0,184.0,0
1724395060,18.5633195,73.8331817,510.4,21.91027397260274,146,34.363013698630134,155.03424657534248,1.0,-48.0,184.0,0
1724395061,18.5633187,73.8331827,510.6,,0,,,0.0,-48.0,184.0,0
1724395062,18.5633185,73.8331829,510.79999999999995,23.629333333333335,75,34.24,152.81333333333333,0.0,-48.0,184.0,0
1724395063,18.5633185,73.8331819,510.9,23.857333333333333,75,34.24,152.81333333333333,1.0,-49.0,184.0,0
1724395064,18.5633184,73.8331828,511.1,24.593421052631577,76,34.39473684210526,154.85526315789474,0.0,-48.0,183.0,0
1724395065,18.5633172,73.833183,511.29999999999995,24.684615384615388,78,34.166666666666664,152.89743589743588,0.0,-48.0,184.0,0
1724395066,18.5633157,73.833183,511.6,25.107692307692307,78,34.166666666666664,152.89743589743588,0.0,-49.0,184.0,0
1724395067,18.5633153,73.8331842,511.9,25.07051282051282,78,34.166666666666664,152.89743589743588,0.0,-48.0,185.0,0
1724395068,18.5633154,73.8331846,512.6999999999999,25.808974358974357,78,33.833333333333336,153.98717948717947,1.0,-49.0,185.0,0
1724395069,18.563313,73.8331845,512.9,25.988607594936706,79,33.9873417721519,155.9367088607595,0.0,-49.0,184.0,0
1724395070,18.5633098,73.8331856,513.0,25.354430379746834,79,33.69620253164557,155.40506329113924,0.0,-49.0,184.0,0
1724395071,18.5633051,73.8331873,513.1,25.867088607594937,79,33.69620253164557,155.40506329113924,0.0,-49.0,183.0,0
1724395072,18.5633028,73.8331877,513.0,25.341772151898734,79,33.67088607594937,155.43037974683546,0.0,-49.0,184.0,0
1724395073,18.5633023,73.833189,512.6,26.017857142857142,84,33.63095238095238,156.5952380952381,0.0,-49.0,184.0,0
1724395074,18.563302,73.8331893,512.6,26.647674418604648,86,33.97674418604651,160.34883720930233,0.0,-49.0,184.0,0
1724395075,18.5633019,73.8331895,512.6,26.8,87,33.724137931034484,160.4712643678161,0.0,-49.0,184.0,0
1724395076,18.5633018,73.8331897,512.6,26.3,87,33.724137931034484,160.4712643678161,-1.0,-49.0,183.0,0
1724395077,18.5632992,73.8331901,512.1,25.53218390804598,87,33.229885057471265,161.816091954023,1.0,-25.0,182.0,0
1724395078,18.5632973,73.8331902,512.0,25.82674418604651,86,33.05813953488372,160.09302325581396,4.0,-9.0,183.0,0
1724395079,18.5632957,73.8331887,511.6,26.40344827586207,87,33.4367816091954,158.41379310344828,-3.0,4.0,182.0,0
1724395080,18.5632941,73.833187,511.5,25.916853932584267,89,33.78651685393258,157.91011235955057,-8.0,27.0,185.0,0
1724395081,18.5632935,73.833184,511.29999999999995,25.39662921348315,89,33.449438202247194,159.20224719101122,-8.0,29.0,184.0,0
1724395082,18.5632934,73.8331821,511.19999999999993,25.32840909090909,88,33.69318181818182,159.0681818181818,0.0,-9.0,186.0,0
1724395083,18.5632959,73.8331791,511.1,26.434482758620693,87,33.64367816091954,160.5632183908046,0.0,-6.0,186.0,0
1724395084,18.5632963,73.8331772,511.1,26.532584269662923,89,33.831460674157306,160.74157303370785,0.0,-9.0,184.0,0
1724395085,18.563296,73.833177,511.0,26.059550561797757,89,33.831460674157306,160.74157303370785,-1.0,-10.0,182.0,0
1724395086,18.5632967,73.8331767,510.79999999999995,25.910112359550563,89,33.70786516853933,157.91011235955057,0.0,-10.0,185.0,0
1724395087,18.5632972,73.833176,510.79999999999995,26.135555555555552,90,33.94444444444444,160.04444444444445,0.0,-7.0,185.0,0
1724395088,18.5632968,73.8331751,510.5,24.917777777777776,90,33.94444444444444,160.04444444444445,1.0,-23.0,184.0,0
1724395089,18.5632958,73.8331726,510.6,24.365934065934066,91,33.94505494505494,161.42857142857142,0.0,-37.0,185.0,0
1724395090,18.5632945,73.833172,510.5,25.616483516483516,91,33.94505494505494,161.42857142857142,0.0,-33.0,177.0,0
1724395091,18.5632944,73.8331712,510.5,25.54945054945055,91,33.94505494505494,161.42857142857142,0.0,-69.0,175.0,0
1724395092,18.5632945,73.8331697,510.5,25.19347826086957,92,33.70652173913044,161.5326086956522,0.0,-67.0,175.0,0
1724395093,18.5632949,73.8331687,510.5,24.65108695652174,92,33.70652173913044,161.5326086956522,0.0,-67.0,175.0,0
1724395094,18.5632947,73.8331683,510.5,24.205494505494503,91,33.7032967032967,160.16483516483515,0.0,-67.0,175.0,0
1724395095,18.5632947,73.8331682,510.5,25.18586956521739,92,33.68478260869565,161.55434782608697,0.0,-67.0,175.0,0
1724395096,18.5632947,73.8331683,510.5,26.080434782608698,92,33.69565217391305,161.55434782608697,0.0,-67.0,175.0,0
1724395097,18.5632943,73.8331683,510.5,26.130434782608695,92,33.69565217391305,161.55434782608697,0.0,-67.0,175.0,0
1724395098,18.5632938,73.8331681,510.5,25.88695652173913,92,33.69565217391305,161.57608695652175,0.0,-67.0,175.0,0
1724395099,18.5632933,73.8331682,510.5,26.057608695652174,92,33.67391304347826,161.57608695652175,0.0,-67.0,175.0,0
1724395100,18.5632937,73.8331686,510.5,26.468478260869563,92,33.67391304347826,161.57608695652175,0.0,-67.0,175.0,0
1724395101,18.563294,73.833169,510.5,26.470967741935485,93,33.43010752688172,163.1720430107527,0.0,-67.0,175.0,0
1724395102,18.5632941,73.833169,510.5,26.355913978494623,93,33.39784946236559,163.1720430107527,0.0,-67.0,175.0,0
1724395103,18.5632941,73.833169,510.5,26.41505376344086,93,33.376344086021504,163.1720430107527,0.0,-67.0,175.0,0
1724395104,18.5632942,73.8331689,510.5,26.440860215053764,93,33.376344086021504,163.1720430107527,0.0,-67.0,175.0,0
1724395105,18.5632942,73.8331688,510.5,26.252688172043012,93,33.376344086021504,163.1720430107527,0.0,-67.0,175.0,0
1724395106,18.5632941,73.8331691,510.5,26.258064516129032,93,33.376344086021504,163.1720430107527,0.0,-67.0,175.0,0
1724395107,18.5632937,73.833169,510.5,26.346236559139783,93,33.376344086021504,163.18279569892474,0.0,-67.0,175.0,0
1724395108,18.5632934,73.8331687,510.5,26.365591397849464,93,33.376344086021504,163.18279569892474,0.0,-67.0,175.0,0
1724395109,18.5632939,73.8331685,510.5,26.270967741935483,93,33.376344086021504,163.18279569892474,0.0,-67.0,175.0,0
1724395110,18.5632938,73.8331686,510.5,26.216129032258063,93,33.376344086021504,163.18279569892474,0.0,-67.0,175.0,0
1724395111,18.5632936,73.8331685,510.5,26.122580645161293,93,33.376344086021504,163.18279569892474,0.0,-67.0,175.0,0
1724395112,18.5632934,73.8331683,510.5,26.08494623655914,93,33.376344086021504,163.18279569892474,0.0,-67.0,175.0,0
1724395113,18.5632933,73.8331683,510.5,26.05483870967742,93,33.376344086021504,163.18279569892474,0.0,-67.0,175.0,0
1724395114,18.5632933,73.8331683,510.5,26.00537634408602,93,33.376344086021504,163.18279569892474,0.0,-67.0,175.0,0
1724395115,18.5632933,73.8331683,510.5,26.074193548387097,93,33.376344086021504,163.18279569892474,0.0,-67.0,175.0,0
1724395116,18.5632933,73.8331683,510.5,25.970967741935485,93,33.376344086021504,163.18279569892474,0.0,-67.0,175.0,0
1724395117,18.5632933,73.8331683,510.5,25.944086021505377,93,33.376344086021504,163.18279569892474,0.0,-67.0,175.0,0
1724395118,18.5632933,73.8331683,510.5,25.936559139784944,93,33.376344086021504,163.18279569892474,0.0,-67.0,175.0,0
1724395119,18.5632933,73.8331683,510.5,26.198924731182796,93,33.376344086021504,163.18279569892474,0.0,-67.0,175.0,0
1724395120,18.5632933,73.8331683,510.5,26.113978494623655,93,33.376344086021504,163.18279569892474,0.0,-67.0,175.0,0
1724395121,18.5632933,73.8331683,510.5,26.074193548387097,93,33.376344086021504,163.18279569892474,0.0,-67.0,175.0,0
1724395122,18.5632933,73.8331683,510.5,26.061290322580643,93,33.376344086021504,163.18279569892474,0.0,-67.0,175.0,0
1724395123,18.5632933,73.8331683,510.5,25.944086021505377,93,33.376344086021504,163.18279569892474,0.0,-67.0,175.0,0
1724395124,18.5632933,73.8331683,510.5,25.93010752688172,93,33.376344086021504,163.18279569892474,0.0,-67.0,175.0,0
1724395125,18.5632933,73.8331683,510.5,25.84731182795699,93,33.376344086021504,163.18279569892474,0.0,-67.0,175.0,0
1724395126,18.5632933,73.8331683,510.5,25.937634408602147,93,33.376344086021504,163.18279569892474,0.0,-67.0,175.0,0
1724395127,18.5632933,73.8331683,510.5,25.65268817204301,93,33.376344086021504,163.18279569892474,0.0,-67.0,175.0,0
1724395128,18.5632933,73.8331683,510.5,25.481521739130436,92,33.108695652173914,163.8695652173913,0.0,-67.0,175.0,0
1724395129,18.5632933,73.8331683,510.5,25.827173913043477,92,33.130434782608695,163.8695652173913,0.0,-67.0,175.0,0
1724395130,18.5632933,73.8331683,510.5,25.940860215053764,93,33.38709677419355,163.18279569892474,0.0,-67.0,175.0,0
1724395131,18.5632933,73.8331683,510.5,25.801075268817204,93,33.38709677419355,163.18279569892474,0.0,-67.0,175.0,0
1724395132,18.5632933,73.8331683,510.5,26.15806451612903,93,33.38709677419355,163.18279569892474,0.0,-67.0,175.0,0
1724395133,18.5632933,73.8331683,510.5,26.108602150537635,93,33.38709677419355,163.18279569892474,0.0,-67.0,175.0,0
1724395134,18.5632933,73.8331683,510.5,26.01290322580645,93,33.38709677419355,163.18279569892474,0.0,-67.0,175.0,0
1724395135,18.5632933,73.8331683,510.5,26.03978494623656,93,33.38709677419355,163.18279569892474,0.0,-67.0,175.0,0
1724395136,18.5632933,73.8331683,510.5,26.11182795698925,93,33.376344086021504,163.18279569892474,0.0,-67.0,175.0,0
1724395137,18.5632933,73.8331683,510.5,26.104301075268815,93,33.376344086021504,163.19354838709677,0.0,-67.0,175.0,0
1724395138,18.5632933,73.8331683,510.5,25.988172043010753,93,33.376344086021504,163.19354838709677,0.0,-67.0,175.0,0
1724395139,18.5632933,73.8331683,510.5,26.136559139784943,93,34.473118279569896,163.2258064516129,0.0,-67.0,175.0,0
1724395140,18.5632933,73.8331683,510.5,25.69677419354839,93,34.483870967741936,163.21505376344086,0.0,-67.0,175.0,0
1724395141,18.5632933,73.8331683,510.5,25.73440860215054,93,34.483870967741936,163.21505376344086,0.0,-67.0,175.0,0
1724395142,18.5632933,73.8331683,510.5,26.288297872340426,94,34.212765957446805,164.91489361702128,0.0,-67.0,175.0,0
1724395143,18.5632933,73.8331683,510.5,26.220212765957445,94,34.212765957446805,164.91489361702128,0.0,-67.0,175.0,0
1724395144,18.5632933,73.8331683,510.5,26.35531914893617,94,34.212765957446805,164.91489361702128,0.0,-67.0,175.0,0
1724395145,18.5632933,73.8331683,510.5,26.127659574468087,94,34.212765957446805,164.91489361702128,0.0,-67.0,175.0,0
1724395146,18.5632933,73.8331683,510.5,26.246236559139785,93,34.29032258064516,165.59139784946237,0.0,-67.0,175.0,0
1724395147,18.5632933,73.8331683,510.5,26.2752688172043,93,34.29032258064516,165.59139784946237,0.0,-67.0,175.0,0
1724395148,18.5632933,73.8331683,510.5,26.31827956989247,93,33.795698924731184,167.0,0.0,-67.0,175.0,0
1724395149,18.5632933,73.8331683,510.5,26.226595744680854,94,33.723404255319146,166.31914893617022,0.0,-67.0,175.0,0
1724395150,18.5632933,73.8331683,510.5,26.374193548387098,93,33.956989247311824,164.7741935483871,0.0,-67.0,175.0,0
1724395151,18.5632933,73.8331683,510.5,26.29032258064516,93,33.946236559139784,164.78494623655914,0.0,-67.0,175.0,0
1724395152,18.5632933,73.8331683,510.5,26.510752688172044,93,33.956989247311824,164.78494623655914,0.0,-67.0,175.0,0
1724395153,18.5632933,73.8331683,510.5,26.398924731182795,93,33.96774193548387,164.78494623655914,0.0,-66.0,175.0,0
1724395154,18.5632933,73.8331683,510.5,26.633333333333333,93,33.96774193548387,164.78494623655914,0.0,-67.0,175.0,0
1724395155,18.5632933,73.8331683,510.5,26.576344086021503,93,33.96774193548387,164.78494623655914,0.0,-66.0,175.0,0
1724395156,18.5632933,73.8331683,510.5,26.45806451612903,93,33.96774193548387,164.78494623655914,0.0,-66.0,175.0,0
1724395157,18.5632933,73.8331683,510.5,26.45806451612903,93,33.505376344086024,166.04301075268816,0.0,-67.0,175.0,0
1724395158,18.5632933,73.8331683,510.5,26.440217391304348,92,33.608695652173914,162.77173913043478,0.0,-66.0,176.0,0
1724395159,18.5632933,73.8331683,510.5,26.44347826086957,92,32.97826086956522,160.30434782608697,0.0,-67.0,175.0,0
1724395160,18.5632933,73.8331683,510.5,26.77608695652174,92,32.97826086956522,160.30434782608697,0.0,-66.0,175.0,0
1724395161,18.5632933,73.8331683,510.5,26.444565217391304,92,32.97826086956522,160.30434782608697,0.0,-67.0,175.0,0
1724395162,18.5632933,73.8331683,510.5,26.630434782608695,92,32.98913043478261,160.30434782608697,0.0,-67.0,175.0,0
1724395163,18.5632933,73.8331683,510.5,26.817391304347826,92,32.98913043478261,160.30434782608697,0.0,-66.0,175.0,0
1724395164,18.5632933,73.8331683,510.5,26.722826086956523,92,32.98913043478261,160.2826086956522,0.0,-66.0,175.0,0
1724395165,18.5632933,73.8331683,510.5,26.844565217391303,92,32.97826086956522,160.29347826086956,0.0,-67.0,175.0,0
1724395166,18.5632933,73.8331683,510.5,26.958695652173912,92,32.880434782608695,158.47826086956522,0.0,-67.0,175.0,0
1724395167,18.5632933,73.8331683,510.5,26.91868131868132,91,32.9010989010989,159.25274725274724,0.0,-67.0,175.0,0
1724395168,18.5632933,73.8331683,510.5,26.916483516483517,91,32.934065934065934,159.25274725274724,0.0,-67.0,175.0,0
1724395169,18.5632933,73.8331683,510.5,26.823076923076925,91,32.989010989010985,159.25274725274724,0.0,-67.0,175.0,0
1724395170,18.5632933,73.8331683,510.5,26.303260869565218,92,33.02173913043478,158.6304347826087,0.0,-67.0,175.0,0
1724395171,18.5632933,73.8331683,510.5,26.27173913043478,92,33.16304347826087,158.6086956521739,0.0,-67.0,175.0,0
1724395172,18.5632933,73.8331683,510.5,26.66813186813187,91,33.46153846153846,159.16483516483515,0.0,-67.0,175.0,0
1724395173,18.5632933,73.8331683,510.5,26.69120879120879,91,33.7032967032967,162.95604395604394,0.0,-67.0,175.0,0
1724395174,18.5632933,73.8331683,510.5,26.605434782608693,92,33.46739130434783,162.31521739130434,0.0,-67.0,175.0,0
1724395175,18.5632933,73.8331683,510.5,26.59021739130435,92,33.391304347826086,161.7826086956522,0.0,-67.0,175.0,0
1724395176,18.5632933,73.8331683,510.5,26.531521739130437,92,33.32608695652174,161.6413043478261,0.0,-67.0,175.0,0
1724395177,18.5632933,73.8331683,510.5,26.720652173913045,92,33.28260869565217,161.58695652173913,0.0,-67.0,175.0,0
1724395178,18.5632933,73.8331683,510.5,26.443956043956046,91,33.395604395604394,162.73626373626374,0.0,-67.0,175.0,0
1724395179,18.5632933,73.8331683,510.5,26.29340659340659,91,33.395604395604394,162.71428571428572,0.0,-67.0,175.0,0
1724395180,18.5632933,73.8331683,510.5,26.518478260869564,92,33.26086956521739,161.56521739130434,0.0,-67.0,175.0,0
1724395181,18.5632933,73.8331683,510.5,26.217391304347824,92,33.25,161.57608695652175,0.0,-67.0,175.0,0
1724395182,18.5632933,73.8331683,510.5,26.26521739130435,92,32.33695652173913,160.91304347826087,0.0,-67.0,175.0,0
1724395183,18.5632933,73.8331683,510.5,26.57282608695652,92,33.25,161.6086956521739,0.0,-67.0,175.0,0
1724395184,18.5632933,73.8331683,510.5,26.193548387096776,93,32.913978494623656,162.19354838709677,0.0,-67.0,175.0,0
1724395185,18.5632933,73.8331683,510.5,26.112903225806452,93,32.913978494623656,162.2258064516129,0.0,-67.0,175.0,0
1724395186,18.5632933,73.8331683,510.5,26.055913978494623,93,32.924731182795696,162.2688172043011,0.0,-67.0,175.0,0
1724395187,18.5632933,73.8331683,510.5,26.013978494623657,93,32.903225806451616,162.27956989247312,0.0,-67.0,175.0,0
1724395188,18.5632933,73.8331683,510.5,26.18494623655914,93,32.913978494623656,162.31182795698925,0.0,-67.0,175.0,0
1724395189,18.5632933,73.8331683,510.5,26.02258064516129,93,32.913978494623656,162.34408602150538,0.0,-67.0,175.0,0
1724395190,18.5632933,73.8331683,510.5,25.813978494623655,93,32.913978494623656,162.3763440860215,0.0,-67.0,175.0,0
1724395191,18.5632933,73.8331683,510.5,25.786021505376343,93,32.924731182795696,162.43010752688173,0.0,-67.0,175.0,0
1724395192,18.5632933,73.8331683,510.5,25.668817204301074,93,32.924731182795696,162.4516129032258,0.0,-67.0,175.0,0
1724395193,18.5632933,73.8331683,510.5,25.618279569892472,93,32.924731182795696,162.48387096774192,0.0,-67.0,175.0,0
1724395194,18.5632933,73.8331683,510.5,25.736559139784948,93,32.924731182795696,162.51612903225808,0.0,-67.0,175.0,0
1724395195,18.5632933,73.8331683,510.5,25.70537634408602,93,32.924731182795696,162.58064516129033,0.0,-67.0,175.0,0
1724395196,18.5632933,73.8331683,510.5,25.517204301075267,93,32.924731182795696,162.59139784946237,0.0,-67.0,175.0,0
1724395197,18.5632933,73.8331683,510.5,25.5,93,32.903225806451616,162.6451612903226,0.0,-67.0,175.0,0
1724395198,18.5632933,73.8331683,510.5,25.59784946236559,93,32.903225806451616,162.66666666666666,0.0,-67.0,175.0,0
1724395199,18.5632933,73.8331683,510.5,25.934408602150537,93,32.89247311827957,162.69892473118279,0.0,-67.0,175.0,0
1724395200,18.5632933,73.8331683,510.5,25.69139784946237,93,32.89247311827957,162.7311827956989,0.0,-67.0,175.0,0
1724395201,18.5632933,73.8331683,510.5,25.877419354838707,93,32.89247311827957,162.76344086021504,0.0,-67.0,175.0,0
1724395202,18.5632933,73.8331683,510.5,25.98064516129032,93,32.88172043010753,162.78494623655914,0.0,-65.0,176.0,0
1724395203,18.5632933,73.8331683,510.5,25.819354838709675,93,32.88172043010753,162.81720430107526,0.0,-66.0,175.0,0
1724395204,18.5632933,73.8331683,510.5,25.883870967741935,93,32.645161290322584,159.09677419354838,0.0,-66.0,175.0,0
1724395205,18.5632933,73.8331683,510.5,26.01505376344086,93,32.634408602150536,159.1290322580645,0.0,-66.0,176.0,0
1724395206,18.5632933,73.8331683,510.5,25.953763440860214,93,32.634408602150536,159.1505376344086,0.0,-67.0,175.0,0
1724395207,18.5632933,73.8331683,510.5,25.8,93,32.623655913978496,159.1720430107527,0.0,-66.0,175.0,0
1724395208,18.5632933,73.8331683,510.5,25.926881720430107,93,32.61290322580645,159.19354838709677,0.0,-67.0,175.0,0
1724395209,18.5632933,73.8331683,510.5,26.025806451612905,93,33.32258064516129,161.4731182795699,0.0,-67.0,175.0,0
1724395210,18.5632933,73.8331683,510.5,25.688172043010752,93,34.01075268817204,163.11827956989248,0.0,-66.0,175.0,0
1724395211,18.5632933,73.8331683,510.5,25.786021505376343,93,34.01075268817204,163.13978494623655,0.0,-66.0,175.0,0
1724395212,18.5632933,73.8331683,510.5,25.4752688172043,93,34.0,163.16129032258064,0.0,-66.0,175.0,0
1724395213,18.5632933,73.8331683,510.5,25.372043010752687,93,34.0,163.1720430107527,0.0,-66.0,175.0,0
1724395214,18.5632933,73.8331683,510.5,25.513978494623657,93,33.98924731182796,163.18279569892474,0.0,-67.0,175.0,0
1724395215,18.5632933,73.8331683,510.5,25.36774193548387,93,33.97849462365591,163.20430107526883,0.0,-66.0,175.0,0
1724395216,18.5632933,73.8331683,510.5,25.643010752688173,93,33.97849462365591,163.21505376344086,0.0,-67.0,175.0,0
1724395217,18.5632933,73.8331683,510.5,25.53978494623656,93,33.96774193548387,163.2258064516129,0.0,-67.0,175.0,0
1724395218,18.5632933,73.8331683,510.5,25.535483870967745,93,33.774193548387096,163.59139784946237,0.0,-67.0,175.0,0
1724395219,18.5632933,73.8331683,510.5,25.580645161290324,93,33.763440860215056,163.6021505376344,0.0,-66.0,175.0,0
1724395220,18.5632933,73.8331683,510.5,25.633333333333333,93,33.46236559139785,164.66666666666666,0.0,-66.0,175.0,0
1724395221,18.5632933,73.8331683,510.5,25.495698924731183,93,33.45161290322581,164.67741935483872,0.0,-67.0,175.0,0
1724395222,18.5632933,73.8331683,510.5,25.470967741935485,93,33.45161290322581,164.68817204301075,0.0,-67.0,175.0,0
1724395223,18.5632933,73.8331683,510.5,25.47204301075269,93,33.44086021505376,164.69892473118279,0.0,-67.0,175.0,0
1724395224,18.5632933,73.8331683,510.5,25.701075268817203,93,33.44086021505376,164.69892473118279,0.0,-67.0,175.0,0
1724395225,18.5632933,73.8331683,510.5,25.76559139784946,93,33.43010752688172,164.70967741935485,0.0,-67.0,175.0,0
1724395226,18.5632933,73.8331683,510.5,25.495698924731183,93,33.43010752688172,164.72043010752688,0.0,-67.0,175.0,0
1724395227,18.5632933,73.8331683,510.5,25.538709677419355,93,33.1505376344086,165.86021505376345,0.0,-67.0,175.0,0
1724395228,18.5632933,73.8331683,510.5,25.53655913978495,93,33.13978494623656,165.86021505376345,0.0,-67.0,175.0,0
1724395229,18.5632933,73.8331683,510.5,25.587096774193547,93,32.956989247311824,166.0,0.0,-67.0,175.0,0
1724395230,18.5632933,73.8331683,510.5,24.75483870967742,93,32.946236559139784,166.0,0.0,-67.0,175.0,0
1724395231,18.5632933,73.8331683,510.5,25.39032258064516,93,32.946236559139784,166.01075268817203,0.0,-67.0,175.0,0
1724395232,18.5632933,73.8331683,510.5,25.36989247311828,93,32.935483870967744,166.0215053763441,0.0,-67.0,175.0,0
1724395233,18.5632933,73.8331683,510.5,25.520430107526884,93,32.935483870967744,166.0215053763441,0.0,-67.0,175.0,0
1724395234,18.5632933,73.8331683,510.5,25.58817204301075,93,32.935483870967744,166.03225806451613,0.0,-66.0,175.0,0
1724395235,18.5632933,73.8331683,510.5,25.522340425531915,94,33.02127659574468,164.29787234042553,0.0,-67.0,175.0,0
1724395236,18.5632933,73.8331683,510.5,25.556382978723406,94,32.744680851063826,162.6595744680851,0.0,-67.0,175.0,0
1724395237,18.5632933,73.8331683,510.5,25.945744680851064,94,32.744680851063826,162.67021276595744,0.0,-67.0,175.0,0
1724395238,18.5632933,73.8331683,510.5,25.752127659574466,94,32.61702127659574,160.88297872340425,0.0,-67.0,175.0,0
1724395239,18.5632933,73.8331683,510.5,25.819148936170212,94,32.61702127659574,160.89361702127658,0.0,-67.0,175.0,0
1724395240,18.5632933,73.8331683,510.5,26.120212765957447,94,32.61702127659574,160.93617021276594,0.0,-67.0,175.0,0
1724395241,18.5632933,73.8331683,510.5,26.403191489361703,94,32.6063829787234,160.93617021276594,0.0,-67.0,175.0,0
1724395242,18.5632933,73.8331683,510.5,26.59255319148936,94,32.6063829787234,160.9468085106383,0.0,-67.0,175.0,0
1724395243,18.5632933,73.8331683,510.5,26.755913978494625,93,32.25806451612903,162.5268817204301,0.0,-67.0,175.0,0
1724395244,18.5632933,73.8331683,510.5,26.54516129032258,93,32.24731182795699,162.5268817204301,0.0,-67.0,175.0,0
1724395245,18.5632933,73.8331683,510.5,26.57872340425532,94,32.59574468085106,160.95744680851064,0.0,-67.0,175.0,0
1724395246,18.5632933,73.8331683,510.5,26.48494623655914,93,32.46236559139785,158.6021505376344,0.0,-67.0,175.0,0
1724395247,18.5632933,73.8331683,510.5,26.39032258064516,93,32.03225806451613,160.49462365591398,0.0,-67.0,175.0,0
1724395248,18.5632933,73.8331683,510.5,26.337234042553188,94,32.37234042553192,158.98936170212767,0.0,-67.0,175.0,0
1724395249,18.5632933,73.8331683,510.5,26.277659574468085,94,32.37234042553192,158.98936170212767,0.0,-67.0,175.0,0
1724395250,18.5632933,73.8331683,510.5,26.18709677419355,93,32.354838709677416,157.6236559139785,0.0,-67.0,175.0,0
1724395251,18.5632933,73.8331683,510.5,26.353763440860217,93,32.354838709677416,157.6236559139785,0.0,-67.0,175.0,0
1724395252,18.5632933,73.8331683,510.5,26.967741935483872,93,32.344086021505376,157.63440860215053,0.0,-67.0,175.0,0
1724395253,18.5632933,73.8331683,510.5,26.54193548387097,93,32.344086021505376,157.67741935483872,0.0,-67.0,175.0,0
1724395254,18.5632933,73.8331683,510.5,26.40967741935484,93,32.344086021505376,157.65591397849462,0.0,-67.0,175.0,0
1724395255,18.5632933,73.8331683,510.5,26.43548387096774,93,32.344086021505376,157.65591397849462,0.0,-67.0,175.0,0
1724395256,18.5632933,73.8331683,510.5,26.54516129032258,93,32.333333333333336,157.66666666666666,0.0,-67.0,175.0,0
1724395257,18.5632933,73.8331683,510.5,26.333333333333332,93,32.333333333333336,157.6451612903226,0.0,-67.0,175.0,0
1724395258,18.5632933,73.8331683,510.5,26.496774193548386,93,32.344086021505376,157.63440860215053,0.0,-67.0,175.0,0
1724395259,18.5632933,73.8331683,510.5,26.56413043478261,92,32.68478260869565,157.6086956521739,0.0,-67.0,175.0,0
1724395260,18.5632933,73.8331683,510.5,26.470329670329672,91,32.747252747252745,158.2087912087912,0.0,-67.0,175.0,0
1724395261,18.5632933,73.8331683,510.5,26.557608695652174,92,32.67391304347826,157.6195652173913,0.0,-67.0,175.0,0
1724395262,18.5632933,73.8331683,510.5,26.750549450549453,91,32.92307692307692,157.53846153846155,0.0,-67.0,175.0,0
1724395263,18.5632933,73.8331683,510.5,26.256521739130434,92,32.69565217391305,157.68478260869566,0.0,-67.0,175.0,0
1724395264,18.5632933,73.8331683,510.5,26.49673913043478,92,32.69565217391305,157.68478260869566,0.0,-67.0,175.0,0
1724395265,18.5632933,73.8331683,510.5,26.65108695652174,92,32.69565217391305,157.68478260869566,0.0,-67.0,175.0,0
1724395266,18.5632933,73.8331683,510.5,26.481521739130436,92,32.69565217391305,157.69565217391303,0.0,-67.0,175.0,0
1724395267,18.5632933,73.8331683,510.5,26.48478260869565,92,32.68478260869565,157.69565217391303,0.0,-67.0,175.0,0
1724395268,18.5632933,73.8331683,510.5,26.504347826086956,92,32.68478260869565,157.69565217391303,0.0,-67.0,175.0,0
1724395269,18.5632933,73.8331683,510.5,26.394565217391307,92,32.68478260869565,157.69565217391303,0.0,-67.0,175.0,0
1724395270,18.5632933,73.8331683,510.5,26.445652173913043,92,32.68478260869565,157.69565217391303,0.0,-67.0,175.0,0
1724395271,18.5632933,73.8331683,510.5,26.38913043478261,92,32.68478260869565,157.69565217391303,0.0,-67.0,175.0,0
1724395272,18.5632933,73.8331683,510.5,26.594505494505494,91,32.747252747252745,158.30769230769232,0.0,-67.0,175.0,0
1724395273,18.5632933,73.8331683,510.5,26.43978494623656,93,32.903225806451616,159.80645161290323,0.0,-67.0,175.0,0
1724395274,18.5632933,73.8331683,510.5,26.36451612903226,93,32.924731182795696,159.8279569892473,0.0,-67.0,175.0,0
1724395275,18.5632933,73.8331683,510.5,26.460869565217394,92,32.65217391304348,157.7608695652174,0.0,-67.0,175.0,0
1724395276,18.5632933,73.8331683,510.5,26.47391304347826,92,32.65217391304348,157.7608695652174,0.0,-67.0,175.0,0
1724395277,18.5632933,73.8331683,510.5,26.567032967032965,91,32.714285714285715,158.36263736263737,0.0,-67.0,175.0,0
1724395278,18.5632933,73.8331683,510.5,26.494505494505493,91,32.69230769230769,158.36263736263737,0.0,-67.0,175.0,0
1724395279,18.5632933,73.8331683,510.5,26.467032967032967,91,32.69230769230769,158.3846153846154,0.0,-67.0,175.0,0
1724395280,18.5632933,73.8331683,510.5,26.599999999999998,91,32.68131868131868,158.45054945054946,0.0,-67.0,175.0,0
1724395281,18.5632933,73.8331683,510.5,26.335869565217394,92,32.59782608695652,157.8804347826087,0.0,-67.0,175.0,0
1724395282,18.5632933,73.8331683,510.5,26.66923076923077,91,32.65934065934066,158.4835164835165,0.0,-67.0,175.0,0
1724395283,18.5632933,73.8331683,510.5,26.37608695652174,92,32.59782608695652,157.8804347826087,0.0,-67.0,175.0,0
1724395284,18.5632933,73.8331683,510.5,26.25978260869565,92,33.31521739130435,160.16304347826087,0.0,-67.0,175.0,0
1724395285,18.5632933,73.8331683,510.5,26.46195652173913,92,33.31521739130435,160.16304347826087,0.0,-67.0,175.0,0
1724395286,18.5632933,73.8331683,510.5,26.472826086956523,92,33.31521739130435,160.16304347826087,0.0,-67.0,175.0,0
1724395287,18.5632933,73.8331683,510.5,26.62608695652174,92,33.31521739130435,160.16304347826087,0.0,-67.0,175.0,0
1724395288,18.5632933,73.8331683,510.5,26.38279569892473,93,33.54838709677419,162.20430107526883,0.0,-67.0,175.0,0
1724395289,18.5632933,73.8331683,510.5,26.571739130434782,92,33.30434782608695,160.16304347826087,0.0,-67.0,175.0,0
1724395290,18.5632933,73.8331683,510.5,26.843478260869563,92,34.01086956521739,161.82608695652175,0.0,-67.0,175.0,0
1724395291,18.5632933,73.8331683,510.5,26.570967741935483,93,34.24731182795699,163.8494623655914,0.0,-67.0,175.0,0
1724395292,18.5632933,73.8331683,510.5,26.42043010752688,93,34.24731182795699,163.8494623655914,0.0,-67.0,175.0,0
1724395293,18.5632933,73.8331683,510.5,26.63913043478261,92,33.81521739130435,162.16304347826087,0.0,-67.0,175.0,0
1724395294,18.5632933,73.8331683,510.5,26.48494623655914,93,34.043010752688176,164.1720430107527,0.0,-67.0,175.0,0
1724395295,18.5632933,73.8331683,510.5,26.696739130434782,92,33.80434782608695,162.15217391304347,0.0,-67.0,175.0,0
1724395296,18.5632933,73.8331683,510.5,26.557608695652174,92,33.80434782608695,162.15217391304347,0.0,-67.0,176.0,0
1724395297,18.5632933,73.8331683,510.5,26.455913978494625,93,34.03225806451613,164.1720430107527,0.0,-67.0,175.0,0
1724395298,18.5632933,73.8331683,510.5,26.440860215053764,93,34.03225806451613,164.1720430107527,0.0,-67.0,176.0,0
1724395299,18.5632933,73.8331683,510.5,26.617391304347827,92,34.27173913043478,164.09782608695653,0.0,-67.0,175.0,0
1724395300,18.5632933,73.8331683,510.5,26.353763440860217,93,33.73118279569893,165.2258064516129,0.0,-67.0,175.0,0
1724395301,18.5632933,73.8331683,510.5,26.62826086956522,92,33.91304347826087,166.6195652173913,0.0,-67.0,175.0,0
1724395302,18.5632933,73.8331683,510.5,26.328260869565216,92,33.630434782608695,167.77173913043478,0.0,-67.0,175.0,0
1724395303,18.5632933,73.8331683,510.5,26.72826086956522,92,33.65217391304348,167.77173913043478,0.0,-67.0,175.0,0
1724395304,18.5632933,73.8331683,510.5,26.405434782608697,92,33.65217391304348,167.77173913043478,0.0,-67.0,175.0,0
1724395305,18.5632933,73.8331683,510.5,26.497826086956525,92,33.67391304347826,167.79347826086956,0.0,-67.0,175.0,0
1724395306,18.5632933,73.8331683,510.5,26.679347826086957,92,33.67391304347826,167.79347826086956,0.0,-67.0,175.0,0
1724395307,18.5632933,73.8331683,510.5,26.64835164835165,91,33.417582417582416,165.78021978021977,0.0,-67.0,175.0,0
1724395308,18.5632933,73.8331683,510.5,26.662637362637366,91,33.40659340659341,165.78021978021977,0.0,-67.0,175.0,0
1724395309,18.5632933,73.8331683,510.5,26.545054945054943,91,33.21978021978022,165.9120879120879,0.0,-67.0,175.0,0
1724395310,18.5632933,73.8331683,510.5,26.60769230769231,91,33.21978021978022,165.9120879120879,0.0,-67.0,175.0,0
1724395311,18.5632933,73.8331683,510.5,26.35326086956522,92,33.358695652173914,165.16304347826087,0.0,-67.0,175.0,0
1724395312,18.5632933,73.8331683,510.5,26.38021978021978,91,33.0989010989011,163.13186813186815,0.0,-67.0,175.0,0
1724395313,18.5632933,73.8331683,510.5,26.359340659340656,91,33.08791208791209,163.14285714285714,0.0,-67.0,175.0,0
1724395314,18.5632933,73.8331683,510.5,26.072043010752687,93,32.43010752688172,162.752688172043,0.0,-67.0,175.0,0
1724395315,18.5632933,73.8331683,510.5,25.898924731182795,93,32.11827956989247,165.6451612903226,0.0,-67.0,175.0,0
1724395316,18.5632933,73.8331683,510.5,25.76063829787234,94,32.45744680851064,164.0212765957447,0.0,-67.0,175.0,0
1724395317,18.5632933,73.8331683,510.5,25.83404255319149,94,32.45744680851064,164.03191489361703,0.0,-67.0,175.0,0
1724395318,18.5632933,73.8331683,510.5,25.888297872340427,94,32.45744680851064,164.03191489361703,0.0,-67.0,175.0,0
1724395319,18.5632933,73.8331683,510.5,25.877659574468087,94,32.340425531914896,162.2659574468085,0.0,-67.0,175.0,0
1724395320,18.5632933,73.8331683,510.5,25.845744680851062,94,32.92553191489362,163.5,0.0,-67.0,175.0,0
1724395321,18.5632933,73.8331683,510.5,25.76595744680851,94,32.91489361702128,163.5,0.0,-67.0,175.0,0
1724395322,18.5632933,73.8331683,510.5,25.84787234042553,94,32.91489361702128,163.5,0.0,-67.0,175.0,0
1724395323,18.5632933,73.8331683,510.5,25.857894736842105,95,32.747368421052634,162.16842105263157,0.0,-67.0,175.0,0
1724395324,18.5632933,73.8331683,510.5,25.95263157894737,95,32.747368421052634,162.16842105263157,0.0,-67.0,175.0,0
1724395325,18.5632933,73.8331683,510.5,26.10842105263158,95,32.747368421052634,162.16842105263157,0.0,-67.0,175.0,0
1724395326,18.5632933,73.8331683,510.5,26.001052631578947,95,32.73684210526316,162.16842105263157,0.0,-67.0,175.0,0
1724395327,18.5632933,73.8331683,510.5,25.94526315789474,95,32.72631578947368,162.18947368421053,0.0,-67.0,175.0,0
1724395328,18.5632933,73.8331683,510.5,25.90421052631579,95,32.747368421052634,162.17894736842106,0.0,-67.0,175.0,0
