timestamp,latitude,longitude,altitude,mean_snr,sat_count,mean_elevation,mean_azimuth,roll,pitch,yaw,is_inclined
1725024927,18.56326,73.8331367,498.79999999999995,19.93370786516854,89,33.08988764044944,144.35955056179776,-1.0,-82.0,177.0,0
1725024929,18.5632615,73.833145,498.9,19.911235955056178,89,33.08988764044944,144.35955056179776,-1.0,-82.0,177.0,0
1725024930,18.5632619,73.8331465,498.9,19.754545454545454,88,33.22727272727273,145.25,-1.0,-82.0,177.0,0
1725024931,18.5632618,73.8331467,498.9,20.059550561797753,89,33.08988764044944,144.35955056179776,-1.0,-82.0,177.0,0
1725024932,18.5632617,73.8331467,498.9,20.119101123595506,89,33.08988764044944,144.35955056179776,-1.0,-82.0,177.0,0
1725024933,18.5632617,73.8331467,498.9,20.457954545454545,88,33.29545454545455,146.14772727272728,-1.0,-82.0,177.0,0
1725024934,18.5632617,73.8331467,498.9,20.445454545454545,88,33.29545454545455,146.14772727272728,-1.0,-82.0,177.0,0
1725024935,18.5632617,73.8331467,498.9,20.479775280898878,89,33.449438202247194,145.2134831460674,-1.0,-82.0,177.0,0
1725024936,18.5632617,73.8331467,498.9,21.164044943820222,89,32.70786516853933,143.8426966292135,-1.0,-82.0,177.0,0
1725024937,18.5632617,73.8331467,498.9,21.008888888888887,90,32.37777777777778,143.1,-1.0,-82.0,177.0,0
1725024938,18.5632617,73.8331467,498.9,21.346666666666668,90,32.37777777777778,143.1,-1.0,-82.0,177.0,0
1725024939,18.5632617,73.8331467,498.9,21.37333333333333,90,32.37777777777778,143.1,-1.0,-82.0,177.0,0
1725024940,18.5632617,73.8331467,498.9,21.378651685393258,89,31.8876404494382,144.4494382022472,-1.0,-82.0,177.0,0
1725024941,18.5633218,73.8331623,493.6,21.908988764044945,89,31.8876404494382,144.4494382022472,0.0,-82.0,178.0,0
1725024942,18.5633337,73.8331702,495.1,21.686516853932584,89,31.8876404494382,144.4494382022472,-1.0,-82.0,177.0,0
1725024943,18.563337,73.8331724,495.1,21.85333333333333,90,32.166666666666664,143.75555555555556,-1.0,-82.0,177.0,0
1725024944,18.563338,73.8331731,495.1,22.166304347826088,92,32.81521739130435,143.29347826086956,-1.0,-82.0,177.0,0
1725024945,18.5633382,73.8331732,495.1,22.091397849462364,93,32.69892473118279,143.76344086021504,-1.0,-82.0,176.0,0
1725024946,18.5633383,73.8331732,495.1,22.162365591397847,93,33.064516129032256,143.31182795698925,-1.0,-82.0,177.0,0
1725024947,18.5633383,73.8331733,495.1,22.30967741935484,93,33.064516129032256,143.31182795698925,0.0,-82.0,178.0,0
1725024948,18.5633383,73.8331733,495.1,22.52258064516129,93,33.064516129032256,143.31182795698925,-1.0,-82.0,177.0,0
1725024949,18.5633383,73.8331733,495.1,22.338297872340426,94,33.06382978723404,144.59574468085106,-1.0,-82.0,177.0,0
1725024950,18.5633383,73.8331733,495.1,22.90212765957447,94,33.06382978723404,144.59574468085106,-1.0,-82.0,177.0,0
1725024951,18.5633383,73.8331733,495.1,23.159574468085108,94,33.06382978723404,144.59574468085106,-1.0,-82.0,178.0,0
1725024952,18.5633383,73.8331733,495.1,23.288297872340426,94,33.06382978723404,144.59574468085106,-1.0,-82.0,177.0,0
1725024953,18.5633383,73.8331733,495.1,23.244210526315786,95,32.85263157894737,144.33684210526314,-1.0,-82.0,177.0,0
1725024954,18.5633383,73.8331733,495.1,23.170212765957448,94,33.680851063829785,146.46808510638297,-1.0,-82.0,178.0,0
1725024955,18.5633383,73.8331733,495.1,23.04842105263158,95,33.463157894736845,147.70526315789473,-1.0,-82.0,177.0,0
1725024956,18.5633383,73.8331733,495.1,23.08,95,33.463157894736845,147.70526315789473,-1.0,-82.0,177.0,0
1725024957,18.5633383,73.8331733,495.1,23.021052631578947,95,33.45263157894737,147.70526315789473,-1.0,-82.0,177.0,0
1725024958,18.5633371,73.8332142,504.0,23.918947368421055,95,33.45263157894737,147.70526315789473,-1.0,-82.0,178.0,0
1725024959,18.5633368,73.8332268,503.9,24.172916666666666,96,33.333333333333336,146.54166666666666,-1.0,-82.0,178.0,0
1725024960,18.5633367,73.8332315,503.9,24.272916666666664,96,33.333333333333336,146.54166666666666,-1.0,-82.0,178.0,0
1725024961,18.5633367,73.8332328,503.9,24.037113402061856,97,33.2680412371134,145.659793814433,-1.0,-82.0,178.0,0
1725024962,18.5633367,73.8332332,503.9,24.038144329896905,97,33.2680412371134,145.659793814433,-1.0,-82.0,177.0,0
1725024963,18.5633367,73.8332333,503.9,24.130927835051544,97,32.88659793814433,146.90721649484536,-1.0,-82.0,178.0,0
1725024964,18.5633367,73.8332333,503.9,24.2659793814433,97,32.31958762886598,142.79381443298968,-1.0,-82.0,178.0,0
1725024965,18.5633367,73.8332333,503.9,24.361855670103093,97,32.31958762886598,142.79381443298968,-1.0,-82.0,178.0,0
1725024966,18.5633367,73.8332333,503.9,24.48556701030928,97,32.31958762886598,142.79381443298968,-1.0,-82.0,178.0,0
1725024967,18.5633367,73.8332333,503.9,24.35876288659794,97,32.31958762886598,142.7835051546392,-1.0,-82.0,178.0,0
1725024968,18.5633367,73.8332333,503.9,24.39278350515464,97,32.31958762886598,142.7835051546392,-1.0,-82.0,178.0,0
1725024969,18.5633367,73.8332333,503.9,24.350515463917525,97,32.31958762886598,142.7835051546392,-1.0,-82.0,178.0,0
1725024970,18.5633367,73.8332333,503.9,24.68247422680412,97,32.30927835051546,142.7835051546392,-1.0,-82.0,178.0,0
1725024971,18.5633367,73.8332333,503.9,24.579381443298967,97,32.30927835051546,142.81443298969072,0.0,-82.0,178.0,0
1725024972,18.5633367,73.8332333,503.9,24.723711340206183,97,32.175257731958766,140.2164948453608,-1.0,-82.0,178.0,0
1725024973,18.5633367,73.8332333,503.9,24.763917525773195,97,31.8659793814433,139.24742268041237,0.0,-82.0,178.0,0
1725024974,18.5633367,73.8332333,503.9,25.028865979381447,97,31.8659793814433,139.24742268041237,0.0,-82.0,178.0,0
1725024975,18.5633367,73.8332333,503.9,24.9020618556701,97,31.8659793814433,139.24742268041237,-1.0,-82.0,178.0,0
1725024976,18.5633367,73.8332333,503.9,24.965979381443297,97,31.8659793814433,139.24742268041237,-1.0,-82.0,178.0,0
1725024977,18.5633367,73.8332333,503.9,24.830927835051547,97,31.8659793814433,139.24742268041237,-1.0,-82.0,178.0,0
1725024978,18.5633367,73.8332333,503.9,24.84639175257732,97,31.8659793814433,139.24742268041237,-1.0,-82.0,178.0,0
1725024979,18.5633367,73.8332333,503.9,24.85979381443299,97,31.8659793814433,139.24742268041237,-1.0,-82.0,178.0,0
1725024980,18.5633367,73.8332333,503.9,24.87319587628866,97,31.8659793814433,139.24742268041237,-1.0,-82.0,178.0,0
1725024981,18.5633367,73.8332333,503.9,24.962886597938144,97,31.762886597938145,138.2577319587629,-1.0,-82.0,178.0,0
1725024982,18.5633367,73.8332333,503.9,24.92989690721649,97,31.75257731958763,138.2680412371134,-1.0,-82.0,178.0,0
1725024983,18.5633367,73.8332333,503.9,24.920618556701033,97,31.75257731958763,138.2680412371134,-1.0,-82.0,178.0,0
1725024984,18.5633367,73.8332333,503.9,24.896907216494846,97,31.75257731958763,138.2680412371134,-1.0,-82.0,178.0,0
1725024985,18.5633367,73.8332333,503.9,24.758762886597935,97,31.75257731958763,138.2680412371134,-1.0,-82.0,178.0,0
1725024986,18.5633367,73.8332333,503.9,24.70721649484536,97,32.43298969072165,140.43298969072166,-1.0,-82.0,178.0,0
1725024987,18.5633367,73.8332333,503.9,24.874226804123712,97,33.04123711340206,142.77319587628867,-1.0,-82.0,178.0,0
1725024988,18.5633367,73.8332333,503.9,25.009278350515466,97,33.04123711340206,142.77319587628867,-1.0,-82.0,178.0,0
1725024989,18.5633367,73.8332333,503.9,24.869072164948456,97,33.04123711340206,142.77319587628867,-1.0,-82.0,178.0,0
1725024990,18.5633367,73.8332333,503.9,25.044329896907218,97,33.04123711340206,142.77319587628867,-1.0,-82.0,178.0,0
1725024991,18.5633367,73.8332333,503.9,24.65463917525773,97,33.04123711340206,142.77319587628867,-1.0,-82.0,178.0,0
1725024992,18.5633367,73.8332333,503.9,24.689690721649484,97,33.5360824742268,145.27835051546393,-1.0,-82.0,178.0,0
1725024993,18.5633367,73.8332333,503.9,24.784536082474226,97,33.5360824742268,145.27835051546393,-1.0,-82.0,178.0,0
1725024994,18.5633367,73.8332333,503.9,24.882474226804124,97,33.5360824742268,145.27835051546393,-1.0,-82.0,178.0,0
1725024995,18.5633367,73.8332333,503.9,24.696907216494843,97,33.23711340206186,145.69072164948454,-1.0,-82.0,178.0,0
1725024996,18.5633367,73.8332333,503.9,24.895876288659796,97,33.23711340206186,145.69072164948454,-1.0,-82.0,178.0,0
1725024997,18.5633367,73.8332333,503.9,24.824742268041238,97,32.855670103092784,146.93814432989691,-1.0,-82.0,178.0,0
1725024998,18.5633367,73.8332333,503.9,24.802061855670104,97,32.845360824742265,146.93814432989691,-1.0,-82.0,178.0,0
1725024999,18.5633367,73.8332333,503.9,24.756701030927836,97,32.845360824742265,146.93814432989691,-1.0,-82.0,178.0,0
1725025000,18.5633367,73.8332333,503.9,24.782474226804126,97,32.845360824742265,146.9278350515464,-1.0,-82.0,178.0,0
1725025001,18.5633367,73.8332333,503.9,24.558762886597936,97,32.54639175257732,144.42268041237114,-1.0,-82.0,178.0,0
1725025002,18.5633367,73.8332333,503.9,24.79175257731959,97,32.54639175257732,144.42268041237114,-1.0,-82.0,178.0,0
1725025003,18.5633367,73.8332333,503.9,24.922680412371133,97,32.54639175257732,144.42268041237114,-1.0,-82.0,178.0,0
1725025004,18.5633367,73.8332333,503.9,24.95773195876289,97,32.28865979381443,142.8041237113402,-1.0,-82.0,178.0,0
1725025005,18.5633367,73.8332333,503.9,24.89381443298969,97,32.28865979381443,142.8041237113402,-1.0,-82.0,178.0,0
1725025006,18.5633367,73.8332333,503.9,24.88556701030928,97,32.154639175257735,140.20618556701032,-1.0,-82.0,178.0,0
1725025007,18.5633367,73.8332333,503.9,24.883505154639174,97,32.154639175257735,140.20618556701032,-1.0,-82.0,178.0,0
1725025008,18.5633367,73.8332333,503.9,24.851546391752578,97,32.134020618556704,140.2164948453608,-1.0,-82.0,178.0,0
1725025009,18.5633367,73.8332333,503.9,24.88144329896907,97,32.134020618556704,140.22680412371133,-1.0,-82.0,178.0,0
1725025010,18.5633367,73.8332333,503.9,24.963917525773194,97,31.917525773195877,140.23711340206185,-1.0,-82.0,178.0,0
1725025011,18.5633367,73.8332333,503.9,24.841237113402062,97,31.90721649484536,140.23711340206185,-1.0,-82.0,178.0,0
1725025012,18.5633367,73.8332333,503.9,24.432989690721648,97,31.90721649484536,140.23711340206185,-1.0,-82.0,178.0,0
1725025013,18.5633367,73.8332333,503.9,24.535051546391752,97,31.90721649484536,140.23711340206185,-1.0,-82.0,178.0,0
1725025014,18.5633367,73.8332333,503.9,24.686597938144327,97,31.79381443298969,139.2680412371134,-1.0,-82.0,178.0,0
1725025015,18.5633367,73.8332333,503.9,24.65408163265306,98,31.581632653061224,138.19387755102042,-1.0,-82.0,178.0,0
1725025016,18.5633367,73.8332333,503.9,24.515463917525775,97,31.68041237113402,138.31958762886597,-1.0,-82.0,178.0,0
1725025017,18.5633367,73.8332333,503.9,24.342268041237112,97,31.68041237113402,138.31958762886597,-1.0,-82.0,178.0,0
1725025018,18.5633367,73.8332333,503.9,24.685567010309278,97,31.65979381443299,138.340206185567,-1.0,-82.0,178.0,0
1725025019,18.5633367,73.8332333,503.9,24.307216494845363,97,31.65979381443299,138.340206185567,-1.0,-82.0,178.0,0
1725025020,18.5633367,73.8332333,503.9,24.59278350515464,97,31.65979381443299,138.340206185567,-1.0,-82.0,178.0,0
1725025021,18.5633367,73.8332333,503.9,24.576288659793814,97,31.670103092783506,138.3298969072165,-1.0,-82.0,178.0,0
1725025022,18.5633367,73.8332333,503.9,24.52061855670103,97,31.670103092783506,138.3298969072165,0.0,-82.0,178.0,0
1725025023,18.5633367,73.8332333,503.9,25.00618556701031,97,31.670103092783506,138.3298969072165,-1.0,-82.0,178.0,0
1725025024,18.5633367,73.8332333,503.9,25.076288659793814,97,31.670103092783506,138.31958762886597,-1.0,-82.0,178.0,0
1725025025,18.5633367,73.8332333,503.9,24.95257731958763,97,31.690721649484537,138.31958762886597,-1.0,-82.0,178.0,0
1725025026,18.5633367,73.8332333,503.9,25.02164948453608,97,31.670103092783506,138.340206185567,-1.0,-82.0,178.0,0
1725025027,18.5633367,73.8332333,503.9,24.784536082474226,97,31.670103092783506,138.31958762886597,-1.0,-82.0,178.0,0
1725025028,18.5633367,73.8332333,503.9,24.806185567010306,97,31.670103092783506,138.31958762886597,-1.0,-82.0,178.0,0
1725025029,18.5633367,73.8332333,503.9,25.052577319587627,97,31.670103092783506,138.31958762886597,-1.0,-82.0,178.0,0
1725025030,18.5633367,73.8332333,503.9,24.971134020618553,97,31.670103092783506,138.340206185567,-1.0,-82.0,178.0,0
1725025031,18.5633367,73.8332333,503.9,24.90416666666667,96,31.989583333333332,138.11458333333334,-1.0,-82.0,178.0,0
1725025032,18.5633367,73.8332333,503.9,24.484375,96,31.989583333333332,138.13541666666666,-1.0,-82.0,178.0,0
1725025033,18.5633367,73.8332333,503.9,24.444791666666664,96,32.010416666666664,138.13541666666666,-1.0,-82.0,178.0,0
1725025034,18.5633367,73.8332333,503.9,24.447916666666668,96,32.677083333333336,140.32291666666666,-1.0,-82.0,178.0,0
1725025035,18.5633367,73.8332333,503.9,24.70520833333333,96,33.291666666666664,142.6875,-1.0,-82.0,178.0,0
1725025036,18.5633367,73.8332333,503.9,24.739583333333332,96,33.291666666666664,142.66666666666666,-1.0,-82.0,178.0,0
1725025037,18.5633367,73.8332333,503.9,24.858333333333334,96,33.291666666666664,142.66666666666666,-1.0,-82.0,178.0,0
1725025038,18.5633367,73.8332333,503.9,24.804166666666664,96,33.791666666666664,145.19791666666666,-1.0,-82.0,178.0,0
1725025039,18.5633367,73.8332333,503.9,24.25,96,33.791666666666664,145.19791666666666,-1.0,-82.0,178.0,0
1725025040,18.5633367,73.8332333,503.9,24.16875,96,33.791666666666664,145.19791666666666,-1.0,-82.0,178.0,0
1725025041,18.5633367,73.8332333,503.9,24.12708333333333,96,33.791666666666664,145.19791666666666,-1.0,-82.0,178.0,0
1725025042,18.5633367,73.8332333,503.9,24.161458333333332,96,33.791666666666664,145.19791666666666,-1.0,-82.0,178.0,0
1725025043,18.5633367,73.8332333,503.9,24.33020833333333,96,33.489583333333336,145.61458333333334,-1.0,-82.0,178.0,0
1725025044,18.5633367,73.8332333,503.9,24.471875,96,33.489583333333336,145.61458333333334,-1.0,-82.0,178.0,0
1725025045,18.5633367,73.8332333,503.9,24.2625,96,33.104166666666664,146.875,-1.0,-82.0,178.0,0
1725025046,18.5633367,73.8332333,503.9,24.484375,96,33.104166666666664,146.875,-1.0,-82.0,178.0,0
1725025047,18.5633367,73.8332333,503.9,24.60729166666667,96,33.104166666666664,146.875,-1.0,-82.0,178.0,0
1725025048,18.5633367,73.8332333,503.9,24.568749999999998,96,32.802083333333336,144.34375,-1.0,-82.0,178.0,0
1725025049,18.5633367,73.8332333,503.9,24.573958333333334,96,32.802083333333336,144.34375,-1.0,-82.0,178.0,0
1725025050,18.5633367,73.8332333,503.9,24.664583333333336,96,32.802083333333336,144.33333333333334,-1.0,-82.0,178.0,0
1725025051,18.5633367,73.8332333,503.9,24.625,96,32.791666666666664,144.34375,-1.0,-82.0,178.0,0
1725025052,18.5633367,73.8332333,503.9,24.67395833333333,96,32.520833333333336,142.71875,-1.0,-82.0,178.0,0
1725025053,18.5633367,73.8332333,503.9,24.613541666666666,96,32.520833333333336,142.71875,-1.0,-82.0,178.0,0
1725025054,18.5633367,73.8332333,503.9,24.597916666666666,96,32.520833333333336,142.71875,-1.0,-82.0,178.0,0
1725025055,18.5633367,73.8332333,503.9,24.386458333333334,96,32.385416666666664,140.09375,-1.0,-82.0,178.0,0
1725025056,18.5633367,73.8332333,503.9,24.708333333333332,96,32.385416666666664,140.09375,-1.0,-82.0,178.0,0
1725025057,18.5633367,73.8332333,503.9,24.589583333333334,96,32.875,142.28125,-1.0,-82.0,178.0,0
1725025058,18.5633367,73.8332333,503.9,24.703125,96,32.875,142.28125,-1.0,-82.0,178.0,0
1725025059,18.5633367,73.8332333,503.9,24.605208333333334,96,32.875,142.28125,-1.0,-82.0,178.0,0
1725025060,18.5633367,73.8332333,503.9,24.848958333333332,96,32.875,142.28125,-1.0,-82.0,178.0,0
1725025061,18.5633367,73.8332333,503.9,25.078125,96,33.375,143.66666666666666,-1.0,-82.0,178.0,0
1725025062,18.5633367,73.8332333,503.9,24.842708333333334,96,33.375,143.66666666666666,0.0,-82.0,178.0,0
1725025063,18.5633367,73.8332333,503.9,24.759375000000002,96,33.375,143.66666666666666,-1.0,-82.0,178.0,0
1725025064,18.5633367,73.8332333,503.9,25.1125,96,33.78125,145.19791666666666,-1.0,-82.0,178.0,0
1725025065,18.5633367,73.8332333,503.9,25.245833333333334,96,33.78125,145.1875,-1.0,-82.0,178.0,0
1725025066,18.5633367,73.8332333,503.9,25.221875,96,33.78125,145.1875,0.0,-82.0,178.0,0
1725025067,18.5633367,73.8332333,503.9,25.085416666666664,96,33.479166666666664,145.60416666666666,0.0,-82.0,178.0,0
1725025068,18.5633367,73.8332333,503.9,25.117708333333336,96,33.479166666666664,145.60416666666666,0.0,-82.0,178.0,0
1725025069,18.5633367,73.8332333,503.9,25.05578947368421,95,33.8,146.33684210526314,-1.0,-82.0,178.0,0
1725025070,18.5633367,73.8332333,503.9,24.191666666666666,96,33.09375,146.86458333333334,-1.0,-82.0,178.0,0
1725025071,18.5633367,73.8332333,503.9,24.442708333333332,96,33.09375,146.86458333333334,0.0,-82.0,178.0,0
1725025072,18.5633367,73.8332333,503.9,24.126041666666666,96,33.09375,146.85416666666666,0.0,-82.0,178.0,0
1725025073,18.5633367,73.8332333,503.9,24.059375,96,33.072916666666664,146.83333333333334,-1.0,-82.0,178.0,0
1725025074,18.5633367,73.8332333,503.9,24.152083333333334,96,32.791666666666664,144.34375,-1.0,-82.0,178.0,0
1725025075,18.5633367,73.8332333,503.9,24.409375,96,32.791666666666664,144.34375,-1.0,-82.0,178.0,0
1725025076,18.5633367,73.8332333,503.9,24.40833333333333,96,32.520833333333336,142.71875,0.0,-82.0,178.0,0
1725025077,18.5633367,73.8332333,503.9,24.722916666666666,96,32.520833333333336,142.73958333333334,-1.0,-82.0,178.0,0
1725025078,18.5633367,73.8332333,503.9,24.625,96,32.541666666666664,142.71875,-1.0,-82.0,178.0,0
1725025079,18.5633367,73.8332333,503.9,24.31041666666667,96,32.447916666666664,140.11458333333334,-1.0,-82.0,178.0,0
1725025080,18.5633367,73.8332333,503.9,24.340625,96,32.447916666666664,140.11458333333334,-1.0,-82.0,178.0,0
1725025081,18.5633367,73.8332333,503.9,24.353125000000002,96,32.447916666666664,140.11458333333334,-1.0,-82.0,178.0,0
1725025082,18.5633367,73.8332333,503.9,24.148958333333336,96,32.447916666666664,140.11458333333334,-1.0,-82.0,178.0,0
1725025083,18.5633367,73.8332333,503.9,24.29895833333333,96,32.25,140.11458333333334,-1.0,-82.0,178.0,0
1725025084,18.5633367,73.8332333,503.9,23.982474226804126,97,31.927835051546392,140.94845360824743,-1.0,-82.0,178.0,0
1725025085,18.5633367,73.8332333,503.9,24.014285714285716,98,31.551020408163264,141.35714285714286,-1.0,-82.0,178.0,0
1725025086,18.5633367,73.8332333,503.9,24.220408163265304,98,31.540816326530614,141.35714285714286,-1.0,-82.0,178.0,0
1725025087,18.5633367,73.8332333,503.9,24.531632653061223,98,31.540816326530614,141.35714285714286,-1.0,-82.0,178.0,0
1725025088,18.5633367,73.8332333,503.9,24.508163265306123,98,31.448979591836736,140.37755102040816,-1.0,-82.0,178.0,0
1725025089,18.5633367,73.8332333,503.9,24.371428571428574,98,31.448979591836736,140.37755102040816,0.0,-82.0,178.0,0
1725025090,18.5633367,73.8332333,503.9,24.636734693877553,98,31.448979591836736,140.37755102040816,-1.0,-82.0,178.0,0
1725025091,18.5633367,73.8332333,503.9,24.76938775510204,98,31.448979591836736,140.3673469387755,-1.0,-82.0,178.0,0
1725025092,18.5633367,73.8332333,503.9,24.498979591836736,98,31.448979591836736,140.3673469387755,-1.0,-82.0,178.0,0
1725025093,18.5633367,73.8332333,503.9,24.546938775510203,98,31.448979591836736,140.3673469387755,-1.0,-82.0,178.0,0
1725025094,18.5633367,73.8332333,503.9,24.790816326530614,98,31.448979591836736,140.3673469387755,-1.0,-82.0,178.0,0
1725025095,18.5633367,73.8332333,503.9,24.511224489795918,98,31.448979591836736,140.3673469387755,-1.0,-82.0,178.0,0
1725025096,18.5633367,73.8332333,503.9,24.651020408163266,98,32.11224489795919,142.51020408163265,-1.0,-82.0,178.0,0
1725025097,18.5633367,73.8332333,503.9,24.639795918367344,98,32.714285714285715,144.80612244897958,-1.0,-82.0,178.0,0
1725025098,18.5633367,73.8332333,503.9,24.701020408163263,98,32.714285714285715,144.80612244897958,0.0,-82.0,178.0,0
1725025099,18.5633367,73.8332333,503.9,24.63877551020408,98,32.714285714285715,144.80612244897958,-1.0,-82.0,178.0,0
1725025100,18.5633367,73.8332333,503.9,24.58469387755102,98,32.714285714285715,144.8265306122449,-1.0,-82.0,178.0,0
1725025101,18.5633367,73.8332333,503.9,24.31122448979592,98,33.204081632653065,147.31632653061226,-1.0,-82.0,178.0,0
1725025102,18.5633367,73.8332333,503.9,24.41122448979592,98,33.204081632653065,147.31632653061226,-1.0,-82.0,178.0,0
1725025103,18.5633367,73.8332333,503.9,24.705102040816325,98,33.204081632653065,147.31632653061226,0.0,-82.0,178.0,0
1725025104,18.5633367,73.8332333,503.9,24.6234693877551,98,33.204081632653065,147.29591836734693,-1.0,-82.0,178.0,0
1725025105,18.5633367,73.8332333,503.9,24.70714285714286,98,32.90816326530612,147.70408163265307,-1.0,-82.0,178.0,0
1725025106,18.5633367,73.8332333,503.9,24.420408163265304,98,32.52040816326531,148.9387755102041,-1.0,-82.0,178.0,0
1725025107,18.5633367,73.8332333,503.9,24.464285714285715,98,32.52040816326531,148.9387755102041,-1.0,-82.0,178.0,0
1725025108,18.5633367,73.8332333,503.9,24.632653061224488,98,32.52040816326531,148.9387755102041,-1.0,-82.0,178.0,0
1725025109,18.5633367,73.8332333,503.9,24.39183673469388,98,32.52040816326531,148.9387755102041,0.0,-82.0,178.0,0
1725025110,18.5633367,73.8332333,503.9,24.327551020408162,98,32.224489795918366,146.4591836734694,-1.0,-82.0,178.0,0
1725025111,18.5633367,73.8332333,503.9,24.244897959183675,98,32.244897959183675,146.5,0.0,-82.0,178.0,0
1725025112,18.5633367,73.8332333,503.9,23.960824742268038,97,32.5360824742268,145.18556701030928,-1.0,-82.0,178.0,0
1725025113,18.5633367,73.8332333,503.9,23.883505154639174,97,32.5360824742268,145.18556701030928,-1.0,-82.0,178.0,0
1725025114,18.5633367,73.8332333,503.9,24.38762886597938,97,32.5360824742268,145.22680412371133,-1.0,-82.0,178.0,0
1725025115,18.5633367,73.8332333,503.9,24.342268041237112,97,32.134020618556704,141.02061855670104,-1.0,-82.0,178.0,0
1725025116,18.5633367,73.8332333,503.9,24.536082474226806,97,32.134020618556704,141.02061855670104,0.0,-82.0,178.0,0
1725025117,18.5633367,73.8332333,503.9,24.2680412371134,97,32.144329896907216,141.02061855670104,0.0,-82.0,178.0,0
1725025118,18.5633367,73.8332333,503.9,23.890721649484536,97,32.144329896907216,141.04123711340208,0.0,-82.0,178.0,0
1725025119,18.5633367,73.8332333,503.9,24.137113402061857,97,32.144329896907216,141.04123711340208,0.0,-82.0,178.0,0
1725025120,18.5633367,73.8332333,503.9,24.124742268041235,97,31.948453608247423,141.04123711340208,-1.0,-82.0,178.0,0
1725025121,18.5633367,73.8332333,503.9,24.15567010309278,97,31.948453608247423,141.04123711340208,-1.0,-82.0,178.0,0
1725025122,18.5633367,73.8332333,503.9,22.93736263736264,91,32.120879120879124,139.98901098901098,-1.0,-82.0,178.0,0
1725025123,18.5633367,73.8332333,503.9,23.641304347826086,92,32.28260869565217,141.93478260869566,-1.0,-82.0,178.0,0
1725025124,18.5633367,73.8332333,503.9,23.584374999999998,96,32.15625,138.82291666666666,-1.0,-82.0,178.0,0
1725025125,18.5633367,73.8332333,503.9,23.682291666666668,96,32.15625,138.82291666666666,-1.0,-82.0,178.0,0
1725025126,18.5633367,73.8332333,503.9,23.836458333333336,96,32.15625,138.82291666666666,-1.0,-82.0,178.0,0
1725025127,18.5633367,73.8332333,503.9,24.019791666666666,96,32.15625,138.82291666666666,-1.0,-82.0,178.0,0
1725025128,18.5633367,73.8332333,503.9,24.021874999999998,96,32.15625,138.82291666666666,-1.0,-82.0,178.0,0
1725025129,18.5633367,73.8332333,503.9,23.81458333333333,96,32.15625,138.82291666666666,-1.0,-82.0,178.0,0
1725025130,18.5633367,73.8332333,503.9,23.93541666666667,96,32.15625,138.82291666666666,-1.0,-82.0,178.0,0
1725025131,18.5633367,73.8332333,503.9,23.942708333333332,96,32.15625,138.82291666666666,-1.0,-82.0,178.0,0
1725025132,18.5633367,73.8332333,503.9,23.922916666666666,96,32.15625,138.82291666666666,-1.0,-82.0,178.0,0
1725025133,18.5633367,73.8332333,503.9,23.77916666666667,96,32.135416666666664,138.82291666666666,-1.0,-82.0,178.0,0
1725025134,18.5633367,73.8332333,503.9,23.75,96,32.09375,138.80208333333334,-1.0,-82.0,178.0,0
1725025135,18.5633367,73.8332333,503.9,23.723958333333332,96,32.09375,138.80208333333334,-1.0,-82.0,178.0,0
1725025136,18.5633367,73.8332333,503.9,23.866666666666664,96,32.09375,138.80208333333334,-1.0,-82.0,178.0,0
1725025137,18.5633367,73.8332333,503.9,24.209374999999998,96,32.09375,138.80208333333334,-1.0,-82.0,178.0,0
1725025138,18.5633367,73.8332333,503.9,24.103125000000002,96,32.09375,138.80208333333334,-1.0,-82.0,178.0,0
1725025139,18.5633367,73.8332333,503.9,24.241666666666664,96,32.09375,138.80208333333334,-1.0,-82.0,178.0,0
1725025140,18.5633367,73.8332333,503.9,24.719791666666666,96,32.09375,138.80208333333334,-1.0,-82.0,178.0,0
1725025141,18.5633367,73.8332333,503.9,24.840625,96,32.270833333333336,140.79166666666666,-1.0,-82.0,178.0,0
1725025142,18.5633367,73.8332333,503.9,24.760416666666668,96,32.270833333333336,140.82291666666666,0.0,-82.0,178.0,0
1725025143,18.5633367,73.8332333,503.9,24.569791666666664,96,32.260416666666664,140.83333333333334,-1.0,-82.0,178.0,0
1725025144,18.5633367,73.8332333,503.9,24.64270833333333,96,32.270833333333336,140.86458333333334,-1.0,-82.0,178.0,0
1725025145,18.5633367,73.8332333,503.9,25.120833333333334,96,32.270833333333336,140.88541666666666,-1.0,-82.0,178.0,0
1725025146,18.5633366667,73.8332333333,503.9,25.016666666666666,96,32.260416666666664,140.92708333333334,-1.0,-82.0,178.0,0
1725025147,18.5633367,73.8332333,503.9,25.086458333333336,96,32.25,141.03125,-1.0,-82.0,178.0,0
1725025148,18.5633367,73.8332333,503.9,25.118750000000002,96,32.270833333333336,141.05208333333334,-1.0,-82.0,178.0,0
1725025149,18.5633367,73.8332333,503.9,25.161458333333332,96,32.270833333333336,141.07291666666666,-1.0,-82.0,178.0,0
1725025150,18.5633367,73.8332333,503.9,25.367708333333336,96,32.270833333333336,141.09375,-1.0,-82.0,178.0,0
1725025151,18.5633367,73.8332333,503.9,25.344791666666666,96,32.270833333333336,141.11458333333334,-1.0,-82.0,178.0,0
1725025152,18.5633367,73.8332333,503.9,25.190625,96,32.270833333333336,141.13541666666666,-1.0,-82.0,178.0,0
1725025153,18.5633367,73.8332333,503.9,25.417708333333334,96,32.270833333333336,141.15625,-1.0,-82.0,178.0,0
1725025154,18.5633367,73.8332333,503.9,25.390625,96,32.958333333333336,143.35416666666666,-1.0,-82.0,178.0,0
1725025155,18.5633367,73.8332333,503.9,25.375,96,32.958333333333336,143.375,-1.0,-82.0,178.0,0
1725025156,18.5633367,73.8332333,503.9,25.458333333333332,96,32.958333333333336,143.38541666666666,-1.0,-82.0,178.0,0
1725025157,18.5633367,73.8332333,503.9,25.282291666666666,96,33.5625,145.77083333333334,-1.0,-82.0,178.0,0
1725025158,18.5633367,73.8332333,503.9,25.670833333333334,96,33.552083333333336,145.8125,-1.0,-82.0,178.0,0
1725025159,18.5633367,73.8332333,503.9,25.85625,96,33.5625,145.84375,-1.0,-82.0,178.0,0
1725025160,18.5633367,73.8332333,503.9,25.770833333333332,96,33.5625,145.85416666666666,-1.0,-82.0,178.0,0
1725025161,18.5633367,73.8332333,503.9,25.631249999999998,96,33.5625,145.86458333333334,-1.0,-82.0,178.0,0
1725025162,18.5633367,73.8332333,503.9,25.809375,96,33.552083333333336,145.875,-1.0,-82.0,178.0,0
1725025163,18.5633367,73.8332333,503.9,25.890625,96,33.46875,145.0625,-1.0,-82.0,178.0,0
1725025164,18.5633367,73.8332333,503.9,25.99791666666667,96,33.46875,145.07291666666666,-1.0,-82.0,178.0,0
1725025165,18.5633367,73.8332333,503.9,25.962500000000002,96,33.46875,145.08333333333334,-1.0,-82.0,178.0,0
1725025166,18.5633367,73.8332333,503.9,26.214583333333334,96,33.46875,145.09375,-1.0,-82.0,178.0,0
1725025167,18.5633367,73.8332333,503.9,26.240624999999998,96,33.354166666666664,145.27083333333334,-1.0,-82.0,178.0,0
1725025168,18.5633367,73.8332333,503.9,26.159375,96,33.354166666666664,145.27083333333334,-1.0,-82.0,178.0,0
1725025169,18.5633367,73.8332333,503.9,26.059375,96,33.354166666666664,145.28125,-1.0,-82.0,178.0,0
1725025170,18.5633367,73.8332333,503.9,26.239583333333332,96,33.34375,145.29166666666666,-1.0,-82.0,178.0,0
1725025171,18.5633367,73.8332333,503.9,26.280208333333334,96,33.34375,145.29166666666666,-1.0,-82.0,178.0,0
1725025172,18.5633367,73.8332333,503.9,26.12291666666667,96,33.125,146.54166666666666,-1.0,-82.0,178.0,0
1725025173,18.5633367,73.8332333,503.9,26.153125,96,33.125,146.55208333333334,-1.0,-82.0,178.0,0
1725025174,18.5633367,73.8332333,503.9,26.2625,96,33.125,146.55208333333334,-1.0,-82.0,178.0,0
1725025175,18.5633367,73.8332333,503.9,26.248958333333334,96,33.125,146.57291666666666,0.0,-82.0,178.0,0
1725025176,18.5633367,73.8332333,503.9,26.209374999999998,96,32.822916666666664,144.04166666666666,-1.0,-82.0,178.0,0
1725025177,18.5633367,73.8332333,503.9,26.125,96,32.8125,144.05208333333334,-1.0,-82.0,178.0,0
1725025178,18.5633367,73.8332333,503.9,26.228125000000002,96,32.8125,144.0625,-1.0,-82.0,178.0,0
1725025179,18.5633367,73.8332333,503.9,26.2,96,32.822916666666664,144.07291666666666,-1.0,-82.0,178.0,0
1725025180,18.5633367,73.8332333,503.9,26.287499999999998,96,32.8125,144.0625,-1.0,-82.0,178.0,0
1725025181,18.5633367,73.8332333,503.9,26.180208333333336,96,32.541666666666664,142.44791666666666,-1.0,-82.0,178.0,0
1725025182,18.5633367,73.8332333,503.9,26.186458333333334,96,32.53125,142.44791666666666,-1.0,-82.0,178.0,0
1725025183,18.5633367,73.8332333,503.9,26.159375,96,32.53125,142.45833333333334,-1.0,-82.0,178.0,0
1725025184,18.5633367,73.8332333,503.9,26.15416666666667,96,32.520833333333336,142.46875,-1.0,-82.0,178.0,0
1725025185,18.5633367,73.8332333,503.9,26.129166666666666,96,33.010416666666664,144.65625,-1.0,-82.0,178.0,0
1725025186,18.5633367,73.8332333,503.9,26.309375,96,33.0,144.67708333333334,-1.0,-82.0,178.0,0
1725025187,18.5633367,73.8332333,503.9,26.21875,96,33.0,144.67708333333334,-1.0,-82.0,178.0,0
1725025188,18.5633367,73.8332333,503.9,26.133333333333336,96,33.0,144.67708333333334,-1.0,-82.0,178.0,0
1725025189,18.5633367,73.8332333,503.9,25.964583333333334,96,33.0,144.6875,0.0,-82.0,178.0,0
1725025190,18.5633367,73.8332333,503.9,25.974999999999998,96,33.5,146.07291666666666,-1.0,-82.0,178.0,0
1725025191,18.5633367,73.8332333,503.9,25.929166666666664,96,33.5,146.07291666666666,-1.0,-82.0,178.0,0
1725025192,18.5633367,73.8332333,503.9,26.001041666666666,96,33.489583333333336,146.125,-1.0,-82.0,178.0,0
1725025193,18.5633367,73.8332333,503.9,25.846875,96,33.489583333333336,146.125,-1.0,-82.0,178.0,0
1725025194,18.5633367,73.8332333,503.9,25.806250000000002,96,33.40625,145.32291666666666,-1.0,-82.0,178.0,0
1725025195,18.5633367,73.8332333,503.9,25.917708333333334,96,33.40625,145.33333333333334,-1.0,-82.0,178.0,0
1725025196,18.5633367,73.8332333,503.9,25.99791666666667,96,33.40625,145.33333333333334,-1.0,-82.0,178.0,0
1725025197,18.5633367,73.8332333,503.9,25.834374999999998,96,33.40625,145.32291666666666,-1.0,-82.0,178.0,0
1725025198,18.5633366667,73.8332333333,503.9,25.946875000000002,96,33.40625,145.32291666666666,-1.0,-82.0,178.0,0
1725025199,18.5633367,73.8332333,503.9,25.743750000000002,96,33.291666666666664,145.5,-1.0,-82.0,178.0,0
1725025200,18.5633367,73.8332333,503.9,25.623958333333334,96,33.302083333333336,145.47916666666666,-1.0,-82.0,178.0,0
1725025201,18.5633367,73.8332333,503.9,25.791666666666668,96,33.28125,144.60416666666666,0.0,-82.0,178.0,0
1725025202,18.5633367,73.8332333,503.9,25.708333333333332,96,33.3125,144.77083333333334,-1.0,-82.0,178.0,0
1725025203,18.5633367,73.8332333,503.9,25.807291666666668,96,33.104166666666664,146.02083333333334,-1.0,-82.0,178.0,0
1725025204,18.5633367,73.8332333,503.9,25.550515463917527,97,32.824742268041234,147.39175257731958,-1.0,-82.0,178.0,0
1725025205,18.5633367,73.8332333,503.9,25.62680412371134,97,32.83505154639175,147.42268041237114,0.0,-82.0,178.0,0
1725025206,18.5633367,73.8332333,503.9,25.647422680412372,97,32.855670103092784,147.4742268041237,-1.0,-82.0,178.0,0
1725025207,18.5633367,73.8332333,503.9,25.656701030927834,97,32.855670103092784,147.49484536082474,-1.0,-82.0,178.0,0
1725025208,18.5633367,73.8332333,503.9,25.828865979381444,97,32.56701030927835,145.02061855670104,-1.0,-82.0,178.0,0
1725025209,18.5633367,73.8332333,503.9,25.900000000000002,97,32.56701030927835,145.02061855670104,-1.0,-82.0,178.0,0
1725025210,18.5633367,73.8332333,503.9,25.557731958762886,97,32.54639175257732,145.0721649484536,-1.0,-82.0,178.0,0
1725025211,18.5633367,73.8332333,503.9,25.68041237113402,97,32.54639175257732,145.09278350515464,-1.0,-82.0,178.0,0
1725025212,18.5633367,73.8332333,503.9,25.694845360824743,97,32.29896907216495,143.48453608247422,-1.0,-82.0,178.0,0
1725025213,18.5633367,73.8332333,503.9,26.030927835051546,97,32.29896907216495,143.50515463917526,-1.0,-82.0,178.0,0
1725025214,18.5633367,73.8332333,503.9,26.248958333333334,96,32.572916666666664,142.14583333333334,-1.0,-82.0,178.0,0
1725025215,18.5633367,73.8332333,503.9,25.989690721649485,97,32.29896907216495,143.5463917525773,-1.0,-82.0,178.0,0
1725025216,18.5633367,73.8332333,503.9,25.516494845360825,97,32.29896907216495,143.56701030927834,-1.0,-82.0,178.0,0
1725025217,18.5633367,73.8332333,503.9,25.580412371134024,97,32.103092783505154,143.58762886597938,-1.0,-82.0,178.0,0
1725025218,18.5633367,73.8332333,503.9,25.583505154639173,97,32.103092783505154,143.5979381443299,-1.0,-82.0,178.0,0
1725025219,18.5633367,73.8332333,503.9,25.530927835051546,97,32.103092783505154,143.61855670103094,-1.0,-82.0,178.0,0
1725025220,18.5633367,73.8332333,503.9,25.46701030927835,97,32.103092783505154,143.62886597938143,-1.0,-82.0,178.0,0
1725025221,18.5633367,73.8332333,503.9,25.52061855670103,97,32.103092783505154,143.63917525773195,-1.0,-82.0,178.0,0
1725025222,18.5633367,73.8332333,503.9,25.742708333333336,96,32.260416666666664,141.30208333333334,-1.0,-82.0,178.0,0
1725025223,18.5633367,73.8332333,503.9,25.945833333333336,96,32.260416666666664,141.3125,-1.0,-82.0,178.0,0
1725025224,18.5633367,73.8332333,503.9,26.005208333333332,96,32.260416666666664,141.32291666666666,-1.0,-82.0,178.0,0
1725025225,18.5633367,73.8332333,503.9,26.443749999999998,96,32.260416666666664,141.33333333333334,-1.0,-82.0,178.0,0
1725025226,18.5633367,73.8332333,503.9,26.286458333333332,96,32.239583333333336,141.33333333333334,-1.0,-82.0,178.0,0
1725025227,18.5633367,73.8332333,503.9,26.265625,96,32.229166666666664,141.35416666666666,-1.0,-82.0,178.0,0
1725025228,18.5633367,73.8332333,503.9,26.172916666666666,96,32.229166666666664,141.36458333333334,-1.0,-82.0,178.0,0
1725025229,18.5633367,73.8332333,503.9,26.152083333333334,96,32.229166666666664,141.375,-1.0,-82.0,178.0,0
1725025230,18.5633367,73.8332333,503.9,26.179166666666664,96,32.229166666666664,141.38541666666666,-1.0,-82.0,178.0,0
1725025231,18.5633367,73.8332333,503.9,26.208333333333332,96,32.229166666666664,141.39583333333334,-1.0,-82.0,178.0,0
1725025232,18.5633367,73.8332333,503.9,26.001041666666666,96,32.229166666666664,141.39583333333334,-1.0,-82.0,178.0,0
1725025233,18.5633367,73.8332333,503.9,26.215625,96,32.229166666666664,141.40625,-1.0,-82.0,178.0,0
1725025234,18.5633367,73.8332333,503.9,26.119791666666668,96,32.21875,141.42708333333334,0.0,-82.0,178.0,0
1725025235,18.5633367,73.8332333,503.9,26.109278350515464,97,31.948453608247423,142.81443298969072,-1.0,-82.0,178.0,0
1725025236,18.5633367,73.8332333,503.9,25.965979381443297,97,32.628865979381445,144.98969072164948,-1.0,-82.0,178.0,0
1725025237,18.5633367,73.8332333,503.9,26.215463917525774,97,32.628865979381445,145.0,-1.0,-82.0,178.0,0
1725025238,18.5633367,73.8332333,503.9,25.931958762886598,97,32.628865979381445,145.0,-1.0,-82.0,178.0,0
1725025239,18.5633367,73.8332333,503.9,25.771134020618558,97,32.628865979381445,145.01030927835052,-1.0,-82.0,178.0,0
1725025240,18.5633367,73.8332333,503.9,25.797938144329898,97,32.628865979381445,145.01030927835052,-1.0,-82.0,178.0,0
1725025241,18.5633367,73.8332333,503.9,25.827835051546394,97,33.22680412371134,147.35051546391753,-1.0,-82.0,178.0,0
1725025242,18.5633367,73.8332333,503.9,25.918556701030926,97,33.22680412371134,147.35051546391753,-1.0,-82.0,178.0,0
1725025243,18.5633367,73.8332333,503.9,25.863917525773196,97,33.22680412371134,147.36082474226805,-1.0,-82.0,178.0,0
1725025244,18.5633367,73.8332333,503.9,25.88144329896907,97,33.21649484536083,147.36082474226805,-1.0,-82.0,178.0,0
1725025245,18.5633367,73.8332333,503.9,26.072164948453608,97,33.21649484536083,147.37113402061857,-1.0,-82.0,178.0,0
1725025246,18.5633366667,73.8332333333,503.9,26.342268041237112,97,33.134020618556704,146.55670103092783,0.0,-82.0,178.0,0
1725025247,18.5633367,73.8332333,503.9,26.213402061855668,97,33.134020618556704,146.56701030927834,-1.0,-82.0,178.0,0
1725025248,18.5633367,73.8332333,503.9,26.489583333333332,96,33.447916666666664,147.29166666666666,-1.0,-82.0,178.0,0
1725025249,18.5633367,73.8332333,503.9,26.22783505154639,97,33.09278350515464,146.5257731958763,-1.0,-82.0,178.0,0
1725025250,18.5633367,73.8332333,503.9,26.20618556701031,97,33.0,146.76288659793815,-1.0,-82.0,178.0,0
1725025251,18.5633367,73.8332333,503.9,26.281443298969073,97,33.0,146.76288659793815,-1.0,-82.0,178.0,0
1725025252,18.5633367,73.8332333,503.9,26.083505154639173,97,33.0,146.76288659793815,-1.0,-82.0,178.0,0
1725025253,18.5633367,73.8332333,503.9,26.170103092783506,97,33.01030927835052,146.7835051546392,-1.0,-82.0,178.0,0
1725025254,18.5633367,73.8332333,503.9,26.10721649484536,97,33.03092783505155,146.7422680412371,-1.0,-82.0,178.0,0
1725025255,18.5633367,73.8332333,503.9,26.061855670103093,97,32.83505154639175,147.96907216494844,-1.0,-82.0,178.0,0
1725025256,18.5633367,73.8332333,503.9,25.84536082474227,97,32.824742268041234,147.97938144329896,-1.0,-82.0,178.0,0
1725025257,18.5633367,73.8332333,503.9,26.201030927835053,97,32.824742268041234,147.97938144329896,-1.0,-82.0,178.0,0
1725025258,18.5633367,73.8332333,503.9,26.25463917525773,97,32.824742268041234,147.97938144329896,-1.0,-82.0,178.0,0
1725025259,18.5633367,73.8332333,503.9,26.171134020618556,97,32.52577319587629,145.48453608247422,-1.0,-82.0,178.0,0
1725025260,18.5633367,73.8332333,503.9,26.47422680412371,97,32.5360824742268,145.49484536082474,0.0,-82.0,178.0,0
1725025261,18.5633367,73.8332333,503.9,26.461855670103095,97,32.5360824742268,145.49484536082474,0.0,-82.0,178.0,0
1725025262,18.5633367,73.8332333,503.9,26.331958762886597,97,32.51546391752577,145.49484536082474,-1.0,-82.0,178.0,0
1725025263,18.5633367,73.8332333,503.9,26.352577319587628,97,32.51546391752577,145.50515463917526,-1.0,-82.0,178.0,0
1725025264,18.5633367,73.8332333,503.9,26.483505154639175,97,32.24742268041237,143.89690721649484,-1.0,-82.0,178.0,0
1725025265,18.5633367,73.8332333,503.9,26.443298969072163,97,32.24742268041237,143.89690721649484,-1.0,-82.0,178.0,0
1725025266,18.5633367,73.8332333,503.9,26.424742268041236,97,32.24742268041237,143.89690721649484,0.0,-82.0,178.0,0
1725025267,18.5633367,73.8332333,503.9,26.50515463917526,97,32.20618556701031,143.04123711340208,-1.0,-82.0,178.0,0
1725025268,18.5633367,73.8332333,503.9,26.412371134020617,97,32.07216494845361,143.2680412371134,-1.0,-82.0,178.0,0
1725025269,18.5633367,73.8332333,503.9,26.47216494845361,97,32.08247422680412,143.29896907216494,-1.0,-82.0,178.0,0
1725025270,18.5633367,73.8332333,503.9,26.469072164948454,97,32.08247422680412,143.3298969072165,-1.0,-82.0,178.0,0
1725025271,18.5633367,73.8332333,503.9,26.36701030927835,97,32.08247422680412,143.35051546391753,-1.0,-82.0,178.0,0
1725025272,18.5633367,73.8332333,503.9,26.696875000000002,96,32.354166666666664,142.0,-1.0,-82.0,178.0,0
1725025273,18.5633367,73.8332333,503.9,26.376288659793815,97,32.08247422680412,143.36082474226805,-1.0,-82.0,178.0,0
1725025274,18.5633367,73.8332333,503.9,26.525000000000002,96,32.239583333333336,141.03125,-1.0,-82.0,178.0,0
1725025275,18.5633367,73.8332333,503.9,26.60729166666667,96,32.239583333333336,141.05208333333334,0.0,-82.0,178.0,0
1725025276,18.5633367,73.8332333,503.9,26.540625000000002,96,32.25,141.08333333333334,0.0,-82.0,178.0,0
1725025277,18.5633367,73.8332333,503.9,26.436458333333334,96,32.239583333333336,141.11458333333334,-1.0,-82.0,178.0,0
1725025278,18.5633367,73.8332333,503.9,26.489583333333332,96,32.239583333333336,141.13541666666666,-1.0,-82.0,178.0,0
1725025279,18.5633366667,73.8332333333,503.9,26.66875,96,32.239583333333336,141.15625,-1.0,-82.0,178.0,0
1725025280,18.5633367,73.8332333,503.9,26.317708333333332,96,32.239583333333336,141.17708333333334,-1.0,-82.0,178.0,0
1725025281,18.5633367,73.8332333,503.9,26.48125,96,32.239583333333336,141.19791666666666,-1.0,-82.0,178.0,0
1725025282,18.5633367,73.8332333,503.9,26.430208333333336,96,32.239583333333336,141.20833333333334,-1.0,-82.0,178.0,0
1725025283,18.5633367,73.8332333,503.9,26.446875000000002,96,32.239583333333336,141.22916666666666,0.0,-82.0,178.0,0
1725025284,18.5633367,73.8332333,503.9,26.64270833333333,96,32.239583333333336,141.23958333333334,-1.0,-82.0,178.0,0
1725025285,18.5633367,73.8332333,503.9,26.52916666666667,96,32.239583333333336,141.25,-1.0,-82.0,178.0,0
1725025286,18.5633367,73.8332333,503.9,26.34375,96,32.239583333333336,141.27083333333334,0.0,-82.0,178.0,0
1725025287,18.5633367,73.8332333,503.9,26.402083333333334,96,32.260416666666664,141.30208333333334,0.0,-82.0,178.0,0
1725025288,18.5633367,73.8332333,503.9,26.446875000000002,96,32.28125,141.33333333333334,-1.0,-82.0,178.0,0
1725025289,18.5633367,73.8332333,503.9,26.358333333333334,96,32.28125,141.34375,-1.0,-82.0,178.0,0
1725025290,18.5633367,73.8332333,503.9,26.257291666666664,96,32.270833333333336,141.39583333333334,-1.0,-82.0,178.0,0
1725025291,18.5633367,73.8332333,503.9,26.160416666666666,96,32.270833333333336,141.40625,-1.0,-82.0,178.0,0
1725025292,18.5633367,73.8332333,503.9,26.177083333333332,96,32.270833333333336,141.41666666666666,-1.0,-82.0,178.0,0
1725025293,18.5633367,73.8332333,503.9,26.289583333333336,96,32.28125,141.4375,-1.0,-82.0,178.0,0
1725025294,18.5633367,73.8332333,503.9,25.965625,96,32.260416666666664,141.46875,-1.0,-82.0,178.0,0
1725025295,18.5633367,73.8332333,503.9,26.161458333333332,96,32.260416666666664,141.47916666666666,-1.0,-82.0,178.0,0
1725025296,18.5633367,73.8332333,503.9,26.193749999999998,96,32.260416666666664,141.47916666666666,-1.0,-82.0,178.0,0
1725025297,18.5633367,73.8332333,503.9,26.06041666666667,96,32.260416666666664,141.48958333333334,-1.0,-82.0,178.0,0
1725025298,18.5633367,73.8332333,503.9,26.077083333333334,96,32.25,141.5,-1.0,-82.0,178.0,0
1725025299,18.5633367,73.8332333,503.9,25.993750000000002,96,32.25,141.5,-1.0,-82.0,178.0,0
1725025300,18.5633367,73.8332333,503.9,26.297916666666666,96,32.25,141.51041666666666,-1.0,-82.0,178.0,0
1725025301,18.5633367,73.8332333,503.9,26.171875,96,32.25,141.52083333333334,-1.0,-82.0,178.0,0
1725025302,18.5633367,73.8332333,503.9,26.03125,96,32.25,141.52083333333334,-1.0,-82.0,178.0,0
1725025303,18.5633367,73.8332333,503.9,25.940625,96,32.25,141.53125,-1.0,-82.0,178.0,0
1725025304,18.5633367,73.8332333,503.9,25.943749999999998,96,33.552083333333336,146.08333333333334,0.0,-82.0,178.0,0
1725025305,18.5633366667,73.8332333333,503.9,26.021874999999998,96,33.552083333333336,146.09375,-1.0,-82.0,178.0,0
1725025306,18.5633367,73.8332333,503.9,25.895833333333332,96,33.552083333333336,146.09375,-1.0,-82.0,178.0,0
1725025307,18.5633367,73.8332333,503.9,25.934375,96,33.552083333333336,146.10416666666666,-1.0,-82.0,178.0,0
1725025308,18.5633367,73.8332333,503.9,25.916666666666668,96,33.541666666666664,146.10416666666666,-1.0,-82.0,178.0,0
1725025309,18.5633367,73.8332333,503.9,25.998958333333334,96,33.541666666666664,146.11458333333334,0.0,-82.0,178.0,0
1725025310,18.5633367,73.8332333,503.9,26.295833333333334,96,33.520833333333336,146.09375,0.0,-82.0,178.0,0
1725025311,18.5633367,73.8332333,503.9,26.21875,96,33.520833333333336,146.10416666666666,0.0,-82.0,178.0,0
1725025312,18.5633367,73.8332333,503.9,26.223958333333332,96,33.520833333333336,146.10416666666666,0.0,-82.0,178.0,0
1725025313,18.5633367,73.8332333,503.9,26.0625,96,33.322916666666664,145.44791666666666,0.0,-82.0,178.0,0
1725025314,18.5633367,73.8332333,503.9,26.125,96,33.322916666666664,145.45833333333334,-1.0,-82.0,178.0,0
1725025315,18.5633367,73.8332333,503.9,26.094791666666666,96,33.322916666666664,145.45833333333334,-1.0,-82.0,178.0,0
1725025316,18.5633367,73.8332333,503.9,26.027083333333334,96,33.322916666666664,145.45833333333334,-1.0,-82.0,178.0,0
1725025317,18.5633367,73.8332333,503.9,26.057291666666668,96,33.322916666666664,145.46875,-1.0,-82.0,178.0,0
1725025318,18.5633366667,73.8332333333,503.9,26.07604166666667,96,33.322916666666664,145.46875,-1.0,-82.0,178.0,0
1725025319,18.5633367,73.8332333,503.9,26.175,96,33.322916666666664,145.45833333333334,0.0,-82.0,178.0,0
1725025320,18.5633367,73.8332333,503.9,26.130208333333332,96,33.3125,145.46875,-1.0,-82.0,178.0,0
1725025321,18.5633367,73.8332333,503.9,26.12708333333333,96,33.3125,145.46875,-1.0,-82.0,178.0,0
1725025322,18.5633367,73.8332333,503.9,25.905208333333334,96,32.770833333333336,144.1875,-1.0,-82.0,178.0,0
1725025323,18.5633367,73.8332333,503.9,26.065625,96,32.770833333333336,144.29166666666666,-1.0,-82.0,178.0,0
1725025324,18.5633367,73.8332333,503.9,26.136458333333334,96,32.78125,144.29166666666666,-1.0,-82.0,178.0,0
1725025325,18.5633367,73.8332333,503.9,26.195833333333336,96,32.78125,144.29166666666666,-1.0,-82.0,178.0,0
1725025326,18.5633367,73.8332333,503.9,26.311458333333334,96,32.78125,144.29166666666666,-1.0,-82.0,178.0,0
1725025327,18.5633367,73.8332333,503.9,26.221875,96,32.739583333333336,143.44791666666666,0.0,-82.0,178.0,0
1725025328,18.5633367,73.8332333,503.9,26.085416666666664,96,32.770833333333336,143.55208333333334,-1.0,-82.0,178.0,0
1725025329,18.5633367,73.8332333,503.9,26.034375,96,32.78125,143.58333333333334,-1.0,-82.0,178.0,0
1725025330,18.5633367,73.8332333,503.9,26.183333333333334,96,32.791666666666664,143.61458333333334,-1.0,-82.0,178.0,0
1725025331,18.5633367,73.8332333,503.9,26.226041666666664,96,32.802083333333336,143.64583333333334,-1.0,-82.0,178.0,0
1725025332,18.5633367,73.8332333,503.9,26.010416666666668,96,33.020833333333336,144.23958333333334,-1.0,-82.0,178.0,0
1725025333,18.5633367,73.8332333,503.9,26.054166666666664,96,33.020833333333336,144.28125,-1.0,-82.0,178.0,0
1725025334,18.5633367,73.8332333,503.9,26.070833333333336,96,33.010416666666664,144.33333333333334,-1.0,-82.0,178.0,0
1725025335,18.5633367,73.8332333,503.9,26.057291666666668,96,33.010416666666664,144.375,-1.0,-82.0,178.0,0
1725025336,18.5633367,73.8332333,503.9,25.994791666666668,96,33.020833333333336,144.40625,-1.0,-82.0,178.0,0
1725025337,18.5633367,73.8332333,503.9,26.132291666666664,96,33.020833333333336,144.42708333333334,-1.0,-82.0,178.0,0
1725025338,18.5633367,73.8332333,503.9,26.034375,96,33.020833333333336,144.45833333333334,-1.0,-82.0,178.0,0
1725025339,18.5633367,73.8332333,503.9,25.95520833333333,96,33.020833333333336,144.47916666666666,-1.0,-82.0,178.0,0
1725025340,18.5633367,73.8332333,503.9,25.931250000000002,96,33.020833333333336,144.5,-1.0,-82.0,178.0,0
1725025341,18.5633367,73.8332333,503.9,25.909375,96,33.4375,145.08333333333334,-1.0,-82.0,178.0,0
1725025342,18.5633367,73.8332333,503.9,25.98125,96,33.4375,145.10416666666666,-1.0,-82.0,178.0,0
1725025343,18.5633367,73.8332333,503.9,25.787499999999998,96,33.4375,145.125,-1.0,-82.0,178.0,0
1725025344,18.5633367,73.8332333,503.9,25.7375,96,33.4375,145.14583333333334,-1.0,-82.0,178.0,0
1725025345,18.5633367,73.8332333,503.9,25.921875,96,33.4375,145.16666666666666,-1.0,-82.0,178.0,0
1725025346,18.5633367,73.8332333,503.9,25.745833333333334,96,33.4375,145.17708333333334,-1.0,-82.0,178.0,0
1725025347,18.5633367,73.8332333,503.9,25.86145833333333,96,33.4375,145.19791666666666,0.0,-82.0,178.0,0
1725025348,18.5633367,73.8332333,503.9,25.846875,96,33.4375,145.20833333333334,-1.0,-82.0,178.0,0
1725025349,18.5633367,73.8332333,503.9,25.853125000000002,96,33.4375,145.21875,-1.0,-82.0,178.0,0
1725025350,18.5633367,73.8332333,503.9,25.659375,96,33.104166666666664,146.64583333333334,-1.0,-82.0,178.0,0
1725025351,18.5633367,73.8332333,503.9,25.885416666666668,96,33.104166666666664,146.66666666666666,-1.0,-82.0,178.0,0
1725025352,18.5633367,73.8332333,503.9,25.95625,96,33.114583333333336,146.66666666666666,-1.0,-82.0,178.0,0
1725025353,18.5633367,73.8332333,503.9,25.973958333333332,96,33.114583333333336,146.67708333333334,-1.0,-82.0,178.0,0
1725025354,18.5633367,73.8332333,503.9,25.738541666666666,96,33.104166666666664,146.6875,-1.0,-82.0,178.0,0
1725025355,18.5633367,73.8332333,503.9,25.927083333333332,96,33.114583333333336,146.6875,-1.0,-82.0,178.0,0
1725025356,18.5633367,73.8332333,503.9,25.89375,96,33.114583333333336,146.6875,-1.0,-82.0,178.0,0
1725025357,18.5633367,73.8332333,503.9,26.023958333333336,96,33.114583333333336,146.69791666666666,-1.0,-82.0,178.0,0
1725025358,18.5633367,73.8332333,503.9,26.023958333333336,96,33.114583333333336,146.70833333333334,-1.0,-82.0,178.0,0
1725025359,18.5633367,73.8332333,503.9,26.007291666666664,96,32.541666666666664,142.5625,-1.0,-82.0,178.0,0
1725025360,18.5633367,73.8332333,503.9,25.898958333333336,96,32.520833333333336,142.57291666666666,-1.0,-82.0,178.0,0
1725025361,18.5633367,73.8332333,503.9,25.946875000000002,96,32.520833333333336,142.59375,-1.0,-82.0,178.0,0
1725025362,18.5633367,73.8332333,503.9,25.940625,96,32.489583333333336,142.61458333333334,-1.0,-82.0,178.0,0
1725025363,18.5633367,73.8332333,503.9,25.875,96,32.479166666666664,142.61458333333334,-1.0,-82.0,178.0,0
1725025364,18.5633367,73.8332333,503.9,25.907291666666666,96,32.479166666666664,142.625,-1.0,-82.0,178.0,0
1725025365,18.5633367,73.8332333,503.9,25.868750000000002,96,32.479166666666664,142.63541666666666,-1.0,-82.0,178.0,0
1725025366,18.5633367,73.8332333,503.9,25.849999999999998,96,32.479166666666664,142.63541666666666,-1.0,-82.0,178.0,0
1725025367,18.5633367,73.8332333,503.9,26.020833333333332,96,32.479166666666664,142.64583333333334,-1.0,-82.0,178.0,0
1725025368,18.5633367,73.8332333,503.9,25.963541666666668,96,32.145833333333336,141.6875,-1.0,-82.0,178.0,0
1725025369,18.5633367,73.8332333,503.9,25.863541666666666,96,32.145833333333336,141.69791666666666,-1.0,-82.0,178.0,0
1725025370,18.5633367,73.8332333,503.9,25.903125,96,32.125,141.69791666666666,-1.0,-82.0,178.0,0
1725025371,18.5633367,73.8332333,503.9,25.969791666666666,96,32.125,141.70833333333334,-1.0,-82.0,178.0,0
1725025372,18.5633367,73.8332333,503.9,25.907291666666666,96,32.114583333333336,141.70833333333334,-1.0,-82.0,178.0,0
1725025373,18.5633367,73.8332333,503.9,25.808333333333334,96,32.125,141.70833333333334,0.0,-82.0,178.0,0
1725025374,18.5633367,73.8332333,503.9,25.82604166666667,96,32.125,141.70833333333334,0.0,-82.0,178.0,0
1725025375,18.5633367,73.8332333,503.9,25.819791666666664,96,32.125,141.71875,-1.0,-82.0,178.0,0
1725025376,18.5633367,73.8332333,503.9,25.914583333333336,96,32.125,141.69791666666666,-1.0,-82.0,178.0,0
1725025377,18.5633367,73.8332333,503.9,25.90625,96,32.145833333333336,141.67708333333334,-1.0,-82.0,178.0,0
1725025378,18.5633367,73.8332333,503.9,25.867708333333336,96,32.125,141.70833333333334,-1.0,-82.0,178.0,0
1725025379,18.5633367,73.8332333,503.9,25.791666666666668,96,32.125,141.6875,-1.0,-82.0,178.0,0
1725025380,18.5633367,73.8332333,503.9,25.804166666666664,96,32.125,141.6875,-1.0,-82.0,178.0,0
1725025381,18.5633367,73.8332333,503.9,25.714583333333334,96,32.125,141.69791666666666,-1.0,-82.0,178.0,0
1725025382,18.5633367,73.8332333,503.9,25.792708333333334,96,32.125,141.73958333333334,-1.0,-82.0,178.0,0
1725025383,18.5633367,73.8332333,503.9,25.817708333333332,96,32.125,141.73958333333334,-1.0,-82.0,178.0,0
1725025384,18.5633367,73.8332333,503.9,25.884375000000002,96,32.114583333333336,141.77083333333334,-1.0,-82.0,178.0,0
1725025385,18.5633367,73.8332333,503.9,25.745833333333334,96,32.135416666666664,141.75,-1.0,-82.0,178.0,0
1725025386,18.5633367,73.8332333,503.9,25.754166666666666,96,33.395833333333336,146.32291666666666,-1.0,-82.0,178.0,0
1725025387,18.5633367,73.8332333,503.9,25.722916666666666,96,33.354166666666664,145.48958333333334,-1.0,-82.0,178.0,0
1725025388,18.5633367,73.8332333,503.9,25.86145833333333,96,33.34375,145.4375,-1.0,-82.0,178.0,0
1725025389,18.5633367,73.8332333,503.9,25.878125,96,33.354166666666664,145.46875,-1.0,-82.0,178.0,0
1725025390,18.5633367,73.8332333,503.9,25.88854166666667,96,33.364583333333336,145.5,0.0,-82.0,178.0,0
1725025391,18.5633367,73.8332333,503.9,25.821875000000002,96,33.375,145.53125,0.0,-82.0,178.0,0
1725025392,18.5633367,73.8332333,503.9,25.945833333333336,96,33.385416666666664,145.57291666666666,-1.0,-82.0,178.0,0
1725025393,18.5633367,73.8332333,503.9,26.12291666666667,96,33.395833333333336,145.60416666666666,-1.0,-82.0,178.0,0
1725025394,18.5633367,73.8332333,503.9,26.12291666666667,96,33.40625,145.63541666666666,-1.0,-82.0,178.0,0
1725025395,18.5633367,73.8332333,503.9,26.105208333333334,96,33.21875,145.01041666666666,-1.0,-82.0,178.0,0
1725025396,18.5633367,73.8332333,503.9,26.130208333333332,96,33.21875,145.04166666666666,-1.0,-82.0,178.0,0
1725025397,18.5633367,73.8332333,503.9,26.141666666666666,96,33.229166666666664,145.07291666666666,-1.0,-82.0,178.0,0
1725025398,18.5633367,73.8332333,503.9,26.145833333333332,96,33.229166666666664,145.10416666666666,-1.0,-82.0,178.0,0
1725025399,18.5633367,73.8332333,503.9,26.167708333333334,96,33.229166666666664,145.125,-1.0,-82.0,178.0,0
1725025400,18.5633367,73.8332333,503.9,26.008333333333336,96,33.239583333333336,145.15625,-1.0,-82.0,178.0,0
1725025401,18.5633367,73.8332333,503.9,25.965625,96,33.239583333333336,145.17708333333334,-1.0,-82.0,178.0,0
1725025402,18.5633367,73.8332333,503.9,26.153125,96,33.229166666666664,145.19791666666666,-1.0,-82.0,178.0,0
1725025403,18.5633367,73.8332333,503.9,26.066666666666666,96,33.208333333333336,145.22916666666666,-1.0,-82.0,178.0,0
1725025404,18.5633367,73.8332333,503.9,26.077083333333334,96,33.208333333333336,145.25,-1.0,-82.0,178.0,0
1725025405,18.5633367,73.8332333,503.9,26.17395833333333,96,32.6875,143.97916666666666,0.0,-82.0,178.0,0
1725025406,18.5633367,73.8332333,503.9,26.276041666666668,96,32.6875,144.0,-1.0,-82.0,178.0,0
1725025407,18.5633367,73.8332333,503.9,26.289583333333336,96,32.6875,144.02083333333334,-1.0,-82.0,178.0,0
1725025408,18.5633367,73.8332333,503.9,26.165625000000002,96,32.6875,144.04166666666666,-1.0,-82.0,178.0,0
1725025409,18.5633367,73.8332333,503.9,26.20625,96,32.6875,144.0625,-1.0,-82.0,178.0,0
1725025410,18.5633367,73.8332333,503.9,26.21875,96,32.697916666666664,144.07291666666666,-1.0,-82.0,178.0,0
1725025411,18.5633367,73.8332333,503.9,26.193749999999998,96,32.697916666666664,144.09375,-1.0,-82.0,178.0,0
1725025412,18.5633367,73.8332333,503.9,26.075257731958764,97,32.44329896907217,144.41237113402062,-1.0,-82.0,178.0,0
1725025413,18.5633367,73.8332333,503.9,26.148453608247422,97,32.44329896907217,144.42268041237114,-1.0,-82.0,178.0,0
1725025414,18.5633367,73.8332333,503.9,26.0659793814433,97,31.97938144329897,142.83505154639175,-1.0,-82.0,178.0,0
1725025415,18.5633367,73.8332333,503.9,26.039175257731962,97,31.97938144329897,142.84536082474227,-1.0,-82.0,178.0,0
1725025416,18.5633366667,73.8332333333,503.9,26.003092783505156,97,31.97938144329897,142.8556701030928,-1.0,-82.0,178.0,0
1725025417,18.5633367,73.8332333,503.9,26.143298969072166,97,31.97938144329897,142.8556701030928,-1.0,-82.0,178.0,0
1725025418,18.5633367,73.8332333,503.9,25.88865979381443,97,31.969072164948454,142.8659793814433,-1.0,-82.0,178.0,0
1725025419,18.5633367,73.8332333,503.9,25.777319587628867,97,31.969072164948454,142.8762886597938,-1.0,-82.0,178.0,0
1725025420,18.5633367,73.8332333,503.9,26.129896907216494,97,31.969072164948454,142.88659793814432,-1.0,-82.0,178.0,0
1725025421,18.5633367,73.8332333,503.9,25.97835051546392,97,31.969072164948454,142.89690721649484,-1.0,-82.0,178.0,0
1725025422,18.5633367,73.8332333,503.9,25.99896907216495,97,31.969072164948454,142.90721649484536,-1.0,-82.0,178.0,0
1725025423,18.5633367,73.8332333,503.9,25.942268041237114,97,31.855670103092784,141.94845360824743,-1.0,-82.0,178.0,0
1725025424,18.5633367,73.8332333,503.9,26.013402061855672,97,31.855670103092784,141.93814432989691,-1.0,-82.0,178.0,0
1725025425,18.5633367,73.8332333,503.9,25.904123711340205,97,31.835051546391753,141.9278350515464,0.0,-82.0,178.0,0
1725025426,18.5633367,73.8332333,503.9,25.891752577319586,97,31.84536082474227,142.0,-1.0,-82.0,178.0,0
1725025427,18.5633367,73.8332333,503.9,26.049484536082478,97,31.84536082474227,142.0,-1.0,-82.0,178.0,0
1725025428,18.5633367,73.8332333,503.9,25.900000000000002,97,31.84536082474227,142.01030927835052,-1.0,-82.0,178.0,0
1725025429,18.5633367,73.8332333,503.9,25.79381443298969,97,31.84536082474227,142.03092783505156,-1.0,-82.0,178.0,0
1725025430,18.5633367,73.8332333,503.9,25.7680412371134,97,31.8659793814433,142.01030927835052,-1.0,-82.0,178.0,0
1725025431,18.5633367,73.8332333,503.9,25.70824742268041,97,31.88659793814433,142.04123711340208,-1.0,-82.0,178.0,0
1725025432,18.5633367,73.8332333,503.9,25.63298969072165,97,31.88659793814433,142.04123711340208,-1.0,-82.0,178.0,0
1725025433,18.5633367,73.8332333,503.9,25.596907216494845,97,31.88659793814433,142.05154639175257,-1.0,-82.0,178.0,0
1725025434,18.5633367,73.8332333,503.9,25.697938144329896,97,31.88659793814433,142.05154639175257,-1.0,-82.0,178.0,0
1725025435,18.5633367,73.8332333,503.9,25.79381443298969,97,31.88659793814433,142.06185567010309,-1.0,-82.0,178.0,0
1725025436,18.5633367,73.8332333,503.9,25.61855670103093,97,31.88659793814433,142.0721649484536,-1.0,-82.0,178.0,0
1725025437,18.5633367,73.8332333,503.9,25.81752577319588,97,31.88659793814433,142.08247422680412,-1.0,-82.0,178.0,0
1725025438,18.5633367,73.8332333,503.9,25.806185567010306,97,31.876288659793815,142.0721649484536,-1.0,-82.0,178.0,0
1725025439,18.5633367,73.8332333,503.9,25.735051546391755,97,31.876288659793815,142.08247422680412,0.0,-82.0,178.0,0
1725025440,18.5633367,73.8332333,503.9,25.7,97,31.876288659793815,142.08247422680412,-1.0,-82.0,178.0,0
1725025441,18.5633367,73.8332333,503.9,25.744329896907214,97,31.876288659793815,142.08247422680412,-1.0,-82.0,178.0,0
1725025442,18.5633367,73.8332333,503.9,25.777319587628867,97,31.876288659793815,142.09278350515464,-1.0,-82.0,178.0,0
1725025443,18.5633367,73.8332333,503.9,25.869072164948456,97,31.876288659793815,142.08247422680412,-1.0,-82.0,178.0,0
1725025444,18.5633367,73.8332333,503.9,25.816494845360822,97,31.876288659793815,142.08247422680412,-1.0,-82.0,178.0,0
1725025445,18.5633367,73.8332333,503.9,25.861855670103093,97,31.876288659793815,142.09278350515464,-1.0,-82.0,178.0,0
1725025446,18.5633367,73.8332333,503.9,25.874226804123712,97,31.876288659793815,142.09278350515464,-1.0,-82.0,178.0,0
1725025447,18.5633367,73.8332333,503.9,25.729896907216496,97,31.824742268041238,141.27835051546393,-1.0,-82.0,178.0,0
1725025448,18.5633367,73.8332333,503.9,26.019791666666666,96,32.229166666666664,142.66666666666666,-1.0,-82.0,178.0,0
1725025449,18.5633367,73.8332333,503.9,25.947916666666668,96,32.229166666666664,142.64583333333334,-1.0,-82.0,178.0,0
1725025450,18.5633367,73.8332333,503.9,25.577083333333334,96,32.229166666666664,142.67708333333334,-1.0,-82.0,178.0,0
1725025451,18.5633367,73.8332333,503.9,25.74791666666667,96,32.916666666666664,144.88541666666666,-1.0,-82.0,178.0,0
1725025452,18.5633367,73.8332333,503.9,25.7,96,32.916666666666664,144.91666666666666,-1.0,-82.0,178.0,0
1725025453,18.5633367,73.8332333,503.9,25.52315789473684,95,33.23157894736842,145.69473684210527,0.0,-82.0,178.0,0
1725025454,18.5633367,73.8332333,503.9,25.546315789473685,95,33.85263157894737,148.10526315789474,-1.0,-82.0,178.0,0
1725025455,18.5633367,73.8332333,503.9,25.310309278350516,97,33.25773195876289,148.70103092783506,0.0,-82.0,178.0,0
1725025456,18.5633367,73.8332333,503.9,25.404123711340205,97,33.25773195876289,148.72164948453607,-1.0,-82.0,178.0,0
1725025457,18.5633367,73.8332333,503.9,25.637113402061857,97,33.25773195876289,148.7422680412371,-1.0,-82.0,178.0,0
1725025458,18.5633367,73.8332333,503.9,25.98041237113402,97,33.25773195876289,148.76288659793815,-1.0,-82.0,178.0,0
1725025459,18.5633367,73.8332333,503.9,25.99484536082474,97,33.25773195876289,148.7835051546392,0.0,-82.0,178.0,0
1725025460,18.5633367,73.8332333,503.9,26.168041237113403,97,33.175257731958766,147.97938144329896,0.0,-82.0,178.0,0
1725025461,18.5633367,73.8332333,503.9,26.116494845360826,97,33.175257731958766,147.98969072164948,0.0,-82.0,178.0,0
1725025462,18.5633367,73.8332333,503.9,26.023711340206187,97,33.175257731958766,148.01030927835052,-1.0,-82.0,178.0,0
