timestamp,latitude,longitude,altitude,mean_snr,sat_count,mean_elevation,roll,pitch,yaw,is_inclined
1724833827,18.5633083333,73.833195,527.3,20.934831460674157,89,31.730337078651687,0.0,-83.0,175.0,0
1724833826,18.563305,73.8332,511.1,,0,,,,,0
1724833828,18.5633069,73.833198,526.3,,0,,0.0,-83.0,176.0,0
1724833829,18.5633025,73.8331969,526.8,20.89887640449438,89,31.730337078651687,-3.0,-83.0,172.0,0
1724833830,18.5633425,73.8331151,607.3,21.26888888888889,90,31.544444444444444,-3.0,-83.0,172.0,0
1724833831,18.5633656,73.8330701,639.6,20.979775280898878,89,31.730337078651687,-3.0,-83.0,172.0,0
1724833832,18.5633634,73.833064,644.4,21.015555555555558,90,32.144444444444446,-7.0,-82.0,167.0,0
1724833833,18.5633516667,73.833065,644.4,21.013186813186813,91,31.923076923076923,-7.0,-82.0,168.0,0
1724833834,18.5633608,73.8330676,634.6999999999999,21.18241758241758,91,31.923076923076923,-8.0,-81.0,166.0,0
1724833835,18.5633517,73.8330697,637.8,21.672527472527474,91,31.604395604395606,-4.0,-82.0,171.0,0
1724833836,18.5633391,73.8330698,642.8,21.604347826086954,92,31.130434782608695,-7.0,-82.0,168.0,0
1724833837,18.5633372,73.8330699,642.8,21.58695652173913,92,31.130434782608695,-4.0,-81.0,170.0,0
1724833838,18.5633255,73.8330938,638.1999999999999,21.922826086956523,92,31.130434782608695,-5.0,-82.0,170.0,0
1724833839,18.563276,73.8332029,615.3,22.03978494623656,93,31.376344086021504,-7.0,-82.0,167.0,0
1724833840,18.5632472,73.8332566,611.1,22.421505376344083,93,31.376344086021504,-6.0,-81.0,169.0,0
1724833841,18.5632341,73.8332846,607.6,22.182795698924732,93,31.376344086021504,-9.0,-80.0,167.0,0
1724833842,18.563232,73.8332891,607.6,22.61720430107527,93,31.376344086021504,-9.0,-81.0,167.0,0
1724833843,18.5632205,73.8333041,605.1999999999999,22.413978494623656,93,31.376344086021504,-9.0,-83.0,168.0,0
1724833844,18.5632131,73.8333134,604.9,22.34193548387097,93,31.182795698924732,-7.0,-82.0,168.0,0
1724833845,18.5632091,73.8333204,603.6999999999999,22.947311827956987,93,31.182795698924732,-7.0,-82.0,168.0,0
1724833846,18.5632071,73.8333258,602.1999999999999,22.982795698924733,93,31.06451612903226,-9.0,-82.0,166.0,0
1724833847,18.5632039,73.8333294,601.0,23.179569892473115,93,31.06451612903226,-2.0,-80.0,174.0,0
1724833848,18.5632021,73.8333314,600.1,23.320430107526885,93,31.06451612903226,-10.0,-82.0,166.0,0
1724833849,18.5632004,73.8333331,598.8,23.788172043010753,93,31.06451612903226,-9.0,-82.0,167.0,0
1724833850,18.5632029,73.8333333,596.5,23.548387096774192,93,31.06451612903226,-8.0,-81.0,168.0,0
1724833851,18.563202,73.8333334,595.5,23.7,95,31.147368421052633,-10.0,-83.0,165.0,0
1724833852,18.5632017,73.8333334,594.0,23.616842105263157,95,31.147368421052633,-10.0,-82.0,165.0,0
1724833853,18.5632018,73.8333319,592.9,23.504166666666666,96,30.979166666666668,-10.0,-82.0,165.0,0
1724833854,18.5632017,73.8333317,591.5,23.846875,96,30.979166666666668,-9.0,-81.0,167.0,0
1724833855,18.5632017,73.8333316,591.5,23.561458333333334,96,31.552083333333332,-9.0,-81.0,166.0,0
1724833856,18.5632002,73.8333317,589.9,23.806250000000002,96,31.552083333333332,-5.0,-80.0,170.0,0
1724833857,18.5632,73.8333302,589.1999999999999,23.558762886597936,97,31.412371134020617,-8.0,-81.0,167.0,0
1724833858,18.5632,73.83333,588.0,22.47216494845361,97,31.412371134020617,-7.0,-81.0,168.0,0
1724833859,18.5632014,73.83333,587.0,23.051546391752577,97,31.412371134020617,-9.0,-81.0,166.0,0
1724833860,18.5632017,73.83333,587.0,23.758762886597935,97,31.412371134020617,-9.0,-81.0,166.0,0
1724833861,18.5632017,73.83333,587.0,23.790625000000002,96,31.479166666666668,-10.0,-81.0,165.0,0
1724833862,18.5632017,73.83333,587.0,23.806250000000002,96,31.885416666666668,-9.0,-81.0,166.0,0
1724833863,18.5632017,73.83333,587.0,23.390625,96,31.885416666666668,-8.0,-81.0,167.0,0
1724833864,18.5632017,73.83333,587.0,23.400000000000002,96,31.572916666666668,-8.0,-81.0,167.0,0
1724833865,18.5632017,73.83333,587.0,22.776041666666668,96,31.572916666666668,-9.0,-81.0,166.0,0
1724833866,18.5632017,73.83333,587.0,23.52577319587629,97,31.50515463917526,-9.0,-81.0,167.0,0
1724833867,18.5632017,73.83333,587.0,23.559793814432993,97,31.50515463917526,-9.0,-81.0,167.0,0
1724833868,18.5632017,73.83333,587.0,23.65463917525773,97,31.515463917525775,-9.0,-81.0,167.0,0
1724833869,18.5632662,73.8332879,546.4,23.39278350515464,97,31.515463917525775,-8.0,-81.0,167.0,0
1724833870,18.5632792,73.8332755,543.6999999999999,23.831958762886597,97,31.515463917525775,-8.0,-81.0,167.0,0
1724833871,18.5632827,73.8332681,541.6999999999999,23.628865979381445,97,31.24742268041237,-9.0,-81.0,167.0,0
1724833872,18.5632804,73.8332669,542.6,23.325773195876288,97,31.24742268041237,-8.0,-81.0,167.0,0
1724833873,18.5632801,73.8332667,542.6,23.547959183673466,98,31.102040816326532,-8.0,-81.0,167.0,0
1724833874,18.56328,73.8332667,542.6,23.628571428571426,98,31.091836734693878,-8.0,-81.0,167.0,0
1724833875,18.56328,73.8332667,542.6,23.368367346938776,98,31.091836734693878,-9.0,-81.0,167.0,0
1724833876,18.56328,73.8332667,542.6,23.33469387755102,98,31.091836734693878,-8.0,-81.0,167.0,0
1724833877,18.56328,73.8332667,542.6,23.160204081632653,98,31.091836734693878,-8.0,-81.0,167.0,0
1724833878,18.56328,73.8332667,542.6,23.297959183673466,98,31.091836734693878,-8.0,-81.0,167.0,0
1724833879,18.56328,73.8332667,542.6,23.168367346938776,98,31.091836734693878,-8.0,-81.0,167.0,0
1724833880,18.56328,73.8332667,542.6,23.3765306122449,98,31.091836734693878,-9.0,-81.0,167.0,0
1724833881,18.56328,73.8332667,542.6,23.52121212121212,99,30.767676767676768,-8.0,-81.0,167.0,0
1724833882,18.56328,73.8332667,542.6,23.45959595959596,99,30.767676767676768,-8.0,-81.0,167.0,0
1724833883,18.56328,73.8332667,542.6,23.397979797979797,99,30.666666666666668,-8.0,-81.0,167.0,0
1724833884,18.56328,73.8332667,542.6,23.735353535353536,99,30.666666666666668,-8.0,-81.0,167.0,0
1724833885,18.56328,73.8332667,542.6,23.82626262626263,99,30.666666666666668,-9.0,-81.0,166.0,0
1724833886,18.56328,73.8332667,542.6,23.906060606060603,99,30.666666666666668,-8.0,-81.0,167.0,0
1724833887,18.56328,73.8332667,542.6,23.995959595959594,99,30.666666666666668,-8.0,-81.0,167.0,0
1724833888,18.56328,73.8332667,542.6,23.88888888888889,99,30.666666666666668,-8.0,-81.0,167.0,0
1724833889,18.56328,73.8332667,542.6,23.710101010101013,99,30.666666666666668,-8.0,-81.0,167.0,0
1724833890,18.56328,73.8332667,542.6,23.85050505050505,99,30.555555555555557,-8.0,-81.0,167.0,0
1724833891,18.56328,73.8332667,542.6,23.856565656565657,99,30.555555555555557,-8.0,-81.0,167.0,0
1724833892,18.56328,73.8332667,542.6,23.847959183673467,98,30.244897959183675,-9.0,-81.0,167.0,0
1724833893,18.56328,73.8332667,542.6,23.866326530612245,98,30.244897959183675,-8.0,-81.0,167.0,0
1724833894,18.56328,73.8332667,542.6,23.939795918367345,98,30.244897959183675,-8.0,-81.0,167.0,0
1724833895,18.56328,73.8332667,542.6,24.662244897959184,98,30.244897959183675,-8.0,-81.0,168.0,0
1724833896,18.56328,73.8332667,542.6,25.08877551020408,98,30.244897959183675,-8.0,-81.0,168.0,0
1724833897,18.56328,73.8332667,542.6,24.989795918367346,98,30.244897959183675,-8.0,-81.0,168.0,0
1724833898,18.56328,73.8332667,542.6,24.766326530612243,98,30.244897959183675,-8.0,-81.0,168.0,0
1724833899,18.56328,73.8332667,542.6,24.837755102040816,98,30.244897959183675,-8.0,-81.0,168.0,0
1724833900,18.56328,73.8332667,542.6,24.93131313131313,99,30.464646464646464,-9.0,-81.0,168.0,0
1724833901,18.56328,73.8332667,542.6,25.106060606060606,99,30.464646464646464,-9.0,-81.0,168.0,0
1724833902,18.56328,73.8332667,542.6,25.065656565656564,99,30.464646464646464,-8.0,-81.0,168.0,0
1724833903,18.56328,73.8332667,542.6,24.66060606060606,99,30.464646464646464,-8.0,-81.0,168.0,0
1724833904,18.56328,73.8332667,542.6,24.742424242424242,99,29.727272727272727,-8.0,-81.0,168.0,0
1724833905,18.56328,73.8332667,542.6,24.675757575757576,99,29.727272727272727,-8.0,-81.0,168.0,0
1724833906,18.56328,73.8332667,542.6,24.821212121212124,99,29.727272727272727,-8.0,-81.0,168.0,0
1724833907,18.56328,73.8332667,542.6,24.955555555555556,99,29.727272727272727,-8.0,-81.0,168.0,0
1724833908,18.56328,73.8332667,542.6,24.851515151515155,99,29.727272727272727,-8.0,-81.0,168.0,0
1724833909,18.56328,73.8332667,542.6,24.96868686868687,99,29.727272727272727,-9.0,-81.0,168.0,0
1724833910,18.56328,73.8332667,542.6,25.07272727272727,99,30.393939393939394,-8.0,-81.0,168.0,0
1724833911,18.56328,73.8332667,542.6,24.883838383838384,99,30.373737373737374,-8.0,-81.0,168.0,0
1724833912,18.56328,73.8332667,542.6,24.90909090909091,99,30.858585858585858,-8.0,-81.0,168.0,0
1724833913,18.56328,73.8332667,542.6,25.065656565656564,99,30.858585858585858,-8.0,-81.0,168.0,0
1724833914,18.56328,73.8332667,542.6,24.96969696969697,99,30.858585858585858,-8.0,-81.0,168.0,0
1724833915,18.56328,73.8332667,542.6,24.965656565656566,99,30.858585858585858,-8.0,-81.0,168.0,0
1724833916,18.56328,73.8332667,542.6,24.88888888888889,99,30.858585858585858,-8.0,-81.0,168.0,0
1724833917,18.56328,73.8332667,542.6,25.04848484848485,99,30.858585858585858,-8.0,-81.0,168.0,0
1724833918,18.56328,73.8332667,542.6,25.085858585858585,99,30.858585858585858,-8.0,-81.0,168.0,0
1724833919,18.56328,73.8332667,542.6,25.03030303030303,99,30.565656565656564,-8.0,-81.0,168.0,0
1724833920,18.56328,73.8332667,542.6,25.06262626262626,99,30.585858585858585,-8.0,-81.0,168.0,0
1724833921,18.56328,73.8332667,542.6,25.081999999999997,100,30.39,-8.0,-81.0,168.0,0
1724833922,18.56328,73.8332667,542.6,25.03,100,30.13,-8.0,-81.0,168.0,0
1724833923,18.56328,73.8332667,542.6,25.038,100,30.13,-8.0,-81.0,168.0,0
1724833924,18.56328,73.8332667,542.6,25.051,100,30.13,-8.0,-81.0,168.0,0
1724833925,18.56328,73.8332667,542.6,25.057,100,30.13,-8.0,-81.0,168.0,0
1724833926,18.56328,73.8332667,542.6,24.989,100,30.13,-8.0,-81.0,168.0,0
1724833927,18.56328,73.8332667,542.6,25.125999999999998,100,30.13,-8.0,-81.0,168.0,0
1724833928,18.56328,73.8332667,542.6,25.151999999999997,100,29.95,-8.0,-81.0,168.0,0
1724833929,18.56328,73.8332667,542.6,25.031,100,29.95,-8.0,-81.0,168.0,0
1724833930,18.56328,73.8332667,542.6,25.087,100,29.95,-8.0,-81.0,168.0,0
1724833931,18.56328,73.8332667,542.6,25.145,100,29.84,-8.0,-81.0,168.0,0
1724833932,18.56328,73.8332667,542.6,25.205,100,29.84,-8.0,-81.0,168.0,0
1724833933,18.56328,73.8332667,542.6,25.070999999999998,100,29.84,-8.0,-81.0,168.0,0
1724833934,18.56328,73.8332667,542.6,25.171,100,29.84,-8.0,-81.0,168.0,0
1724833935,18.56328,73.8332667,542.6,25.084,100,29.84,-8.0,-81.0,168.0,0
1724833936,18.56328,73.8332667,542.6,25.055999999999997,100,29.84,-9.0,-81.0,168.0,0
1724833937,18.56328,73.8332667,542.6,25.224,100,29.74,-8.0,-81.0,168.0,0
1724833938,18.56328,73.8332667,542.6,25.173000000000002,100,29.74,-8.0,-81.0,168.0,0
1724833939,18.56328,73.8332667,542.6,25.351,100,29.74,-8.0,-81.0,168.0,0
1724833940,18.56328,73.8332667,542.6,25.307,100,29.63,-8.0,-81.0,168.0,0
1724833941,18.56328,73.8332667,542.6,25.647,100,29.63,-8.0,-81.0,168.0,0
1724833942,18.56328,73.8332667,542.6,25.164,100,27.96,-8.0,-81.0,168.0,0
1724833943,18.56328,73.8332667,542.6,25.199,100,29.04,-8.0,-81.0,168.0,0
1724833944,18.56328,73.8332667,542.6,25.419,100,29.04,-8.0,-81.0,168.0,0
1724833945,18.56328,73.8332667,542.6,25.339000000000002,100,29.04,-8.0,-81.0,168.0,0
1724833946,18.56328,73.8332667,542.6,25.2,100,28.95,-8.0,-81.0,168.0,0
1724833947,18.56328,73.8332667,542.6,25.272,100,28.95,-8.0,-81.0,168.0,0
1724833948,18.56328,73.8332667,542.6,25.27,100,28.95,-8.0,-81.0,168.0,0
1724833949,18.56328,73.8332667,542.6,25.441,100,28.95,-8.0,-81.0,168.0,0
1724833950,18.56328,73.8332667,542.6,25.296,100,28.95,-8.0,-81.0,168.0,0
1724833951,18.56328,73.8332667,542.6,25.38,100,28.9,-8.0,-81.0,168.0,0
1724833952,18.56328,73.8332667,542.6,25.445,100,28.93,-8.0,-81.0,168.0,0
1724833953,18.56328,73.8332667,542.6,25.316999999999997,100,28.97,-8.0,-81.0,168.0,0
1724833954,18.56328,73.8332667,542.6,25.697,100,29.06,-8.0,-81.0,168.0,0
1724833955,18.56328,73.8332667,542.6,25.631,100,29.19,-8.0,-81.0,168.0,0
1724833956,18.56328,73.8332667,542.6,25.599,100,29.39,-8.0,-81.0,168.0,0
1724833957,18.56328,73.8332667,542.6,25.524,100,29.61,-8.0,-81.0,168.0,0
1724833958,18.56328,73.8332667,542.6,25.56,100,29.73,-8.0,-81.0,168.0,0
1724833959,18.56328,73.8332667,542.6,25.57,100,29.7,-8.0,-81.0,168.0,0
1724833960,18.56328,73.8332667,542.6,25.531,100,29.64,-8.0,-81.0,168.0,0
1724833961,18.56328,73.8332667,542.6,25.4,100,29.6,-8.0,-81.0,168.0,0
1724833962,18.56328,73.8332667,542.6,25.371,100,29.58,-8.0,-81.0,168.0,0
1724833963,18.56328,73.8332667,542.6,25.505,100,29.57,-8.0,-81.0,168.0,0
1724833964,18.56328,73.8332667,542.6,25.426,100,29.56,-8.0,-81.0,168.0,0
1724833965,18.56328,73.8332667,542.6,25.445,100,29.55,-8.0,-81.0,168.0,0
1724833966,18.56328,73.8332667,542.6,25.392,100,29.55,-8.0,-81.0,168.0,0
1724833967,18.56328,73.8332667,542.6,25.519000000000002,100,29.55,-8.0,-81.0,168.0,0
1724833968,18.56328,73.8332667,542.6,25.454,100,29.54,-8.0,-81.0,168.0,0
1724833969,18.56328,73.8332667,542.6,25.500999999999998,100,29.55,-8.0,-81.0,168.0,0
1724833970,18.56328,73.8332667,542.6,25.405,100,29.55,-8.0,-81.0,168.0,0
1724833971,18.56328,73.8332667,542.6,25.498,100,29.55,-8.0,-81.0,168.0,0
1724833972,18.56328,73.8332667,542.6,25.484,100,29.56,-8.0,-81.0,168.0,0
1724833973,18.56328,73.8332667,542.6,25.381999999999998,100,29.56,-8.0,-81.0,168.0,0
1724833974,18.56328,73.8332667,542.6,25.241999999999997,100,29.56,-9.0,-81.0,168.0,0
1724833975,18.56328,73.8332667,542.6,25.275,100,29.57,-9.0,-81.0,168.0,0
1724833976,18.56328,73.8332667,542.6,25.269000000000002,100,29.57,-8.0,-81.0,168.0,0
1724833977,18.56328,73.8332667,542.6,24.985,100,29.57,-8.0,-81.0,168.0,0
1724833978,18.56328,73.8332667,542.6,25.093000000000004,100,30.71,-8.0,-81.0,168.0,0
1724833979,18.56328,73.8332667,542.6,25.035999999999998,100,30.71,-8.0,-81.0,168.0,0
1724833980,18.56328,73.8332667,542.6,24.998,100,30.71,-8.0,-81.0,168.0,0
1724833981,18.56328,73.8332667,542.6,24.976999999999997,100,30.72,-8.0,-81.0,168.0,0
1724833982,18.56328,73.8332667,542.6,25.218000000000004,100,30.72,-8.0,-81.0,168.0,0
1724833983,18.56328,73.8332667,542.6,25.478,100,30.71,-8.0,-81.0,168.0,0
1724833984,18.56328,73.8332667,542.6,25.203000000000003,100,30.71,-8.0,-81.0,168.0,0
1724833985,18.56328,73.8332667,542.6,25.19,100,30.71,-8.0,-81.0,168.0,0
1724833986,18.56328,73.8332667,542.6,25.291,100,30.72,-8.0,-81.0,168.0,0
1724833987,18.56328,73.8332667,542.6,25.048000000000002,100,30.15,-8.0,-81.0,168.0,0
1724833988,18.56328,73.8332667,542.6,25.164,100,30.15,-8.0,-81.0,168.0,0
1724833989,18.56328,73.8332667,542.6,25.5,100,30.14,-8.0,-81.0,168.0,0
1724833990,18.56328,73.8332667,542.6,25.377,100,30.13,-8.0,-81.0,168.0,0
1724833991,18.56328,73.8332667,542.6,25.31,100,30.15,-8.0,-81.0,168.0,0
1724833992,18.56328,73.8332667,542.6,25.316999999999997,100,29.04,-8.0,-81.0,168.0,0
1724833993,18.56328,73.8332667,542.6,25.651999999999997,100,30.12,-8.0,-81.0,168.0,0
1724833994,18.56328,73.8332667,542.6,25.703000000000003,100,30.13,-8.0,-81.0,168.0,0
1724833995,18.56328,73.8332667,542.6,25.28,100,30.12,-8.0,-81.0,168.0,0
1724833996,18.56328,73.8332667,542.6,25.284000000000002,100,30.12,-8.0,-81.0,168.0,0
1724833997,18.56328,73.8332667,542.6,25.2,100,29.83,-8.0,-81.0,168.0,0
1724833998,18.56328,73.8332667,542.6,25.79,100,29.82,-8.0,-81.0,168.0,0
1724833999,18.56328,73.8332667,542.6,25.516,100,29.8,-8.0,-81.0,168.0,0
1724834000,18.56328,73.8332667,542.6,25.67676767676768,99,29.747474747474747,-8.0,-81.0,168.0,0
1724834001,18.56328,73.8332667,542.6,25.871717171717172,99,29.737373737373737,-8.0,-81.0,168.0,0
1724834002,18.56328,73.8332667,542.6,25.735353535353536,99,29.737373737373737,-8.0,-81.0,168.0,0
1724834003,18.56328,73.8332667,542.6,25.903030303030302,99,29.727272727272727,-8.0,-81.0,168.0,0
1724834004,18.56328,73.8332667,542.6,26.053535353535356,99,29.727272727272727,-8.0,-81.0,168.0,0
1724834005,18.56328,73.8332667,542.6,25.87777777777778,99,29.717171717171716,-8.0,-81.0,168.0,0
1724834006,18.56328,73.8332667,542.6,26.171717171717173,99,30.151515151515152,-9.0,-81.0,168.0,0
1724834007,18.56328,73.8332667,542.6,26.177777777777777,99,30.141414141414142,-8.0,-81.0,168.0,0
1724834008,18.56328,73.8332667,542.6,26.00909090909091,99,30.141414141414142,-8.0,-81.0,168.0,0
1724834009,18.56328,73.8332667,542.6,26.32929292929293,99,30.13131313131313,-9.0,-82.0,167.0,0
1724834010,18.56328,73.8332667,542.6,26.076767676767677,99,30.13131313131313,-8.0,-81.0,168.0,0
1724834011,18.56328,73.8332667,542.6,26.03131313131313,99,30.141414141414142,-9.0,-81.0,168.0,0
1724834012,18.56328,73.8332667,542.6,25.831313131313134,99,30.11111111111111,-8.0,-81.0,168.0,0
1724834013,18.56328,73.8332667,542.6,25.795959595959598,99,30.11111111111111,-8.0,-81.0,168.0,0
1724834014,18.56328,73.8332667,542.6,26.09090909090909,99,30.1010101010101,-8.0,-81.0,168.0,0
1724834015,18.56328,73.8332667,542.6,26.251515151515154,99,30.1010101010101,-8.0,-81.0,168.0,0
1724834016,18.56328,73.8332667,542.6,26.374747474747473,99,30.19191919191919,-8.0,-81.0,168.0,0
1724834017,18.56328,73.8332667,542.6,26.158585858585855,99,30.19191919191919,-8.0,-81.0,168.0,0
1724834018,18.56328,73.8332667,542.6,26.25959595959596,99,30.19191919191919,-8.0,-81.0,168.0,0
1724834019,18.56328,73.8332667,542.6,26.304040404040403,99,30.181818181818183,-8.0,-81.0,168.0,0
1724834020,18.56328,73.8332667,542.6,26.335353535353534,99,30.2020202020202,-8.0,-81.0,168.0,0
1724834021,18.56328,73.8332667,542.6,26.411111111111108,99,30.2020202020202,-8.0,-81.0,168.0,0
1724834022,18.56328,73.8332667,542.6,26.51010101010101,99,30.19191919191919,-8.0,-81.0,168.0,0
1724834023,18.56328,73.8332667,542.6,26.335353535353534,99,30.19191919191919,-8.0,-81.0,168.0,0
1724834024,18.56328,73.8332667,542.6,26.23333333333333,99,30.19191919191919,-8.0,-81.0,168.0,0
1724834025,18.56328,73.8332667,542.6,26.195959595959597,99,29.717171717171716,-8.0,-81.0,168.0,0
1724834026,18.56328,73.8332667,542.6,26.11212121212121,99,29.90909090909091,-8.0,-81.0,168.0,0
1724834027,18.56328,73.8332667,542.6,26.13939393939394,99,29.737373737373737,-8.0,-81.0,168.0,0
1724834028,18.56328,73.8332667,542.6,26.19393939393939,99,29.727272727272727,-8.0,-81.0,168.0,0
1724834029,18.56328,73.8332667,542.6,26.083838383838387,99,29.727272727272727,-8.0,-81.0,168.0,0
1724834030,18.56328,73.8332667,542.6,25.87878787878788,99,29.727272727272727,-9.0,-81.0,168.0,0
1724834031,18.56328,73.8332667,542.6,25.884848484848483,99,29.727272727272727,-9.0,-81.0,168.0,0
1724834032,18.56328,73.8332667,542.6,25.875757575757575,99,29.737373737373737,-9.0,-81.0,167.0,0
1724834033,18.56328,73.8332667,542.6,25.95858585858586,99,29.737373737373737,-9.0,-81.0,167.0,0
1724834034,18.56328,73.8332667,542.6,25.925252525252525,99,29.525252525252526,-8.0,-81.0,168.0,0
1724834035,18.56328,73.8332667,542.6,25.858585858585858,99,29.525252525252526,-8.0,-81.0,168.0,0
1724834036,18.56328,73.8332667,542.6,25.935353535353535,99,29.515151515151516,-8.0,-81.0,168.0,0
1724834037,18.56328,73.8332667,542.6,26.017171717171717,99,29.515151515151516,-8.0,-81.0,168.0,0
1724834038,18.56328,73.8332667,542.6,26.024242424242424,99,29.515151515151516,-8.0,-81.0,168.0,0
1724834039,18.56328,73.8332667,542.6,26.017171717171717,99,29.515151515151516,-8.0,-81.0,168.0,0
1724834040,18.56328,73.8332667,542.6,25.974747474747474,99,29.505050505050505,-8.0,-81.0,168.0,0
1724834041,18.56328,73.8332667,542.6,25.95151515151515,99,29.505050505050505,-8.0,-81.0,168.0,0
1724834042,18.56328,73.8332667,542.6,25.965656565656566,99,29.515151515151516,-8.0,-81.0,168.0,0
1724834043,18.56328,73.8332667,542.6,25.886868686868688,99,29.515151515151516,-8.0,-81.0,168.0,0
1724834044,18.56328,73.8332667,542.6,25.915151515151514,99,29.32323232323232,-8.0,-81.0,168.0,0
1724834045,18.56328,73.8332667,542.6,25.84040404040404,99,29.31313131313131,-8.0,-81.0,168.0,0
1724834046,18.56328,73.8332667,542.6,25.94040404040404,99,29.31313131313131,-8.0,-81.0,168.0,0
1724834047,18.56328,73.8332667,542.6,25.939,100,29.31,-8.0,-81.0,168.0,0
1724834048,18.56328,73.8332667,542.6,25.93737373737374,99,29.31313131313131,-8.0,-81.0,168.0,0
1724834049,18.56328,73.8332667,542.6,25.864646464646462,99,29.31313131313131,-8.0,-81.0,168.0,0
1724834050,18.56328,73.8332667,542.6,25.84040404040404,99,29.303030303030305,-8.0,-81.0,168.0,0
1724834051,18.56328,73.8332667,542.6,25.995959595959594,99,29.31313131313131,-8.0,-81.0,168.0,0
1724834052,18.56328,73.8332667,542.6,26.01818181818182,99,29.31313131313131,-8.0,-81.0,168.0,0
1724834053,18.56328,73.8332667,542.6,25.994949494949495,99,29.31313131313131,-8.0,-81.0,168.0,0
1724834054,18.56328,73.8332667,542.6,25.966666666666665,99,29.31313131313131,-8.0,-81.0,168.0,0
1724834055,18.56328,73.8332667,542.6,25.98888888888889,99,29.292929292929294,-8.0,-81.0,168.0,0
1724834056,18.56328,73.8332667,542.6,25.885858585858585,99,29.282828282828284,-8.0,-81.0,168.0,0
1724834057,18.56328,73.8332667,542.6,25.955555555555556,99,29.282828282828284,-8.0,-81.0,168.0,0
1724834058,18.56328,73.8332667,542.6,25.815151515151513,99,29.282828282828284,-8.0,-81.0,168.0,0
1724834059,18.56328,73.8332667,542.6,25.885858585858585,99,29.282828282828284,-8.0,-81.0,168.0,0
1724834060,18.56328,73.8332667,542.6,25.813000000000002,100,29.34,-8.0,-81.0,168.0,0
1724834061,18.56328,73.8332667,542.6,25.715999999999998,100,29.34,-8.0,-81.0,168.0,0
1724834062,18.56328,73.8332667,542.6,25.766,100,29.34,-8.0,-81.0,168.0,0
1724834063,18.56328,73.8332667,542.6,25.815,100,29.34,-8.0,-81.0,168.0,0
1724834064,18.56328,73.8332667,542.6,25.904,100,30.47,-8.0,-81.0,168.0,0
1724834065,18.56328,73.8332667,542.6,25.6,100,30.46,-8.0,-81.0,168.0,0
1724834066,18.56328,73.8332667,542.6,25.717,100,30.46,-8.0,-81.0,168.0,0
1724834067,18.56328,73.8332667,542.6,25.59,100,30.46,-8.0,-81.0,168.0,0
1724834068,18.56328,73.8332667,542.6,25.133000000000003,100,30.46,-8.0,-81.0,168.0,0
1724834069,18.56328,73.8332667,542.6,25.188000000000002,100,30.46,-8.0,-81.0,168.0,0
1724834070,18.56328,73.8332667,542.6,25.335,100,30.46,-8.0,-81.0,168.0,0
1724834071,18.56328,73.8332667,542.6,25.894000000000002,100,30.46,-8.0,-81.0,168.0,0
1724834072,18.56328,73.8332667,542.6,26.003,100,30.45,-8.0,-81.0,168.0,0
1724834073,18.56328,73.8332667,542.6,25.933000000000003,100,29.9,-8.0,-81.0,168.0,0
1724834074,18.56328,73.8332667,542.6,26.03030303030303,99,29.848484848484848,-8.0,-81.0,168.0,0
1724834075,18.56328,73.8332667,542.6,25.993000000000002,100,29.9,-8.0,-81.0,168.0,0
1724834076,18.56328,73.8332667,542.6,25.794,100,29.9,-8.0,-81.0,168.0,0
1724834077,18.56328,73.8332667,542.6,25.892,100,29.91,-8.0,-81.0,168.0,0
1724834078,18.56328,73.8332667,542.6,26.096,100,29.91,-8.0,-81.0,168.0,0
1724834079,18.56328,73.8332667,542.6,26.003,100,29.92,-8.0,-81.0,168.0,0
1724834080,18.56328,73.8332667,542.6,25.919,100,29.92,-8.0,-81.0,168.0,0
1724834081,18.56328,73.8332667,542.6,25.601999999999997,100,29.91,-8.0,-81.0,168.0,0
1724834082,18.56328,73.8332667,542.6,25.781999999999996,100,28.54,-8.0,-81.0,168.0,0
1724834083,18.56328,73.8332667,542.6,26.011,100,29.6,-8.0,-81.0,168.0,0
1724834084,18.56328,73.8332667,542.6,25.223000000000003,100,29.58,-8.0,-81.0,168.0,0
1724834085,18.56328,73.8332667,542.6,25.44,100,29.58,-8.0,-81.0,168.0,0
1724834086,18.56328,73.8332667,542.6,25.487,100,29.56,-8.0,-81.0,168.0,0
1724834087,18.56328,73.8332667,542.6,25.32,100,29.54,-8.0,-81.0,168.0,0
1724834088,18.56328,73.8332667,542.6,25.561,100,29.55,-8.0,-81.0,168.0,0
1724834089,18.56328,73.8332667,542.6,25.831999999999997,100,29.55,-8.0,-81.0,168.0,0
1724834090,18.56328,73.8332667,542.6,25.564,100,29.56,-8.0,-81.0,168.0,0
1724834091,18.56328,73.8332667,542.6,25.48,100,29.37,-8.0,-81.0,168.0,0
1724834092,18.56328,73.8332667,542.6,25.590999999999998,100,29.36,-8.0,-81.0,168.0,0
1724834093,18.56328,73.8332667,542.6,25.541999999999998,100,29.36,-8.0,-81.0,168.0,0
1724834094,18.56328,73.8332667,542.6,25.544,100,29.36,-8.0,-81.0,168.0,0
1724834095,18.56328,73.8332667,542.6,25.558000000000003,100,29.36,-8.0,-81.0,168.0,0
1724834096,18.56328,73.8332667,542.6,25.579,100,29.38,-8.0,-81.0,168.0,0
1724834097,18.56328,73.8332667,542.6,25.625,100,29.38,-8.0,-81.0,168.0,0
1724834098,18.56328,73.8332667,542.6,25.541999999999998,100,29.38,-8.0,-81.0,168.0,0
1724834099,18.56328,73.8332667,542.6,25.976999999999997,100,29.38,-8.0,-81.0,168.0,0
1724834100,18.56328,73.8332667,542.6,26.072,100,29.36,-8.0,-81.0,168.0,0
1724834101,18.56328,73.8332667,542.6,25.72,100,29.27,-8.0,-81.0,168.0,0
1724834102,18.56328,73.8332667,542.6,25.789,100,29.27,-8.0,-81.0,168.0,0
1724834103,18.56328,73.8332667,542.6,25.729,100,29.27,-8.0,-81.0,168.0,0
1724834104,18.56328,73.8332667,542.6,25.807,100,29.27,-8.0,-81.0,168.0,0
1724834105,18.56328,73.8332667,542.6,25.764,100,29.26,-8.0,-81.0,168.0,0
1724834106,18.56328,73.8332667,542.6,25.778217821782178,101,29.08910891089109,-8.0,-81.0,168.0,0
1724834107,18.56328,73.8332667,542.6,25.826732673267326,101,29.08910891089109,-8.0,-81.0,168.0,0
1724834108,18.56328,73.8332667,542.6,25.928712871287132,101,29.08910891089109,-8.0,-81.0,168.0,0
1724834109,18.56328,73.8332667,542.6,25.856435643564357,101,29.08910891089109,-8.0,-81.0,168.0,0
1724834110,18.56328,73.8332667,542.6,25.985148514851485,101,29.08910891089109,-8.0,-81.0,168.0,0
1724834111,18.56328,73.8332667,542.6,25.871287128712872,101,29.08910891089109,-8.0,-81.0,168.0,0
1724834112,18.56328,73.8332667,542.6,25.93069306930693,101,29.08910891089109,-8.0,-81.0,168.0,0
1724834113,18.56328,73.8332667,542.6,25.785148514851485,101,29.08910891089109,-8.0,-81.0,168.0,0
1724834114,18.56328,73.8332667,542.6,25.72079207920792,101,29.08910891089109,-8.0,-81.0,168.0,0
1724834115,18.56328,73.8332667,542.6,25.721,100,29.03,-8.0,-81.0,168.0,0
1724834116,18.56328,73.8332667,542.6,25.743000000000002,100,29.32,-8.0,-81.0,168.0,0
1724834117,18.56328,73.8332667,542.6,25.58019801980198,101,29.07920792079208,-8.0,-81.0,168.0,0
1724834118,18.56328,73.8332667,542.6,25.543564356435645,101,29.07920792079208,-8.0,-81.0,168.0,0
1724834119,18.56328,73.8332667,542.6,25.621782178217824,101,29.07920792079208,-8.0,-81.0,168.0,0
1724834120,18.56328,73.8332667,542.6,25.585148514851483,101,29.07920792079208,-8.0,-81.0,168.0,0
1724834121,18.56328,73.8332667,542.6,25.6009900990099,101,29.06930693069307,-8.0,-81.0,168.0,0
1724834122,18.56328,73.8332667,542.6,25.62079207920792,101,29.06930693069307,-8.0,-81.0,168.0,0
1724834123,18.56328,73.8332667,542.6,25.4980198019802,101,29.06930693069307,-8.0,-81.0,168.0,0
1724834124,18.56328,73.8332667,542.6,25.85247524752475,101,29.06930693069307,-8.0,-81.0,168.0,0
1724834125,18.56328,73.8332667,542.6,25.87029702970297,101,29.06930693069307,-8.0,-81.0,168.0,0
1724834126,18.56328,73.8332667,542.6,25.7,101,29.06930693069307,-8.0,-81.0,168.0,0
1724834127,18.56328,73.8332667,542.6,25.724752475247524,101,29.06930693069307,-8.0,-81.0,168.0,0
1724834128,18.56328,73.8332667,542.6,25.857,100,29.67,-8.0,-81.0,168.0,0
1724834129,18.56328,73.8332667,542.6,25.828000000000003,100,29.67,-8.0,-81.0,168.0,0
1724834130,18.56328,73.8332667,542.6,25.822,100,29.67,-9.0,-81.0,168.0,0
1724834131,18.56328,73.8332667,542.6,25.813000000000002,100,30.15,-9.0,-81.0,168.0,0
1724834132,18.56328,73.8332667,542.6,25.839000000000002,100,30.15,-9.0,-81.0,168.0,0
1724834133,18.56328,73.8332667,542.6,25.729,100,30.15,-9.0,-81.0,168.0,0
1724834134,18.56328,73.8332667,542.6,25.451,100,30.15,-9.0,-81.0,168.0,0
1724834135,18.56328,73.8332667,542.6,25.772,100,30.15,-8.0,-81.0,168.0,0
1724834136,18.56328,73.8332667,542.6,25.78,100,30.15,-8.0,-81.0,168.0,0
1724834137,18.56328,73.8332667,542.6,25.807,100,29.86,-8.0,-81.0,168.0,0
1724834138,18.56328,73.8332667,542.6,25.718000000000004,100,29.87,-8.0,-81.0,168.0,0
1724834139,18.56328,73.8332667,542.6,25.761999999999997,100,29.87,-8.0,-81.0,168.0,0
1724834140,18.56328,73.8332667,542.6,25.715999999999998,100,29.61,-8.0,-81.0,168.0,0
1724834141,18.56328,73.8332667,542.6,25.636999999999997,100,29.61,-8.0,-81.0,168.0,0
1724834142,18.56328,73.8332667,542.6,25.635,100,29.6,-8.0,-81.0,168.0,0
1724834143,18.56328,73.8332667,542.6,25.589000000000002,100,29.6,-8.0,-81.0,168.0,0
1724834144,18.56328,73.8332667,542.6,25.601,100,29.6,-8.0,-81.0,168.0,0
1724834145,18.56328,73.8332667,542.6,25.706999999999997,100,29.6,-8.0,-81.0,168.0,0
1724834146,18.56328,73.8332667,542.6,25.816,100,29.42,-8.0,-81.0,168.0,0
1724834147,18.56328,73.8332667,542.6,25.521,100,29.42,-8.0,-81.0,168.0,0
1724834148,18.56328,73.8332667,542.6,25.563000000000002,100,29.42,-8.0,-81.0,168.0,0
1724834149,18.56328,73.8332667,542.6,25.663,100,29.31,-8.0,-81.0,168.0,0
1724834150,18.56328,73.8332667,542.6,25.644000000000002,100,29.31,-8.0,-81.0,168.0,0
1724834151,18.56328,73.8332667,542.6,25.823,100,29.31,-8.0,-81.0,168.0,0
1724834152,18.56328,73.8332667,542.6,25.539,100,29.31,-8.0,-81.0,168.0,0
1724834153,18.56328,73.8332667,542.6,25.631,100,29.31,-8.0,-81.0,168.0,0
1724834154,18.56328,73.8332667,542.6,25.634,100,29.31,-8.0,-81.0,168.0,0
1724834155,18.56328,73.8332667,542.6,25.761,100,29.31,-8.0,-81.0,168.0,0
1724834156,18.56328,73.8332667,542.6,25.726,100,29.21,-8.0,-81.0,168.0,0
1724834157,18.56328,73.8332667,542.6,25.789,100,29.22,-8.0,-81.0,168.0,0
1724834158,18.56328,73.8332667,542.6,25.699,100,29.22,-8.0,-81.0,168.0,0
1724834159,18.56328,73.8332667,542.6,25.912,100,29.75,-8.0,-81.0,168.0,0
1724834160,18.56328,73.8332667,542.6,25.973000000000003,100,29.75,-8.0,-81.0,168.0,0
1724834161,18.56328,73.8332667,542.6,26.103,100,29.75,-8.0,-81.0,168.0,0
1724834162,18.56328,73.8332667,542.6,25.997,100,29.77,-8.0,-81.0,168.0,0
1724834163,18.56328,73.8332667,542.6,26.05,100,29.75,-8.0,-81.0,168.0,0
1724834164,18.56328,73.8332667,542.6,25.956999999999997,100,29.75,-8.0,-81.0,168.0,0
1724834165,18.56328,73.8332667,542.6,25.830693069306932,101,30.18811881188119,-8.0,-81.0,168.0,0
1724834166,18.56328,73.8332667,542.6,25.784000000000002,100,30.14,-8.0,-81.0,168.0,0
1724834167,18.56328,73.8332667,542.6,26.018,100,30.15,-8.0,-81.0,168.0,0
1724834168,18.56328,73.8332667,542.6,25.747524752475247,101,29.900990099009903,-8.0,-81.0,168.0,0
1724834169,18.56328,73.8332667,542.6,25.712871287128714,101,29.900990099009903,-8.0,-81.0,168.0,0
1724834170,18.56328,73.8332667,542.6,25.86336633663366,101,29.900990099009903,-8.0,-81.0,168.0,0
1724834171,18.56328,73.8332667,542.6,25.873267326732673,101,29.900990099009903,-8.0,-81.0,168.0,0
1724834172,18.56328,73.8332667,542.6,26.05148514851485,101,29.900990099009903,-8.0,-81.0,168.0,0
1724834173,18.56328,73.8332667,542.6,25.81089108910891,101,29.900990099009903,-8.0,-81.0,168.0,0
1724834174,18.56328,73.8332667,542.6,26.128,100,29.59,-8.0,-81.0,168.0,0
1724834175,18.56328,73.8332667,542.6,25.93168316831683,101,29.643564356435643,-8.0,-81.0,168.0,0
1724834176,18.56328,73.8332667,542.6,25.845544554455447,101,29.643564356435643,-8.0,-81.0,168.0,0
1724834177,18.56328,73.8332667,542.6,25.911881188118812,101,29.465346534653467,-8.0,-81.0,168.0,0
1724834178,18.56328,73.8332667,542.6,26.257425742574256,101,29.465346534653467,-8.0,-81.0,168.0,0
1724834179,18.56328,73.8332667,542.6,26.14851485148515,101,29.465346534653467,-8.0,-81.0,168.0,0
1724834180,18.56328,73.8332667,542.6,25.93960396039604,101,29.465346534653467,-8.0,-81.0,168.0,0
1724834181,18.56328,73.8332667,542.6,25.895049504950496,101,29.465346534653467,-8.0,-81.0,168.0,0
1724834182,18.56328,73.8332667,542.6,25.98910891089109,101,29.465346534653467,-8.0,-81.0,168.0,0
1724834183,18.56328,73.8332667,542.6,25.934653465346535,101,29.356435643564357,-8.0,-81.0,168.0,0
1724834184,18.56328,73.8332667,542.6,25.819801980198022,101,29.356435643564357,-8.0,-81.0,168.0,0
1724834185,18.56328,73.8332667,542.6,26.085148514851483,101,29.356435643564357,-8.0,-81.0,168.0,0
1724834186,18.56328,73.8332667,542.6,25.818811881188118,101,29.356435643564357,-8.0,-81.0,168.0,0
1724834187,18.56328,73.8332667,542.6,25.793069306930693,101,29.26732673267327,-8.0,-81.0,168.0,0
1724834188,18.56328,73.8332667,542.6,26.034653465346533,101,29.247524752475247,-8.0,-81.0,168.0,0
1724834189,18.56328,73.8332667,542.6,26.03069306930693,101,29.247524752475247,-8.0,-81.0,168.0,0
1724834190,18.56328,73.8332667,542.6,25.914851485148517,101,29.247524752475247,-8.0,-81.0,168.0,0
1724834191,18.56328,73.8332667,542.6,26.022772277227723,101,29.247524752475247,-8.0,-81.0,168.0,0
1724834192,18.56328,73.8332667,542.6,26.338613861386136,101,29.138613861386137,-8.0,-81.0,168.0,0
1724834193,18.56328,73.8332667,542.6,26.003960396039606,101,29.138613861386137,-8.0,-81.0,168.0,0
1724834194,18.56328,73.8332667,542.6,26.04950495049505,101,29.138613861386137,-8.0,-81.0,168.0,0
1724834195,18.56328,73.8332667,542.6,26.162376237623764,101,29.138613861386137,-8.0,-81.0,168.0,0
1724834196,18.56328,73.8332667,542.6,26.116831683168318,101,29.06930693069307,-8.0,-81.0,168.0,0
1724834197,18.56328,73.8332667,542.6,26.06732673267327,101,29.06930693069307,-8.0,-81.0,168.0,0
1724834198,18.56328,73.8332667,542.6,26.305940594059408,101,29.386138613861387,-8.0,-81.0,168.0,0
1724834199,18.56328,73.8332667,542.6,26.162376237623764,101,28.801980198019802,-8.0,-81.0,168.0,0
1724834200,18.56328,73.8332667,542.6,25.994059405940597,101,28.801980198019802,-8.0,-81.0,168.0,0
1724834201,18.56328,73.8332667,542.6,26.303960396039603,101,28.782178217821784,-8.0,-81.0,168.0,0
1724834202,18.56328,73.8332667,542.6,26.150495049504947,101,28.782178217821784,-8.0,-81.0,168.0,0
1724834203,18.56328,73.8332667,542.6,26.174257425742574,101,28.782178217821784,-9.0,-81.0,168.0,0
1724834204,18.56328,73.8332667,542.6,26.250495049504952,101,28.782178217821784,-8.0,-81.0,168.0,0
1724834205,18.56328,73.8332667,542.6,26.101980198019803,101,28.782178217821784,-8.0,-81.0,168.0,0
1724834206,18.56328,73.8332667,542.6,25.799009900990097,101,28.782178217821784,-8.0,-81.0,168.0,0
1724834207,18.56328,73.8332667,542.6,25.835643564356438,101,28.73267326732673,-8.0,-81.0,168.0,0
1724834208,18.56328,73.8332667,542.6,25.945544554455445,101,28.782178217821784,-8.0,-81.0,168.0,0
1724834209,18.56328,73.8332667,542.6,25.898019801980197,101,28.821782178217823,-8.0,-81.0,168.0,0
1724834210,18.56328,73.8332667,542.6,25.894059405940595,101,28.91089108910891,-8.0,-81.0,168.0,0
1724834211,18.56328,73.8332667,542.6,26.0,101,29.03960396039604,-8.0,-81.0,168.0,0
1724834212,18.56328,73.8332667,542.6,26.36930693069307,101,29.89108910891089,-8.0,-81.0,168.0,0
1724834213,18.56328,73.8332667,542.6,26.378217821782176,101,30.10891089108911,-8.0,-81.0,168.0,0
1724834214,18.56328,73.8332667,542.6,26.35049504950495,101,30.702970297029704,-8.0,-81.0,168.0,0
1724834215,18.56328,73.8332667,542.6,26.412871287128713,101,30.673267326732674,-8.0,-81.0,168.0,0
1724834216,18.56328,73.8332667,542.6,26.269306930693066,101,30.613861386138613,-8.0,-81.0,168.0,0
1724834217,18.56328,73.8332667,542.6,26.474257425742575,101,30.574257425742573,-8.0,-81.0,168.0,0
1724834218,18.56328,73.8332667,542.6,26.335643564356438,101,30.544554455445546,-8.0,-81.0,168.0,0
1724834219,18.56328,73.8332667,542.6,26.145544554455444,101,30.534653465346533,-8.0,-81.0,168.0,0
1724834220,18.56328,73.8332667,542.6,26.00294117647059,102,30.352941176470587,-8.0,-81.0,168.0,0
1724834221,18.56328,73.8332667,542.6,25.954901960784316,102,30.058823529411764,-8.0,-81.0,168.0,0
1724834222,18.56328,73.8332667,542.6,26.00980392156863,102,30.058823529411764,-8.0,-81.0,168.0,0
1724834223,18.56328,73.8332667,542.6,25.812745098039215,102,30.058823529411764,-8.0,-81.0,168.0,0
1724834224,18.56328,73.8332667,542.6,25.66764705882353,102,29.80392156862745,-8.0,-81.0,168.0,0
1724834225,18.56328,73.8332667,542.6,25.735294117647058,102,29.813725490196077,-8.0,-81.0,168.0,0
1724834226,18.56328,73.8332667,542.6,25.866666666666667,102,29.80392156862745,-8.0,-81.0,168.0,0
1724834227,18.56328,73.8332667,542.6,25.78627450980392,102,29.80392156862745,-8.0,-81.0,168.0,0
1724834228,18.56328,73.8332667,542.6,25.761764705882353,102,29.813725490196077,-8.0,-81.0,168.0,0
1724834229,18.56328,73.8332667,542.6,25.81470588235294,102,29.813725490196077,-8.0,-81.0,168.0,0
1724834230,18.56328,73.8332667,542.6,25.810784313725488,102,29.813725490196077,-8.0,-81.0,168.0,0
1724834231,18.56328,73.8332667,542.6,25.827450980392157,102,29.61764705882353,-8.0,-81.0,168.0,0
1724834232,18.56328,73.8332667,542.6,25.95686274509804,102,29.61764705882353,-8.0,-81.0,168.0,0
1724834233,18.56328,73.8332667,542.6,25.89607843137255,102,29.627450980392158,-8.0,-81.0,169.0,0
1724834234,18.56328,73.8332667,542.6,25.900000000000002,102,29.519607843137255,-8.0,-81.0,168.0,0
1724834235,18.56328,73.8332667,542.6,25.913725490196075,102,29.519607843137255,-8.0,-81.0,168.0,0
1724834236,18.56328,73.8332667,542.6,26.2,102,29.519607843137255,-8.0,-81.0,168.0,0
1724834237,18.56328,73.8332667,542.6,26.007843137254905,102,29.519607843137255,-8.0,-81.0,168.0,0
1724834238,18.56328,73.8332667,542.6,25.913725490196075,102,29.519607843137255,-8.0,-81.0,168.0,0
1724834239,18.56328,73.8332667,542.6,25.812745098039215,102,29.50980392156863,-8.0,-81.0,168.0,0
1724834240,18.56328,73.8332667,542.6,25.6843137254902,102,29.41176470588235,-9.0,-81.0,168.0,0
1724834241,18.56328,73.8332667,542.6,25.794117647058822,102,29.41176470588235,-8.0,-81.0,168.0,0
1724834242,18.56328,73.8332667,542.6,25.925742574257427,101,29.15841584158416,-8.0,-81.0,168.0,0
1724834243,18.56328,73.8332667,542.6,25.67549019607843,102,29.294117647058822,-8.0,-81.0,168.0,0
1724834244,18.56328,73.8332667,542.6,25.508823529411767,102,29.294117647058822,-8.0,-81.0,168.0,0
1724834245,18.56328,73.8332667,542.6,25.59607843137255,102,29.284313725490197,-8.0,-81.0,168.0,0
1724834246,18.56328,73.8332667,542.6,25.537254901960786,102,29.274509803921568,-8.0,-81.0,168.0,0
1724834247,18.56328,73.8332667,542.6,25.725490196078432,102,29.274509803921568,-8.0,-81.0,168.0,0
1724834248,18.56328,73.8332667,542.6,25.64411764705882,102,29.274509803921568,-8.0,-81.0,168.0,0
1724834249,18.56328,73.8332667,542.6,25.597058823529412,102,29.186274509803923,-8.0,-81.0,168.0,0
1724834250,18.56328,73.8332667,542.6,25.495098039215687,102,29.176470588235293,-8.0,-81.0,168.0,0
1724834251,18.56328,73.8332667,542.6,25.400980392156864,102,29.166666666666668,-8.0,-81.0,168.0,0
1724834252,18.56328,73.8332667,542.6,25.494117647058825,102,29.15686274509804,-8.0,-81.0,168.0,0
1724834253,18.56328,73.8332667,542.6,25.835294117647056,102,29.15686274509804,-8.0,-81.0,168.0,0
1724834254,18.56328,73.8332667,542.6,25.741176470588233,102,29.147058823529413,-8.0,-81.0,168.0,0
1724834255,18.56328,73.8332667,542.6,25.58235294117647,102,29.137254901960784,-8.0,-81.0,168.0,0
1724834256,18.56328,73.8332667,542.6,25.620588235294118,102,29.137254901960784,-8.0,-81.0,168.0,0
1724834257,18.56328,73.8332667,542.6,25.559803921568626,102,29.127450980392158,-8.0,-81.0,168.0,0
1724834258,18.56328,73.8332667,542.6,25.70686274509804,102,29.127450980392158,-8.0,-81.0,168.0,0
1724834259,18.56328,73.8332667,542.6,25.572549019607845,102,29.11764705882353,-8.0,-81.0,168.0,0
1724834260,18.56328,73.8332667,542.6,25.531372549019608,102,29.098039215686274,-8.0,-81.0,168.0,0
1724834261,18.56328,73.8332667,542.6,25.663725490196075,102,29.08823529411765,-8.0,-81.0,168.0,0
1724834262,18.56328,73.8332667,542.6,25.78627450980392,102,29.068627450980394,-8.0,-81.0,168.0,0
1724834263,18.56328,73.8332667,542.6,25.690196078431374,102,29.058823529411764,-8.0,-81.0,168.0,0
1724834264,18.56328,73.8332667,542.6,25.54019607843137,102,29.058823529411764,-8.0,-81.0,168.0,0
1724834265,18.56328,73.8332667,542.6,25.75392156862745,102,29.04901960784314,-8.0,-81.0,168.0,0
1724834266,18.56328,73.8332667,542.6,25.57941176470588,102,29.15686274509804,-8.0,-81.0,168.0,0
1724834267,18.56328,73.8332667,542.6,25.5921568627451,102,29.04901960784314,-8.0,-81.0,168.0,0
1724834268,18.56328,73.8332667,542.6,25.654901960784315,102,29.03921568627451,-8.0,-81.0,168.0,0
1724834269,18.56328,73.8332667,542.6,25.580392156862743,102,29.03921568627451,-8.0,-81.0,168.0,0
1724834270,18.56328,73.8332667,542.6,25.613725490196078,102,29.029411764705884,-8.0,-81.0,168.0,0
1724834271,18.56328,73.8332667,542.6,25.61862745098039,102,29.029411764705884,-8.0,-81.0,168.0,0
1724834272,18.56328,73.8332667,542.6,25.66764705882353,102,29.03921568627451,-8.0,-81.0,168.0,0
1724834273,18.56328,73.8332667,542.6,25.659803921568628,102,29.03921568627451,-8.0,-81.0,168.0,0
1724834274,18.56328,73.8332667,542.6,25.811764705882354,102,29.019607843137255,-8.0,-81.0,168.0,0
1724834275,18.56328,73.8332667,542.6,25.664705882352944,102,29.00980392156863,-8.0,-81.0,168.0,0
1724834276,18.56328,73.8332667,542.6,25.742574257425744,101,29.217821782178216,-8.0,-81.0,168.0,0
1724834277,18.56328,73.8332667,542.6,25.821782178217823,101,29.217821782178216,-8.0,-81.0,168.0,0
1724834278,18.56328,73.8332667,542.6,25.806930693069308,101,29.207920792079207,-8.0,-81.0,168.0,0
1724834279,18.56328,73.8332667,542.6,25.782178217821784,101,30.336633663366335,-8.0,-81.0,168.0,0
1724834280,18.56328,73.8332667,542.6,26.065346534653465,101,30.336633663366335,-8.0,-81.0,168.0,0
1724834281,18.56328,73.8332667,542.6,25.976237623762376,101,30.326732673267326,-8.0,-81.0,168.0,0
1724834282,18.56328,73.8332667,542.6,26.014851485148515,101,30.326732673267326,-8.0,-81.0,168.0,0
1724834283,18.56328,73.8332667,542.6,26.005882352941175,102,30.107843137254903,-8.0,-81.0,168.0,0
1724834284,18.56328,73.8332667,542.6,26.04019607843137,102,30.098039215686274,-8.0,-81.0,168.0,0
1724834285,18.56328,73.8332667,542.6,25.94607843137255,102,30.098039215686274,-8.0,-81.0,168.0,0
1724834286,18.56328,73.8332667,542.6,26.032352941176473,102,30.098039215686274,-8.0,-81.0,168.0,0
1724834287,18.56328,73.8332667,542.6,26.01764705882353,102,30.098039215686274,-8.0,-81.0,168.0,0
1724834288,18.56328,73.8332667,542.6,25.784313725490197,102,29.54901960784314,-8.0,-81.0,168.0,0
1724834289,18.56328,73.8332667,542.6,25.977450980392156,102,29.54901960784314,-8.0,-81.0,168.0,0
1724834290,18.56328,73.8332667,542.6,25.9343137254902,102,29.54901960784314,-8.0,-81.0,168.0,0
1724834291,18.56328,73.8332667,542.6,25.768627450980393,102,29.54901960784314,-8.0,-81.0,168.0,0
1724834292,18.56328,73.8332667,542.6,25.698039215686272,102,28.5,-8.0,-81.0,168.0,0
1724834293,18.56328,73.8332667,542.6,25.601960784313725,102,29.53921568627451,-8.0,-81.0,168.0,0
1724834294,18.56328,73.8332667,542.6,25.845098039215685,102,29.53921568627451,-8.0,-81.0,168.0,0
1724834295,18.56328,73.8332667,542.6,25.849999999999998,102,29.53921568627451,-8.0,-81.0,168.0,0
1724834296,18.56328,73.8332667,542.6,25.88137254901961,102,29.529411764705884,-8.0,-81.0,168.0,0
1724834297,18.56328,73.8332667,542.6,25.78921568627451,102,29.245098039215687,-8.0,-81.0,168.0,0
1724834298,18.56328,73.8332667,542.6,25.67058823529412,102,29.245098039215687,-8.0,-81.0,168.0,0
1724834299,18.56328,73.8332667,542.6,25.640196078431373,102,29.245098039215687,-8.0,-81.0,168.0,0
1724834300,18.56328,73.8332667,542.6,25.680392156862744,102,29.245098039215687,-8.0,-81.0,168.0,0
1724834301,18.56328,73.8332667,542.6,25.65686274509804,102,29.235294117647058,-8.0,-81.0,168.0,0
1724834302,18.56328,73.8332667,542.6,26.004901960784313,102,29.235294117647058,-8.0,-81.0,168.0,0
1724834303,18.56328,73.8332667,542.6,26.07549019607843,102,29.235294117647058,-8.0,-81.0,168.0,0
1724834304,18.56328,73.8332667,542.6,25.965686274509803,102,29.235294117647058,-8.0,-81.0,168.0,0
1724834305,18.56328,73.8332667,542.6,25.992156862745095,102,29.235294117647058,-8.0,-81.0,168.0,0
1724834306,18.56328,73.8332667,542.6,26.014705882352942,102,29.225490196078432,-8.0,-81.0,168.0,0
1724834307,18.56328,73.8332667,542.6,26.01764705882353,102,29.666666666666668,-8.0,-81.0,168.0,0
1724834308,18.56328,73.8332667,542.6,26.024509803921568,102,29.666666666666668,-8.0,-81.0,168.0,0
1724834309,18.56328,73.8332667,542.6,26.01764705882353,102,29.666666666666668,-8.0,-81.0,168.0,0
1724834310,18.56328,73.8332667,542.6,26.05392156862745,102,29.666666666666668,-8.0,-81.0,168.0,0
1724834311,18.56328,73.8332667,542.6,25.952941176470585,102,29.666666666666668,-8.0,-81.0,168.0,0
1724834312,18.56328,73.8332667,542.6,26.01764705882353,102,29.666666666666668,-8.0,-81.0,168.0,0
1724834313,18.56328,73.8332667,542.6,25.953921568627454,102,29.65686274509804,-8.0,-81.0,168.0,0
1724834314,18.56328,73.8332667,542.6,26.04901960784314,102,29.666666666666668,-8.0,-81.0,168.0,0
1724834315,18.56328,73.8332667,542.6,26.024509803921568,102,29.666666666666668,-8.0,-81.0,168.0,0
1724834316,18.56328,73.8332667,542.6,25.768627450980393,102,29.764705882352942,-8.0,-81.0,168.0,0
1724834317,18.56328,73.8332667,542.6,26.108823529411765,102,29.764705882352942,-8.0,-81.0,168.0,0
1724834318,18.56328,73.8332667,542.6,26.07450980392157,102,29.764705882352942,-8.0,-81.0,168.0,0
1724834319,18.56328,73.8332667,542.6,26.04313725490196,102,29.764705882352942,-8.0,-81.0,168.0,0
1724834320,18.56328,73.8332667,542.6,26.08235294117647,102,29.735294117647058,-8.0,-81.0,168.0,0
1724834321,18.56328,73.8332667,542.6,26.08823529411765,102,29.735294117647058,-8.0,-81.0,168.0,0
1724834322,18.56328,73.8332667,542.6,26.016666666666666,102,29.735294117647058,-8.0,-81.0,168.0,0
1724834323,18.56328,73.8332667,542.6,26.063725490196077,102,29.735294117647058,-8.0,-81.0,168.0,0
1724834324,18.56328,73.8332667,542.6,25.984313725490196,102,29.735294117647058,-8.0,-81.0,168.0,0
1724834325,18.56328,73.8332667,542.6,26.059803921568626,102,29.735294117647058,-8.0,-81.0,168.0,0
1724834326,18.56328,73.8332667,542.6,25.977450980392156,102,29.30392156862745,-8.0,-81.0,168.0,0
1724834327,18.56328,73.8332667,542.6,25.827450980392157,102,29.30392156862745,-8.0,-81.0,168.0,0
1724834328,18.56328,73.8332667,542.6,25.929411764705883,102,29.294117647058822,-8.0,-81.0,168.0,0
1724834329,18.56328,73.8332667,542.6,25.849999999999998,102,29.294117647058822,-8.0,-81.0,168.0,0
1724834330,18.56328,73.8332667,542.6,25.93333333333333,102,29.294117647058822,-8.0,-81.0,168.0,0
1724834331,18.56328,73.8332667,542.6,25.923529411764704,102,29.294117647058822,-8.0,-81.0,168.0,0
1724834332,18.56328,73.8332667,542.6,25.875490196078434,102,29.294117647058822,-8.0,-81.0,168.0,0
1724834333,18.56328,73.8332667,542.6,25.795098039215684,102,29.30392156862745,-8.0,-81.0,169.0,0
1724834334,18.56328,73.8332667,542.6,25.892156862745097,102,29.30392156862745,-8.0,-81.0,168.0,0
1724834335,18.56328,73.8332667,542.6,25.6843137254902,102,29.07843137254902,-8.0,-81.0,168.0,0
1724834336,18.56328,73.8332667,542.6,25.876470588235296,102,29.07843137254902,-8.0,-81.0,168.0,0
1724834337,18.56328,73.8332667,542.6,25.601960784313725,102,29.068627450980394,-8.0,-81.0,168.0,0
1724834338,18.56328,73.8332667,542.6,25.711764705882352,102,29.08823529411765,-8.0,-81.0,168.0,0
1724834339,18.56328,73.8332667,542.6,25.81666666666667,102,29.08823529411765,-8.0,-81.0,168.0,0
1724834340,18.56328,73.8332667,542.6,25.778431372549022,102,29.08823529411765,-8.0,-81.0,168.0,0
1724834341,18.56328,73.8332667,542.6,23.956,100,29.67,-8.0,-81.0,168.0,0
1724834342,18.56328,73.8332667,542.6,23.956,100,28.61,-8.0,-81.0,169.0,0
1724834343,18.56328,73.8332667,542.6,24.778000000000002,100,29.69,-8.0,-81.0,168.0,0
1724834344,18.56328,73.8332667,542.6,25.034000000000002,100,29.47,-8.0,-81.0,168.0,0
1724834345,18.56328,73.8332667,542.6,25.433000000000003,100,29.47,-8.0,-81.0,168.0,0
1724834346,18.56328,73.8332667,542.6,25.215999999999998,100,29.47,-8.0,-81.0,168.0,0
1724834347,18.56328,73.8332667,542.6,25.316,100,29.47,-8.0,-81.0,168.0,0
1724834348,18.56328,73.8332667,542.6,25.201,100,29.46,-8.0,-81.0,168.0,0
1724834349,18.56328,73.8332667,542.6,25.945,100,29.46,-8.0,-81.0,168.0,0
1724834350,18.56328,73.8332667,542.6,25.839000000000002,100,29.46,-8.0,-81.0,168.0,0
1724834351,18.56328,73.8332667,542.6,25.375999999999998,100,29.46,-8.0,-81.0,168.0,0
1724834352,18.56328,73.8332667,542.6,25.473000000000003,100,29.46,-8.0,-81.0,168.0,0
1724834353,18.56328,73.8332667,542.6,25.418000000000003,100,29.46,-8.0,-81.0,168.0,0
1724834354,18.56328,73.8332667,542.6,24.910999999999998,100,29.46,-8.0,-81.0,168.0,0
1724834355,18.56328,73.8332667,542.6,25.469,100,29.46,-8.0,-81.0,168.0,0
1724834356,18.56328,73.8332667,542.6,25.418000000000003,100,29.46,-8.0,-81.0,168.0,0
1724834357,18.56328,73.8332667,542.6,24.98,100,29.46,-15.0,-81.0,161.0,0
1724834358,18.56328,73.8332667,542.6,25.273737373737372,99,29.616161616161616,-5.0,-81.0,171.0,0
1724834359,18.56328,73.8332667,542.6,25.423232323232323,99,29.616161616161616,-8.0,-81.0,168.0,0
1724834360,18.56328,73.8332667,542.6,25.275757575757577,99,29.616161616161616,39.0,-74.0,217.0,0
1724834361,18.56328,73.8332667,542.6,25.42727272727273,99,29.606060606060606,33.0,-77.0,211.0,0
1724834362,18.56328,73.8332667,542.6,25.881999999999998,100,29.43,41.0,-79.0,219.0,0
1724834363,18.56328,73.8332667,542.6,25.866,100,30.58,54.0,-79.0,232.0,0
1724834364,18.56328,73.8332667,542.6,26.472727272727276,99,30.80808080808081,51.0,-78.0,229.0,0
1724834365,18.56328,73.8332667,542.6,26.33939393939394,99,30.80808080808081,43.0,-80.0,221.0,0
1724834366,18.56328,73.8332667,542.6,25.68,100,30.56,89.0,-86.0,266.0,0
1724834367,18.56328,73.8332667,542.6,25.267676767676768,99,30.80808080808081,26.0,-79.0,205.0,0
1724834368,18.56328,73.8332667,542.6,25.27171717171717,99,30.32323232323232,59.0,-88.0,236.0,0
1724834369,18.56328,73.8332667,542.6,25.272,100,30.56,25.0,-82.0,200.0,0
1724834370,18.56328,73.8332667,542.6,25.06,100,30.57,30.0,-82.0,202.0,0
1724834371,18.56328,73.8332667,542.6,25.982,100,30.57,25.0,-82.0,199.0,0
1724834372,18.56328,73.8332667,542.6,26.465656565656566,99,30.262626262626263,26.0,-82.0,199.0,0
1724834373,18.56328,73.8332667,542.6,26.503,100,30.02,26.0,-83.0,200.0,0
1724834374,18.56328,73.8332667,542.6,26.473000000000003,100,30.02,25.0,-82.0,199.0,0
1724834375,18.56328,73.8332667,542.6,26.502,100,30.02,25.0,-82.0,198.0,0
1724834376,18.56328,73.8332667,542.6,26.278000000000002,100,30.02,24.0,-82.0,198.0,0
1724834377,18.56328,73.8332667,542.6,26.252,100,29.97,25.0,-82.0,198.0,0
1724834378,18.56328,73.8332667,542.6,26.381,100,29.99,25.0,-82.0,199.0,0
1724834379,18.56328,73.8332667,542.6,26.564,100,29.99,26.0,-83.0,200.0,0
1724834380,18.56328,73.8332667,542.6,26.456999999999997,100,29.99,23.0,-80.0,196.0,0
1724834381,18.56328,73.8332667,542.6,26.541,100,30.0,25.0,-81.0,198.0,0
1724834382,18.56328,73.8332667,542.6,26.256,100,29.71,23.0,-81.0,197.0,0
1724834383,18.56328,73.8332667,542.6,26.144000000000002,100,29.71,23.0,-81.0,196.0,0
1724834384,18.56328,73.8332667,542.6,26.264,100,29.71,23.0,-81.0,197.0,0
1724834385,18.56328,73.8332667,542.6,26.195999999999998,100,29.71,23.0,-81.0,197.0,0
1724834386,18.56328,73.8332667,542.6,26.098000000000003,100,29.71,23.0,-81.0,197.0,0
1724834387,18.56328,73.8332667,542.6,26.487,100,29.71,24.0,-81.0,197.0,0
1724834388,18.56328,73.8332667,542.6,25.598000000000003,100,29.71,24.0,-81.0,197.0,0
1724834389,18.56328,73.8332667,542.6,25.345,100,29.71,25.0,-81.0,198.0,0
1724834390,18.56328,73.8332667,542.6,25.428,100,29.71,26.0,-82.0,199.0,0
1724834391,18.56328,73.8332667,542.6,25.174,100,29.5,35.0,-84.0,208.0,0
1724834392,18.56328,73.8332667,542.6,24.664,100,28.43,19.0,-81.0,193.0,0
1724834393,18.56328,73.8332667,542.6,24.8,100,29.49,55.0,-85.0,228.0,0
1724834394,18.56328,73.8332667,542.6,25.29,100,29.49,34.0,-84.0,208.0,0
1724834395,18.56328,73.8332667,542.6,26.256999999999998,100,29.49,34.0,-84.0,208.0,0
1724834396,18.56328,73.8332667,542.6,26.29,100,29.51,29.0,-83.0,203.0,0
1724834397,18.56328,73.8332667,542.6,26.276,100,29.51,32.0,-84.0,206.0,0
1724834398,18.56328,73.8332667,542.6,26.465,100,29.5,33.0,-84.0,207.0,0
1724834399,18.56328,73.8332667,542.6,26.486868686868686,99,29.67676767676768,33.0,-84.0,207.0,0
1724834400,18.56328,73.8332667,542.6,26.423000000000002,100,29.41,33.0,-84.0,207.0,0
1724834401,18.56328,73.8332667,542.6,26.296,100,29.41,34.0,-84.0,208.0,0
1724834402,18.56328,73.8332667,542.6,26.539,100,29.4,33.0,-84.0,207.0,0
1724834403,18.56328,73.8332667,542.6,26.671999999999997,100,29.41,33.0,-84.0,207.0,0
1724834404,18.56328,73.8332667,542.6,26.463,100,29.41,37.0,-85.0,211.0,0
1724834405,18.56328,73.8332667,542.6,26.476,100,29.41,32.0,-84.0,206.0,0
1724834406,18.56328,73.8332667,542.6,26.576767676767677,99,29.424242424242426,34.0,-84.0,207.0,0
1724834407,18.56328,73.8332667,542.6,26.646,100,29.4,33.0,-84.0,207.0,0
1724834408,18.56328,73.8332667,542.6,26.516,100,29.4,35.0,-84.0,209.0,0
1724834409,18.56328,73.8332667,542.6,26.5,100,29.41,35.0,-84.0,208.0,0
1724834410,18.56328,73.8332667,542.6,26.379,100,29.41,33.0,-84.0,207.0,0
1724834411,18.56328,73.8332667,542.6,26.13,100,29.41,33.0,-84.0,207.0,0
1724834412,18.56328,73.8332667,542.6,25.822,100,29.41,33.0,-84.0,207.0,0
1724834413,18.56328,73.8332667,542.6,25.435,100,29.41,33.0,-84.0,207.0,0
1724834414,18.56328,73.8332667,542.6,25.766,100,29.41,33.0,-83.0,206.0,0
1724834415,18.56328,73.8332667,542.6,25.746,100,29.41,33.0,-84.0,207.0,0
1724834416,18.56328,73.8332667,542.6,25.709,100,29.41,33.0,-83.0,206.0,0
1724834417,18.56328,73.8332667,542.6,25.729,100,29.41,33.0,-83.0,206.0,0
1724834418,18.56328,73.8332667,542.6,25.824242424242424,99,29.646464646464647,33.0,-83.0,206.0,0
1724834419,18.56328,73.8332667,542.6,25.89090909090909,99,29.646464646464647,32.0,-83.0,206.0,0
1724834420,18.56328,73.8332667,542.6,25.78181818181818,99,29.646464646464647,33.0,-83.0,207.0,0
1724834421,18.56328,73.8332667,542.6,25.47070707070707,99,29.656565656565657,33.0,-83.0,206.0,0
1724834422,18.56328,73.8332667,542.6,25.65050505050505,99,29.656565656565657,32.0,-83.0,206.0,0
1724834423,18.56328,73.8332667,542.6,25.658585858585855,99,29.656565656565657,32.0,-83.0,206.0,0
1724834424,18.56328,73.8332667,542.6,25.648484848484845,99,29.646464646464647,32.0,-83.0,206.0,0
1724834425,18.56328,73.8332667,542.6,25.620202020202022,99,29.646464646464647,32.0,-83.0,206.0,0
1724834426,18.56328,73.8332667,542.6,25.645454545454545,99,29.646464646464647,31.0,-83.0,205.0,0
1724834427,18.56328,73.8332667,542.6,25.68383838383838,99,29.646464646464647,32.0,-83.0,206.0,0
1724834428,18.56328,73.8332667,542.6,25.573737373737377,99,29.646464646464647,32.0,-83.0,206.0,0
1724834429,18.56328,73.8332667,542.6,25.737373737373737,99,30.31313131313131,32.0,-83.0,206.0,0
1724834430,18.56328,73.8332667,542.6,25.721212121212123,99,30.31313131313131,32.0,-83.0,206.0,0
1724834431,18.56328,73.8332667,542.6,25.74646464646465,99,30.333333333333332,33.0,-83.0,206.0,0
1724834432,18.56328,73.8332667,542.6,25.768686868686867,99,30.333333333333332,32.0,-83.0,206.0,0
1724834433,18.56328,73.8332667,542.6,25.716161616161617,99,30.818181818181817,32.0,-83.0,206.0,0
1724834434,18.56328,73.8332667,542.6,25.82929292929293,99,30.818181818181817,32.0,-83.0,206.0,0
1724834435,18.56328,73.8332667,542.6,25.97878787878788,99,30.818181818181817,32.0,-83.0,206.0,0
1724834436,18.56328,73.8332667,542.6,25.83939393939394,99,30.818181818181817,33.0,-83.0,206.0,0
1724834437,18.56328,73.8332667,542.6,25.815151515151513,99,30.818181818181817,33.0,-83.0,206.0,0
1724834438,18.56328,73.8332667,542.6,25.821212121212124,99,30.484848484848484,33.0,-83.0,206.0,0
1724834439,18.56328,73.8332667,542.6,25.831313131313134,99,30.464646464646464,33.0,-83.0,206.0,0
1724834440,18.56328,73.8332667,542.6,25.83030303030303,99,30.474747474747474,32.0,-83.0,206.0,0
1724834441,18.56328,73.8332667,542.6,25.801010101010103,99,30.454545454545453,33.0,-83.0,207.0,0
1724834442,18.56328,73.8332667,542.6,25.85050505050505,99,29.12121212121212,33.0,-83.0,206.0,0
1724834443,18.56328,73.8332667,542.6,25.893939393939394,99,30.19191919191919,33.0,-83.0,206.0,0
1724834444,18.56328,73.8332667,542.6,25.573737373737377,99,30.19191919191919,33.0,-84.0,207.0,0
1724834445,18.56328,73.8332667,542.6,25.7020202020202,99,30.19191919191919,34.0,-84.0,208.0,0
1724834446,18.56328,73.8332667,542.6,25.858,100,29.94,33.0,-84.0,207.0,0
1724834447,18.56328,73.8332667,542.6,25.858,100,29.76,34.0,-84.0,207.0,0
1724834448,18.56328,73.8332667,542.6,25.869,100,29.8,34.0,-84.0,208.0,0
1724834449,18.56328,73.8332667,542.6,25.801,100,29.8,34.0,-84.0,208.0,0
1724834450,18.56328,73.8332667,542.6,25.706,100,29.8,34.0,-84.0,207.0,0
1724834451,18.56328,73.8332667,542.6,25.906,100,29.69,33.0,-84.0,207.0,0
1724834452,18.56328,73.8332667,542.6,25.919,100,29.69,33.0,-84.0,207.0,0
1724834453,18.56328,73.8332667,542.6,25.825,100,29.69,33.0,-84.0,207.0,0
1724834454,18.56328,73.8332667,542.6,25.96060606060606,99,29.858585858585858,33.0,-84.0,207.0,0
1724834455,18.56328,73.8332667,542.6,26.025252525252526,99,29.858585858585858,33.0,-84.0,207.0,0
1724834456,18.56328,73.8332667,542.6,25.909000000000002,100,29.91,33.0,-84.0,207.0,0
1724834457,18.56328,73.8332667,542.6,25.835,100,29.32,33.0,-84.0,207.0,0
1724834458,18.56328,73.8332667,542.6,25.807,100,29.32,33.0,-84.0,207.0,0
1724834459,18.56328,73.8332667,542.6,25.809,100,29.32,33.0,-83.0,207.0,0
1724834460,18.56328,73.8332667,542.6,25.779,100,29.32,33.0,-84.0,207.0,0
1724834461,18.56328,73.8332667,542.6,25.715,100,29.87,33.0,-84.0,207.0,0
1724834462,18.56328,73.8332667,542.6,25.708000000000002,100,29.87,33.0,-83.0,207.0,0
1724834463,18.56328,73.8332667,542.6,25.406,100,29.82,33.0,-83.0,207.0,0
1724834464,18.56328,73.8332667,542.6,25.851999999999997,100,29.85,33.0,-83.0,206.0,0
1724834465,18.56328,73.8332667,542.6,25.743000000000002,100,29.89,32.0,-83.0,206.0,0
1724834466,18.56328,73.8332667,542.6,25.86,100,30.37,33.0,-83.0,206.0,0
1724834467,18.56328,73.8332667,542.6,25.568,100,30.5,33.0,-83.0,207.0,0
1724834468,18.56328,73.8332667,542.6,25.958000000000002,100,30.7,33.0,-83.0,206.0,0
1724834469,18.56328,73.8332667,542.6,25.824752475247525,101,30.673267326732674,33.0,-83.0,207.0,0
1724834470,18.56328,73.8332667,542.6,25.729702970297026,101,30.504950495049506,33.0,-83.0,206.0,0
1724834471,18.56328,73.8332667,542.6,26.053465346534654,101,30.475247524752476,33.0,-83.0,207.0,0
1724834472,18.56328,73.8332667,542.6,25.836633663366335,101,30.415841584158414,33.0,-83.0,207.0,0
1724834473,18.56328,73.8332667,542.6,25.69207920792079,101,30.366336633663366,33.0,-83.0,206.0,0
1724834474,18.56328,73.8332667,542.6,25.947524752475246,101,30.336633663366335,33.0,-83.0,206.0,0
1724834475,18.56328,73.8332667,542.6,25.956435643564355,101,30.06930693069307,33.0,-83.0,207.0,0
1724834476,18.56328,73.8332667,542.6,25.824752475247525,101,30.059405940594058,33.0,-83.0,207.0,0
1724834477,18.56328,73.8332667,542.6,25.64851485148515,101,30.04950495049505,33.0,-83.0,206.0,0
1724834478,18.56328,73.8332667,542.6,24.96237623762376,101,30.04950495049505,33.0,-83.0,206.0,0
1724834479,18.56328,73.8332667,542.6,25.16078431372549,102,29.823529411764707,33.0,-83.0,206.0,0
1724834480,18.56328,73.8332667,542.6,25.513,100,30.11,33.0,-83.0,206.0,0
1724834481,18.56328,73.8332667,542.6,25.351999999999997,100,30.12,32.0,-83.0,206.0,0
1724834482,18.56328,73.8332667,542.6,25.494,100,29.06,33.0,-83.0,206.0,0
1724834483,18.56328,73.8332667,542.6,25.049,100,30.1,33.0,-83.0,206.0,0
1724834484,18.56328,73.8332667,542.6,25.154,100,30.11,33.0,-83.0,206.0,0
1724834485,18.56328,73.8332667,542.6,25.622772277227725,101,29.77227722772277,33.0,-83.0,206.0,0
1724834486,18.56328,73.8332667,542.6,25.535,100,30.0,33.0,-83.0,206.0,0
1724834487,18.56328,73.8332667,542.6,25.055999999999997,100,30.01,33.0,-83.0,206.0,0
1724834488,18.56328,73.8332667,542.6,24.958000000000002,100,30.01,33.0,-83.0,206.0,0
1724834489,18.56328,73.8332667,542.6,25.449,100,29.91,33.0,-83.0,206.0,0
1724834490,18.56328,73.8332667,542.6,25.614,100,29.92,32.0,-83.0,206.0,0
1724834491,18.56328,73.8332667,542.6,25.27326732673267,101,29.683168316831683,32.0,-83.0,206.0,0
1724834492,18.56328,73.8332667,542.6,25.8,101,28.653465346534652,33.0,-83.0,206.0,0
1724834493,18.56328,73.8332667,542.6,25.685148514851484,101,29.683168316831683,33.0,-83.0,206.0,0
1724834494,18.56328,73.8332667,542.6,25.681188118811882,101,29.683168316831683,33.0,-83.0,206.0,0
1724834495,18.56328,73.8332667,542.6,25.176470588235293,102,29.34313725490196,33.0,-83.0,207.0,0
1724834496,18.56328,73.8332667,542.6,25.837254901960787,102,29.34313725490196,33.0,-83.0,207.0,0
1724834497,18.56328,73.8332667,542.6,25.44950495049505,101,29.564356435643564,33.0,-83.0,207.0,0
1724834498,18.56328,73.8332667,542.6,25.687254901960785,102,29.245098039215687,33.0,-83.0,207.0,0
1724834499,18.56328,73.8332667,542.6,25.704901960784316,102,29.245098039215687,33.0,-83.0,206.0,0
