timestamp,latitude,longitude,altitude,mean_snr,sat_count,mean_elevation,roll,pitch,yaw,is_inclined
1723799670,18.5632952,73.8332025,521.5,,0,,5.0,-83.0,187.0,0
1723799669,18.5632948,73.8332052,521.5,,0,,,,,0
1723799671,18.5632953,73.8332029,521.5,20.254639175257733,97,33.09278350515464,4.0,-83.0,187.0,0
1723799672,18.5632916,73.8332054,521.5,19.194736842105264,95,33.4,4.0,-83.0,186.0,0
1723799673,18.5632881,73.83321,521.5,20.57659574468085,94,33.202127659574465,3.0,-82.0,186.0,0
1723799664,18.5633938,73.8332147,521.5,,0,,,,,0
1723799674,18.5632847,73.8332136,521.5,21.398947368421055,95,32.62105263157895,3.0,-83.0,186.0,0
1723799675,18.5632813,73.833217,521.5,20.745263157894737,95,32.62105263157895,4.0,-83.0,187.0,0
1723799676,18.5632803,73.8332204,521.5,21.257894736842104,95,32.62105263157895,3.0,-82.0,186.0,0
1723799677,18.5632801,73.8332213,521.5,21.64242424242424,99,32.282828282828284,4.0,-83.0,186.0,0
1723799678,18.5632801,73.8332226,521.5,21.65247524752475,101,32.17821782178218,4.0,-83.0,186.0,0
1723799679,18.5634057,73.8332328,521.5,21.86336633663366,101,32.17821782178218,4.0,-83.0,186.0,0
1723799680,18.5632801,73.8332232,521.5,21.85148514851485,101,32.17821782178218,4.0,-83.0,186.0,0
1723799681,18.5632802,73.8332231,521.5,21.832673267326733,101,32.17821782178218,3.0,-83.0,186.0,0
1723799682,18.56328,73.833223,521.5,21.946534653465346,101,32.17821782178218,3.0,-83.0,186.0,0
1723799683,18.56328,73.8332232,521.5,22.16039603960396,101,31.81188118811881,3.0,-83.0,186.0,0
1723799684,18.56328,73.8332232,521.5,21.883168316831682,101,31.77227722772277,3.0,-83.0,186.0,0
1723799685,18.5632824,73.8332161,521.5,21.963366336633666,101,31.77227722772277,3.0,-83.0,186.0,0
1723799686,18.563283,73.8332141,521.5,21.900990099009903,101,31.77227722772277,3.0,-83.0,186.0,0
1723799687,18.5632832,73.8332135,521.5,22.234653465346533,101,31.77227722772277,3.0,-83.0,186.0,0
1723799688,18.5632833,73.8332134,521.5,21.92970297029703,101,31.77227722772277,3.0,-83.0,186.0,0
1723799689,18.5632833,73.8332133,521.5,21.900000000000002,101,31.77227722772277,3.0,-83.0,186.0,0
1723799690,18.5632833,73.8332133,521.5,22.371287128712872,101,31.77227722772277,3.0,-83.0,186.0,0
1723799691,18.5632833,73.8332133,521.5,22.236633663366337,101,31.782178217821784,3.0,-83.0,186.0,0
1723799692,18.5632917,73.8332037,521.5,22.09313725490196,102,32.01960784313726,3.0,-83.0,186.0,0
1723799693,18.5632941,73.833201,521.5,22.511764705882353,102,32.3235294117647,3.0,-83.0,185.0,0
1723799694,18.563296,73.8332003,521.5,22.26732673267327,101,32.56435643564357,3.0,-83.0,186.0,0
1723799695,18.5633685,73.8332148,521.5,22.394059405940595,101,32.56435643564357,3.0,-83.0,186.0,0
1723799696,18.5632978,73.8331985,521.5,22.157425742574258,101,32.56435643564357,3.0,-83.0,186.0,0
1723799697,18.5632982,73.8331983,521.5,22.484158415841584,101,32.56435643564357,2.0,-82.0,184.0,0
1723799698,18.5632983,73.8331983,521.5,22.41881188118812,101,32.56435643564357,4.0,-83.0,187.0,0
1723799699,18.5632983,73.8331983,521.5,22.900990099009903,101,32.56435643564357,2.0,-83.0,185.0,0
1723799700,18.5632983,73.8331983,521.5,22.940594059405942,101,32.56435643564357,2.0,-82.0,185.0,0
1723799701,18.5632983,73.8331983,521.5,23.01188118811881,101,32.34653465346535,2.0,-83.0,185.0,0
1723799702,18.5632983,73.8331983,521.5,23.180198019801978,101,32.34653465346535,3.0,-83.0,185.0,0
1723799703,18.5632983,73.8331983,521.5,23.10990099009901,101,31.594059405940595,2.0,-83.0,185.0,0
1723799704,18.5632983,73.8331983,521.5,22.886138613861387,101,31.574257425742573,3.0,-83.0,185.0,0
1723799705,18.5632983,73.8331983,521.5,23.062376237623763,101,31.574257425742573,3.0,-83.0,186.0,0
1723799706,18.5632983,73.8331983,521.5,22.96039603960396,101,31.574257425742573,3.0,-83.0,185.0,0
1723799707,18.5632983,73.8331983,521.5,23.06831683168317,101,31.574257425742573,2.0,-83.0,185.0,0
1723799708,18.5632983,73.8331983,521.5,23.332673267326733,101,31.574257425742573,2.0,-83.0,185.0,0
1723799709,18.5632983,73.8331983,521.5,23.169306930693068,101,31.574257425742573,2.0,-82.0,185.0,0
1723799710,18.5634514,73.8332121,524.7999877929688,23.378217821782176,101,31.297029702970296,2.0,-82.0,185.0,0
1723799711,18.5632983,73.8331983,521.5,23.39108910891089,101,31.297029702970296,2.0,-82.0,185.0,0
1723799712,18.5632983,73.8331983,521.5,22.850980392156863,102,31.215686274509803,2.0,-82.0,185.0,0
1723799713,18.5632983,73.8331983,521.5,22.92156862745098,102,31.215686274509803,2.0,-82.0,185.0,0
1723799714,18.5632983,73.8331983,521.5,23.138235294117646,102,31.235294117647058,2.0,-82.0,185.0,0
1723799715,18.5632983,73.8331983,521.5,22.786138613861386,101,31.019801980198018,2.0,-82.0,185.0,0
1723799716,18.5632983,73.8331983,521.5,22.72871287128713,101,31.019801980198018,2.0,-83.0,185.0,0
1723799717,18.5632983,73.8331983,521.5,22.752475247524753,101,31.019801980198018,2.0,-82.0,185.0,0
1723799718,18.5632983,73.8331983,521.5,22.786138613861386,101,31.019801980198018,2.0,-83.0,185.0,0
1723799719,18.5632983,73.8331983,524.7999877929688,22.721782178217822,101,30.93069306930693,2.0,-83.0,185.0,0
1723799720,18.5632983,73.8331983,524.7999877929688,22.762376237623762,101,30.93069306930693,2.0,-83.0,185.0,0
1723799721,18.5632983,73.8331983,524.7999877929688,22.906930693069306,101,30.93069306930693,2.0,-83.0,185.0,0
1723799722,18.5632983,73.8331983,524.7999877929688,22.819801980198022,101,30.93069306930693,2.0,-83.0,185.0,0
1723799723,18.5632983,73.8331983,524.7999877929688,22.98118811881188,101,30.93069306930693,2.0,-83.0,185.0,0
1723799724,18.5632983,73.8331983,524.7999877929688,22.436274509803923,102,31.794117647058822,2.0,-83.0,185.0,0
1723799725,18.5632983,73.8331983,524.7999877929688,22.36862745098039,102,32.372549019607845,2.0,-83.0,185.0,0
1723799726,18.5634175,73.8332303,521.5,22.194117647058825,102,32.372549019607845,2.0,-83.0,185.0,0
1723799727,18.5632983,73.8331983,524.7999877929688,22.28627450980392,102,32.372549019607845,2.0,-83.0,185.0,0
1723799728,18.5632983,73.8331983,524.7999877929688,22.38235294117647,102,32.372549019607845,2.0,-83.0,185.0,0
1723799729,18.5632983,73.8331983,524.7999877929688,22.712745098039214,102,32.372549019607845,2.0,-83.0,185.0,0
1723799730,18.5632983,73.8331983,524.7999877929688,22.783333333333335,102,32.94117647058823,2.0,-83.0,185.0,0
1723799731,18.5632983,73.8331983,524.7999877929688,23.091176470588238,102,32.94117647058823,2.0,-83.0,185.0,0
1723799732,18.5632983,73.8331983,524.7999877929688,23.35392156862745,102,32.94117647058823,2.0,-83.0,185.0,0
1723799733,18.5632983,73.8331983,524.7999877929688,23.35686274509804,102,32.76470588235294,2.0,-83.0,185.0,0
1723799734,18.5632983,73.8331983,521.5,23.098039215686274,102,32.549019607843135,2.0,-83.0,185.0,0
1723799735,18.5632983,73.8331983,521.5,23.04019607843137,102,32.549019607843135,2.0,-83.0,185.0,0
1723799736,18.5632983,73.8331983,521.5,23.05294117647059,102,32.549019607843135,2.0,-83.0,185.0,0
1723799737,18.5632983,73.8331983,521.5,23.085294117647056,102,32.549019607843135,2.0,-83.0,185.0,0
1723799738,18.5632983,73.8331983,521.5,22.85631067961165,103,32.310679611650485,2.0,-83.0,185.0,0
1723799739,18.5632983,73.8331983,521.5,22.904854368932035,103,32.310679611650485,2.0,-83.0,185.0,0
1723799740,18.5634115,73.833253,521.5,23.1,103,31.932038834951456,2.0,-83.0,185.0,0
1723799741,18.5632983,73.8331983,521.5,23.18640776699029,103,31.932038834951456,2.0,-83.0,185.0,0
1723799742,18.5632983,73.8331983,521.5,22.984466019417475,103,31.932038834951456,1.0,-83.0,185.0,0
1723799743,18.5632983,73.8331983,521.5,22.94466019417476,103,31.300970873786408,2.0,-83.0,185.0,0
1723799744,18.5632983,73.8331983,521.5,23.020388349514562,103,31.300970873786408,2.0,-83.0,185.0,0
1723799745,18.5632983,73.8331983,521.5,23.24757281553398,103,31.300970873786408,1.0,-83.0,185.0,0
1723799746,18.5632983,73.8331983,521.5,23.194174757281555,103,31.300970873786408,2.0,-83.0,185.0,0
1723799747,18.5632983,73.8331983,521.5,22.985436893203882,103,31.300970873786408,2.0,-83.0,185.0,0
1723799748,18.5632983,73.8331983,521.5,23.011650485436892,103,31.300970873786408,2.0,-83.0,185.0,0
1723799749,18.5632983,73.8331983,521.5,22.666019417475727,103,31.116504854368934,2.0,-83.0,185.0,0
1723799750,18.5632983,73.8331983,521.5,22.676699029126212,103,31.116504854368934,2.0,-83.0,185.0,0
1723799751,18.5632983,73.8331983,521.5,22.68640776699029,103,31.116504854368934,2.0,-83.0,185.0,0
1723799752,18.5632983,73.8331983,521.5,22.633009708737863,103,31.116504854368934,2.0,-83.0,185.0,0
1723799753,18.5632983,73.8331983,521.5,22.732038834951457,103,30.92233009708738,2.0,-83.0,185.0,0
1723799754,18.5632983,73.8331983,521.5,23.468932038834954,103,30.92233009708738,2.0,-83.0,185.0,0
1723799755,18.5633907,73.8332256,521.5,23.39223300970874,103,30.92233009708738,2.0,-83.0,185.0,0
1723799756,18.5632983,73.8331983,521.5,23.488349514563108,103,30.92233009708738,1.0,-83.0,185.0,0
1723799757,18.5632983,73.8331983,521.5,23.285436893203883,103,30.92233009708738,1.0,-83.0,184.0,0
1723799758,18.5632983,73.8331983,521.5,23.419417475728153,103,30.92233009708738,1.0,-83.0,185.0,0
1723799759,18.5632983,73.8331983,521.5,23.123300970873785,103,30.92233009708738,1.0,-83.0,185.0,0
1723799760,18.5632983,73.8331983,521.5,23.152427184466017,103,30.796116504854368,1.0,-83.0,185.0,0
1723799761,18.5632983,73.8331983,521.5,22.772115384615386,104,30.576923076923077,2.0,-83.0,185.0,0
1723799762,18.5632983,73.8331983,521.5,22.783653846153847,104,30.576923076923077,1.0,-83.0,185.0,0
1723799763,18.5632983,73.8331983,521.5,22.777884615384615,104,30.576923076923077,1.0,-83.0,185.0,0
1723799764,18.5632983,73.8331983,521.5,22.810576923076926,104,30.576923076923077,3.0,-83.0,187.0,0
1723799765,18.5634012,73.8332185,521.5,23.059615384615384,104,30.567307692307693,-2.0,-73.0,180.0,0
1723799766,18.5632983,73.8331983,521.5,23.285436893203883,103,30.475728155339805,-1.0,-48.0,184.0,0
1723799767,18.5632983,73.8331983,521.5,22.76893203883495,103,30.475728155339805,2.0,-30.0,187.0,0
1723799768,18.5632983,73.8331983,521.5,23.53076923076923,104,30.567307692307693,0.0,-29.0,185.0,0
1723799769,18.5632983,73.8331983,521.5,23.277884615384615,104,30.567307692307693,0.0,-28.0,185.0,0
1723799770,18.5633091,73.8332056,521.5,23.555769230769233,104,30.557692307692307,0.0,-28.0,185.0,0
1723799771,18.5633134,73.8332102,521.5,22.91923076923077,104,30.557692307692307,0.0,-28.0,185.0,0
1723799772,18.5633146,73.8332089,521.5,23.167961165048546,103,31.21359223300971,0.0,-28.0,185.0,0
1723799773,18.5633137,73.8332085,521.5,23.21153846153846,104,30.951923076923077,0.0,-28.0,185.0,0
1723799774,18.5633134,73.8332084,521.5,23.14757281553398,103,31.174757281553397,0.0,-28.0,185.0,0
1723799775,18.5634684,73.8331875,524.7999877929688,23.482524271844657,103,31.74757281553398,0.0,-28.0,185.0,0
1723799776,18.5633133,73.8332083,521.5,21.72843137254902,102,32.01960784313726,0.0,-28.0,185.0,0
1723799777,18.5633133,73.8332083,521.5,23.041176470588233,102,32.01960784313726,0.0,-28.0,185.0,0
1723799778,18.5633133,73.8332083,524.7999877929688,23.263106796116503,103,31.74757281553398,0.0,-28.0,185.0,0
1723799779,18.5633133,73.8332083,524.7999877929688,23.94607843137255,102,32.568627450980394,0.0,-28.0,185.0,0
1723799780,18.5633133,73.8332083,524.7999877929688,23.938235294117646,102,32.568627450980394,0.0,-28.0,185.0,0
1723799781,18.5633133,73.8332083,524.7999877929688,23.988235294117647,102,32.3921568627451,0.0,-28.0,185.0,0
1723799782,18.5633133,73.8332083,524.7999877929688,24.10686274509804,102,32.3921568627451,0.0,-28.0,185.0,0
1723799783,18.5633133,73.8332083,524.7999877929688,24.150000000000002,102,32.3921568627451,0.0,-28.0,185.0,0
1723799784,18.5633133,73.8332083,524.7999877929688,24.55145631067961,103,32.15533980582524,0.0,-28.0,184.0,0
1723799785,18.5634145,73.8332071,524.7999877929688,23.416504854368934,103,32.15533980582524,0.0,-28.0,184.0,0
1723799786,18.5633133,73.8332083,524.7999877929688,24.128155339805822,103,32.15533980582524,0.0,-28.0,184.0,0
1723799787,18.5633133,73.8332083,524.7999877929688,24.12621359223301,103,32.15533980582524,0.0,-28.0,184.0,0
1723799788,18.5634001,73.8332218,524.7999877929688,24.35728155339806,103,31.95145631067961,0.0,-28.0,184.0,0
1723799789,18.5633133,73.8332083,524.7999877929688,23.85145631067961,103,31.95145631067961,0.0,-52.0,183.0,0
1723799790,18.5633133,73.8332083,524.7999877929688,22.496116504854367,103,31.66990291262136,0.0,-56.0,184.0,0
1723799791,18.5633133,73.8332083,524.7999877929688,23.27403846153846,104,31.64423076923077,-4.0,-55.0,179.0,0
1723799792,18.5633133,73.8332083,524.7999877929688,23.427884615384617,104,31.64423076923077,0.0,-75.0,187.0,0
1723799793,18.5633133,73.8332083,524.7999877929688,23.58252427184466,103,31.58252427184466,178.0,-86.0,3.0,0
1723799794,18.5633133,73.8332083,524.7999877929688,23.64313725490196,102,31.5,-26.0,-87.0,160.0,0
1723799795,18.5633133,73.8332083,524.7999877929688,22.123762376237625,101,31.752475247524753,2.0,-87.0,189.0,0
1723799796,18.5633133,73.8332083,524.7999877929688,21.777227722772277,101,31.584158415841586,11.0,-82.0,194.0,0
1723799797,18.5633133,73.8332083,524.7999877929688,23.34059405940594,101,31.277227722772277,3.0,-81.0,186.0,0
1723799798,18.5633133,73.8332083,524.7999877929688,23.58137254901961,102,31.029411764705884,2.0,-81.0,186.0,0
1723799799,18.5633133,73.8332083,524.7999877929688,23.83137254901961,102,31.04901960784314,2.0,-80.0,185.0,0
1723799800,18.5633133,73.8332083,524.7999877929688,23.349999999999998,102,31.519607843137255,2.0,-80.0,185.0,0
1723799801,18.5633133,73.8332083,524.7999877929688,23.68529411764706,102,31.519607843137255,2.0,-80.0,185.0,0
1723799802,18.5633133,73.8332083,524.7999877929688,23.280198019801983,101,31.643564356435643,1.0,-80.0,185.0,0
1723799803,18.5633133,73.8332083,524.7999877929688,23.02178217821782,101,31.643564356435643,1.0,-80.0,185.0,0
1723799804,18.5633133,73.8332083,524.7999877929688,23.296078431372546,102,31.725490196078432,1.0,-79.0,184.0,0
1723799805,18.5635013,73.8332058,524.7999877929688,23.5921568627451,102,31.725490196078432,1.0,-79.0,185.0,0
1723799806,18.5633133,73.8332083,524.7999877929688,23.4990099009901,101,31.99009900990099,1.0,-79.0,184.0,0
1723799807,18.5633133,73.8332083,524.7999877929688,23.438235294117646,102,32.6764705882353,1.0,-79.0,184.0,0
1723799808,18.5633133,73.8332083,524.7999877929688,23.071568627450983,102,32.6764705882353,1.0,-79.0,184.0,0
1723799809,18.5633133,73.8332083,524.7999877929688,23.655882352941177,102,32.5,1.0,-79.0,184.0,0
1723799810,18.5633133,73.8332083,524.7999877929688,24.054455445544555,101,32.81188118811881,1.0,-79.0,184.0,0
1723799811,18.5633133,73.8332083,524.7999877929688,23.269306930693066,101,32.81188118811881,1.0,-79.0,184.0,0
1723799812,18.5633133,73.8332083,524.7999877929688,23.26732673267327,101,32.81188118811881,1.0,-79.0,184.0,0
1723799813,18.5633133,73.8332083,524.7999877929688,23.808910891089106,101,32.81188118811881,1.0,-79.0,184.0,0
1723799814,18.5633133,73.8332083,524.7999877929688,23.575247524752474,101,32.81188118811881,0.0,-79.0,184.0,0
1723799815,18.5633133,73.8332083,524.7999877929688,23.84158415841584,101,32.81188118811881,0.0,-79.0,184.0,0
1723799816,18.5633133,73.8332083,524.7999877929688,24.32277227722772,101,32.613861386138616,1.0,-79.0,184.0,0
1723799817,18.5633133,73.8332083,524.7999877929688,24.306930693069308,101,32.613861386138616,0.0,-79.0,184.0,0
1723799818,18.5633133,73.8332083,524.7999877929688,24.776237623762377,101,32.32673267326733,0.0,-79.0,184.0,0
1723799819,18.5633133,73.8332083,524.7999877929688,23.580392156862743,102,32.05882352941177,1.0,-79.0,184.0,0
1723799820,18.5633133,73.8332083,524.7999877929688,23.42549019607843,102,32.05882352941177,0.0,-79.0,184.0,0
1723799821,18.5633133,73.8332083,524.7999877929688,23.483333333333334,102,32.05882352941177,0.0,-79.0,184.0,0
1723799822,18.5633133,73.8332083,524.7999877929688,23.270588235294117,102,32.05882352941177,1.0,-79.0,184.0,0
1723799823,18.5633133,73.8332083,524.7999877929688,23.92549019607843,102,32.05882352941177,1.0,-79.0,184.0,0
1723799824,18.5633133,73.8332083,524.7999877929688,23.95686274509804,102,32.05882352941177,0.0,-79.0,184.0,0
1723799825,18.5637399,73.8329607,524.7999877929688,24.35588235294118,102,31.80392156862745,0.0,-79.0,184.0,0
1723799826,18.5633133,73.8332083,524.7999877929688,24.076470588235296,102,31.323529411764707,1.0,-78.0,184.0,0
1723799827,18.5633133,73.8332083,524.7999877929688,24.018627450980393,102,31.323529411764707,1.0,-79.0,184.0,0
1723799828,18.5633133,73.8332083,524.7999877929688,23.88235294117647,102,31.137254901960784,1.0,-79.0,184.0,0
1723799829,18.5633133,73.8332083,524.7999877929688,23.859803921568627,102,31.137254901960784,1.0,-79.0,184.0,0
1723799830,18.5633133,73.8332083,524.7999877929688,23.811764705882354,102,31.137254901960784,1.0,-79.0,184.0,0
1723799831,18.5633133,73.8332083,524.7999877929688,23.842718446601943,103,30.883495145631066,1.0,-79.0,184.0,0
1723799832,18.5633133,73.8332083,524.7999877929688,23.842718446601943,103,30.883495145631066,1.0,-79.0,184.0,0
1723799833,18.5633133,73.8332083,524.7999877929688,23.595098039215685,102,31.137254901960784,1.0,-79.0,184.0,0
1723799834,18.5633133,73.8332083,524.7999877929688,23.836274509803925,102,31.029411764705884,1.0,-79.0,184.0,0
1723799835,18.5637027,73.8329556,524.7999877929688,23.393203883495147,103,30.689320388349515,1.0,-79.0,184.0,0
1723799836,18.5633133,73.8332083,524.7999877929688,23.37281553398058,103,30.689320388349515,1.0,-79.0,184.0,0
1723799837,18.5633133,73.8332083,524.7999877929688,23.45686274509804,102,30.941176470588236,0.0,-79.0,184.0,0
1723799838,18.5633133,73.8332083,524.7999877929688,23.51359223300971,103,30.699029126213592,0.0,-79.0,184.0,0
1723799839,18.5633133,73.8332083,524.7999877929688,23.55145631067961,103,30.699029126213592,0.0,-79.0,184.0,0
1723799840,18.5633133,73.8332083,524.7999877929688,23.76990291262136,103,30.699029126213592,0.0,-79.0,184.0,0
1723799841,18.5633133,73.8332083,524.7999877929688,23.655339805825243,103,30.699029126213592,0.0,-79.0,184.0,0
1723799842,18.5633133,73.8332083,524.7999877929688,23.699029126213592,103,31.339805825242717,0.0,-79.0,184.0,0
1723799843,18.5633133,73.8332083,524.7999877929688,23.78627450980392,102,31.598039215686274,0.0,-79.0,184.0,0
1723799844,18.5633133,73.8332083,524.7999877929688,23.56990291262136,103,31.339805825242717,0.0,-79.0,184.0,0
1723799845,18.5633133,73.8332083,524.7999877929688,23.541747572815535,103,31.339805825242717,0.0,-79.0,184.0,0
1723799846,18.5633133,73.8332083,524.7999877929688,23.727450980392156,102,32.745098039215684,0.0,-79.0,184.0,0
1723799847,18.5633133,73.8332083,524.7999877929688,23.64313725490196,102,32.745098039215684,0.0,-79.0,184.0,0
1723799848,18.5633133,73.8332083,524.7999877929688,23.941176470588236,102,32.745098039215684,0.0,-79.0,184.0,0
1723799849,18.5633133,73.8332083,524.7999877929688,24.140776699029125,103,32.47572815533981,1.0,-79.0,184.0,0
1723799850,18.5633133,73.8332083,524.7999877929688,23.415533980582527,103,32.47572815533981,1.0,-79.0,184.0,0
1723799851,18.5634235,73.8332067,524.7999877929688,23.892156862745097,102,32.568627450980394,0.0,-79.0,184.0,0
1723799852,18.5633133,73.8332083,524.7999877929688,23.55,102,32.568627450980394,1.0,-79.0,184.0,0
1723799853,18.5633133,73.8332083,524.7999877929688,23.817647058823532,102,32.568627450980394,0.0,-79.0,184.0,0
1723799854,18.5633133,73.8332083,524.7999877929688,23.680392156862744,102,32.6078431372549,1.0,-79.0,184.0,0
1723799855,18.5633133,73.8332083,524.7999877929688,23.968627450980392,102,32.40196078431372,0.0,-79.0,184.0,0
1723799856,18.5633133,73.8332083,524.7999877929688,23.801960784313728,102,32.40196078431372,1.0,-79.0,184.0,0
1723799857,18.5633133,73.8332083,524.7999877929688,23.909803921568628,102,32.411764705882355,0.0,-79.0,184.0,0
1723799858,18.5633133,73.8332083,524.7999877929688,23.889215686274508,102,32.411764705882355,0.0,-79.0,184.0,0
1723799859,18.5633133,73.8332083,524.7999877929688,23.745098039215687,102,32.411764705882355,1.0,-79.0,184.0,0
1723799860,18.5633133,73.8332083,524.7999877929688,23.837254901960787,102,32.127450980392155,1.0,-79.0,184.0,0
1723799861,18.5633133,73.8332083,524.7999877929688,23.922549019607843,102,32.127450980392155,0.0,-79.0,184.0,0
1723799862,18.5633133,73.8332083,524.7999877929688,24.138235294117646,102,32.14705882352941,1.0,-79.0,184.0,0
1723799863,18.5633133,73.8332083,524.7999877929688,23.887254901960784,102,32.127450980392155,0.0,-78.0,184.0,0
1723799864,18.5633133,73.8332083,524.7999877929688,23.652941176470588,102,31.88235294117647,0.0,-79.0,184.0,0
1723799865,18.5633133,73.8332083,524.7999877929688,23.689215686274512,102,31.88235294117647,1.0,-79.0,184.0,0
1723799866,18.5633133,73.8332083,524.7999877929688,23.738235294117647,102,31.88235294117647,0.0,-79.0,184.0,0
1723799867,18.5634075,73.8330771,524.7999877929688,23.817647058823532,102,31.892156862745097,0.0,-79.0,184.0,0
1723799868,18.5633133,73.8332083,524.7999877929688,23.796078431372546,102,31.38235294117647,1.0,-79.0,184.0,0
1723799869,18.5633133,73.8332083,524.7999877929688,23.611764705882354,102,31.19607843137255,1.0,-79.0,184.0,0
1723799870,18.5633133,73.8332083,524.7999877929688,23.82549019607843,102,31.19607843137255,1.0,-79.0,184.0,0
1723799871,18.5633133,73.8332083,524.7999877929688,23.638235294117646,102,31.19607843137255,1.0,-79.0,184.0,0
1723799872,18.5633133,73.8332083,524.7999877929688,23.5921568627451,102,31.205882352941178,1.0,-79.0,184.0,0
1723799873,18.5633133,73.8332083,524.7999877929688,23.944117647058825,102,31.098039215686274,1.0,-79.0,184.0,0
1723799874,18.5633133,73.8332083,524.7999877929688,23.716666666666665,102,31.098039215686274,0.0,-79.0,184.0,0
1723799875,18.5633133,73.8332083,524.7999877929688,23.96470588235294,102,31.107843137254903,1.0,-79.0,184.0,0
1723799876,18.5633133,73.8332083,524.7999877929688,23.411650485436894,103,31.106796116504853,1.0,-79.0,184.0,0
1723799877,18.5633133,73.8332083,524.7999877929688,23.503883495145633,103,31.019417475728154,1.0,-79.0,184.0,0
1723799878,18.5633133,73.8332083,524.7999877929688,23.384466019417474,103,31.019417475728154,0.0,-79.0,184.0,0
1723799879,18.5633133,73.8332083,524.7999877929688,23.52912621359223,103,31.019417475728154,0.0,-79.0,184.0,0
1723799880,18.5634163,73.833233,524.7999877929688,23.546601941747575,103,31.019417475728154,1.0,-79.0,184.0,0
1723799881,18.5633133,73.8332083,524.7999877929688,23.610679611650486,103,31.019417475728154,1.0,-79.0,184.0,0
1723799882,18.5633133,73.8332083,524.7999877929688,23.650485436893202,103,31.019417475728154,1.0,-79.0,184.0,0
1723799883,18.5633133,73.8332083,524.7999877929688,23.87281553398058,103,31.019417475728154,0.0,-79.0,184.0,0
1723799884,18.5633133,73.8332083,524.7999877929688,23.797087378640775,103,31.019417475728154,0.0,-79.0,184.0,0
1723799885,18.5633133,73.8332083,524.7999877929688,23.73009708737864,103,31.019417475728154,0.0,-79.0,184.0,0
1723799886,18.5633133,73.8332083,524.7999877929688,23.754368932038833,103,31.019417475728154,1.0,-79.0,184.0,0
1723799887,18.5633133,73.8332083,524.7999877929688,23.8,103,31.019417475728154,1.0,-79.0,184.0,0
1723799888,18.5633133,73.8332083,524.7999877929688,23.736893203883497,103,31.019417475728154,0.0,-79.0,184.0,0
1723799889,18.5633133,73.8332083,524.7999877929688,23.325242718446603,103,31.019417475728154,1.0,-79.0,184.0,0
1723799890,18.5633133,73.8332083,524.7999877929688,23.22233009708738,103,31.038834951456312,1.0,-79.0,184.0,0
1723799891,18.5633133,73.8332083,524.7999877929688,23.032038834951457,103,31.038834951456312,1.0,-79.0,184.0,0
1723799892,18.5633133,73.8332083,524.7999877929688,23.104854368932042,103,31.038834951456312,1.0,-79.0,184.0,0
1723799893,18.5633133,73.8332083,524.7999877929688,23.10097087378641,103,31.038834951456312,1.0,-79.0,184.0,0
1723799894,18.5633133,73.8332083,524.7999877929688,23.1,103,31.038834951456312,1.0,-79.0,184.0,0
1723799895,18.563436,73.833197,524.7999877929688,23.488349514563108,103,31.038834951456312,1.0,-79.0,184.0,0
1723799896,18.5633133,73.8332083,524.7999877929688,23.450485436893207,103,32.25242718446602,1.0,-79.0,184.0,0
1723799897,18.5633133,73.8332083,524.7999877929688,23.432038834951456,103,32.25242718446602,1.0,-79.0,184.0,0
1723799898,18.5633133,73.8332083,524.7999877929688,23.52912621359223,103,32.81553398058252,1.0,-79.0,184.0,0
1723799899,18.5633133,73.8332083,524.7999877929688,23.339805825242717,103,32.83495145631068,1.0,-79.0,184.0,0
1723799900,18.5634027,73.8332332,524.7999877929688,23.319417475728155,103,32.83495145631068,1.0,-79.0,184.0,0
1723799901,18.5633133,73.8332083,524.7999877929688,23.420388349514564,103,32.83495145631068,1.0,-79.0,184.0,0
1723799902,18.5633133,73.8332083,524.7999877929688,23.128155339805822,103,32.83495145631068,1.0,-79.0,184.0,0
1723799903,18.5633133,73.8332083,524.7999877929688,23.29126213592233,103,32.83495145631068,1.0,-79.0,184.0,0
1723799904,18.5633133,73.8332083,524.7999877929688,23.3126213592233,103,32.83495145631068,1.0,-79.0,184.0,0
1723799905,18.5634216,73.8332155,524.7999877929688,23.40582524271845,103,32.44660194174757,1.0,-79.0,184.0,0
1723799906,18.5633133,73.8332083,524.7999877929688,23.501941747572815,103,32.44660194174757,1.0,-79.0,184.0,0
1723799907,18.5633133,73.8332083,524.7999877929688,23.560194174757278,103,32.44660194174757,1.0,-79.0,184.0,0
1723799908,18.5633133,73.8332083,524.7999877929688,23.464077669902913,103,32.067961165048544,1.0,-79.0,184.0,0
1723799909,18.5634289,73.8332207,525.2999877929688,23.464077669902913,103,32.029126213592235,1.0,-79.0,184.0,0
1723799910,18.5633133,73.8332083,524.7999877929688,23.482524271844657,103,32.029126213592235,1.0,-79.0,184.0,0
1723799911,18.5633133,73.8332083,524.7999877929688,23.562135922330096,103,32.00970873786408,1.0,-79.0,184.0,0
1723799912,18.5633133,73.8332083,525.2999877929688,23.541747572815535,103,32.00970873786408,1.0,-79.0,184.0,0
1723799913,18.5633133,73.8332083,525.2999877929688,23.531067961165046,103,32.00970873786408,1.0,-79.0,184.0,0
1723799914,18.5633133,73.8332083,525.2999877929688,23.414563106796116,103,31.37864077669903,1.0,-79.0,184.0,0
1723799915,18.5633133,73.8332083,525.2999877929688,23.47864077669903,103,31.37864077669903,1.0,-79.0,184.0,0
1723799916,18.5634216,73.8332056,524.7999877929688,23.576699029126214,103,31.37864077669903,1.0,-79.0,184.0,0
1723799917,18.5633133,73.8332083,524.7999877929688,23.500970873786407,103,31.37864077669903,1.0,-79.0,184.0,0
1723799918,18.5633133,73.8332083,524.7999877929688,23.484466019417475,103,31.83495145631068,1.0,-79.0,184.0,0
1723799919,18.5633133,73.8332083,524.7999877929688,23.629807692307693,104,31.692307692307693,1.0,-79.0,184.0,0
1723799920,18.5637299,73.832933,525.2999877929688,23.56346153846154,104,31.692307692307693,1.0,-79.0,184.0,0
1723799921,18.5633133,73.8332083,525.2999877929688,23.930769230769233,104,31.692307692307693,1.0,-79.0,184.0,0
1723799922,18.5633133,73.8332083,525.2999877929688,23.717307692307692,104,31.682692307692307,1.0,-79.0,184.0,0
1723799923,18.5633133,73.8332083,525.2999877929688,23.547115384615385,104,31.692307692307693,1.0,-79.0,184.0,0
1723799924,18.5633133,73.8332083,525.2999877929688,23.576923076923077,104,32.63461538461539,1.0,-79.0,184.0,0
1723799925,18.5634033,73.8332272,524.7999877929688,23.577884615384615,104,32.63461538461539,0.0,-79.0,184.0,0
1723799926,18.5633133,73.8332083,525.2999877929688,23.525,104,32.63461538461539,0.0,-79.0,184.0,0
1723799927,18.5633133,73.8332083,524.7999877929688,23.650961538461537,104,32.46153846153846,1.0,-79.0,184.0,0
1723799928,18.5633133,73.8332083,524.7999877929688,23.52692307692308,104,32.45192307692308,0.0,-79.0,184.0,0
1723799929,18.5633133,73.8332083,524.7999877929688,23.68173076923077,104,32.46153846153846,0.0,-79.0,184.0,0
1723799930,18.5634087,73.8331998,524.7999877929688,23.61730769230769,104,32.46153846153846,0.0,-79.0,184.0,0
1723799931,18.5633133,73.8332083,524.7999877929688,23.634615384615383,104,32.46153846153846,0.0,-79.0,184.0,0
1723799932,18.5633133,73.8332083,524.7999877929688,23.66923076923077,104,32.46153846153846,0.0,-79.0,184.0,0
1723799933,18.5633133,73.8332083,524.7999877929688,23.548076923076923,104,31.875,0.0,-79.0,184.0,0
1723799934,18.5633133,73.8332083,524.7999877929688,23.44326923076923,104,31.875,0.0,-79.0,184.0,0
1723799935,18.5634517,73.8331812,524.7999877929688,23.513461538461538,104,31.85576923076923,0.0,-79.0,184.0,0
1723799936,18.5633133,73.8332083,524.7999877929688,23.628846153846155,104,31.85576923076923,0.0,-79.0,184.0,0
1723799937,18.5633133,73.8332083,524.7999877929688,23.513461538461538,104,31.5,0.0,-79.0,184.0,0
1723799938,18.5633133,73.8332083,524.7999877929688,23.545192307692307,104,31.5,0.0,-79.0,184.0,0
1723799939,18.5633133,73.8332083,524.7999877929688,23.82019230769231,104,31.5,0.0,-79.0,184.0,0
1723799940,18.5633133,73.8332083,524.7999877929688,23.517307692307693,104,31.5,0.0,-79.0,184.0,0
1723799941,18.56341,73.833212,524.7999877929688,23.528846153846153,104,31.5,0.0,-79.0,184.0,0
1723799942,18.5633133,73.8332083,524.7999877929688,23.31826923076923,104,31.048076923076923,0.0,-79.0,184.0,0
1723799943,18.5633133,73.8332083,524.7999877929688,23.321153846153848,104,31.048076923076923,0.0,-79.0,184.0,0
1723799944,18.5633133,73.8332083,524.7999877929688,23.39903846153846,104,31.048076923076923,0.0,-79.0,184.0,0
1723799945,18.5634197,73.8332172,524.7999877929688,23.131730769230767,104,31.048076923076923,0.0,-79.0,184.0,0
1723799946,18.5633133,73.8332083,524.7999877929688,23.39134615384615,104,30.932692307692307,0.0,-79.0,184.0,0
1723799947,18.5633133,73.8332083,524.7999877929688,23.354807692307695,104,30.932692307692307,0.0,-79.0,184.0,0
1723799948,18.5633133,73.8332083,524.7999877929688,23.434615384615384,104,30.932692307692307,0.0,-79.0,184.0,0
1723799949,18.5633133,73.8332083,524.7999877929688,23.577884615384615,104,30.932692307692307,0.0,-79.0,184.0,0
1723799950,18.5634102,73.8332081,524.7999877929688,23.54615384615385,104,30.932692307692307,0.0,-79.0,184.0,0
1723799951,18.5633133,73.8332083,524.7999877929688,23.496153846153845,104,30.846153846153847,0.0,-79.0,184.0,0
1723799952,18.5633133,73.8332083,524.7999877929688,23.569230769230767,104,30.846153846153847,0.0,-79.0,184.0,0
1723799953,18.5633133,73.8332083,524.7999877929688,23.529807692307692,104,30.846153846153847,0.0,-79.0,184.0,0
1723799954,18.5633133,73.8332083,524.7999877929688,23.484615384615385,104,30.846153846153847,0.0,-79.0,184.0,0
1723799955,18.5633881,73.8332261,524.7999877929688,23.395192307692305,104,30.846153846153847,0.0,-79.0,184.0,0
1723799956,18.5633133,73.8332083,524.7999877929688,23.446153846153848,104,30.846153846153847,0.0,-79.0,184.0,0
1723799957,18.5633133,73.8332083,524.7999877929688,23.347115384615385,104,30.846153846153847,0.0,-79.0,184.0,0
1723799958,18.5633133,73.8332083,524.7999877929688,23.345192307692308,104,31.48076923076923,0.0,-79.0,184.0,0
1723799959,18.5633133,73.8332083,524.7999877929688,23.3125,104,32.06730769230769,0.0,-79.0,184.0,0
1723799960,18.5634401,73.8331078,524.7999877929688,23.420192307692307,104,32.08653846153846,0.0,-79.0,184.0,0
1723799961,18.5633133,73.8332083,524.7999877929688,23.404807692307692,104,32.06730769230769,0.0,-79.0,184.0,0
1723799962,18.5633133,73.8332083,524.7999877929688,23.473333333333333,105,32.34285714285714,0.0,-79.0,184.0,0
1723799963,18.5633133,73.8332083,524.7999877929688,23.43714285714286,105,32.34285714285714,0.0,-79.0,184.0,0
1723799964,18.5633133,73.8332083,524.7999877929688,23.46153846153846,104,32.14423076923077,0.0,-79.0,184.0,0
1723799965,18.5634351,73.8331887,524.7999877929688,23.40097087378641,103,32.42718446601942,1.0,-79.0,184.0,0
1723799966,18.5633133,73.8332083,524.7999877929688,23.315384615384616,104,32.625,0.0,-79.0,184.0,0
1723799967,18.5633133,73.8332083,524.7999877929688,23.291428571428572,105,32.17142857142857,1.0,-79.0,184.0,0
1723799968,18.5633133,73.8332083,524.7999877929688,23.326666666666668,105,32.17142857142857,1.0,-79.0,184.0,0
1723799969,18.5633133,73.8332083,524.7999877929688,23.35142857142857,105,31.942857142857143,1.0,-79.0,184.0,0
1723799970,18.5633133,73.8332083,524.7999877929688,23.276190476190475,105,31.942857142857143,1.0,-79.0,184.0,0
1723799971,18.5633133,73.8332083,524.7999877929688,23.75096153846154,104,31.365384615384617,1.0,-79.0,184.0,0
1723799972,18.5633133,73.8332083,524.7999877929688,23.64326923076923,104,31.365384615384617,1.0,-79.0,184.0,0
1723799973,18.5633133,73.8332083,524.7999877929688,23.631730769230767,104,31.384615384615383,1.0,-79.0,184.0,0
1723799974,18.5633133,73.8332083,524.7999877929688,23.57403846153846,104,31.384615384615383,1.0,-79.0,184.0,0
1723799975,18.5633133,73.8332083,524.7999877929688,23.481553398058253,103,31.660194174757283,1.0,-79.0,184.0,0
1723799976,18.5633133,73.8332083,524.7999877929688,23.47087378640777,103,31.660194174757283,1.0,-79.0,184.0,0
1723799977,18.5633133,73.8332083,524.7999877929688,23.221153846153847,104,31.028846153846153,1.0,-79.0,184.0,0
1723799978,18.5633133,73.8332083,524.7999877929688,23.235576923076923,104,30.740384615384617,1.0,-79.0,184.0,0
1723799979,18.5633133,73.8332083,524.7999877929688,23.213461538461537,104,30.91346153846154,1.0,-79.0,184.0,0
1723799980,18.5634175,73.8332012,524.7999877929688,23.196153846153848,104,30.91346153846154,1.0,-79.0,184.0,0
1723799981,18.5633133,73.8332083,524.7999877929688,23.210576923076925,104,30.73076923076923,1.0,-79.0,184.0,0
1723799982,18.5633133,73.8332083,524.7999877929688,23.135576923076922,104,30.73076923076923,1.0,-79.0,184.0,0
1723799983,18.5633133,73.8332083,524.7999877929688,23.25,104,30.73076923076923,1.0,-79.0,184.0,0
1723799984,18.5633133,73.8332083,524.7999877929688,23.17596153846154,104,30.73076923076923,1.0,-79.0,184.0,0
1723799985,18.5634287,73.833195,524.7999877929688,23.21826923076923,104,30.73076923076923,1.0,-79.0,184.0,0
1723799986,18.5633133,73.8332083,524.7999877929688,23.19903846153846,104,30.625,1.0,-79.0,184.0,0
1723799987,18.5633133,73.8332083,524.7999877929688,23.548076923076923,104,30.53846153846154,1.0,-79.0,184.0,0
1723799988,18.5633133,73.8332083,524.7999877929688,23.51359223300971,103,30.78640776699029,1.0,-79.0,184.0,0
1723799989,18.5633133,73.8332083,524.7999877929688,23.42621359223301,103,30.78640776699029,1.0,-79.0,184.0,0
1723799990,18.5633133,73.8332083,524.7999877929688,23.241747572815534,103,30.78640776699029,1.0,-79.0,184.0,0
1723799991,18.5634702,73.8331829,524.7999877929688,23.400961538461537,104,30.53846153846154,1.0,-79.0,184.0,0
1723799992,18.5633133,73.8332083,524.7999877929688,23.434615384615384,104,30.53846153846154,1.0,-79.0,184.0,0
1723799993,18.5633133,73.8332083,524.7999877929688,23.439423076923074,104,30.53846153846154,1.0,-79.0,184.0,0
1723799994,18.5633133,73.8332083,524.7999877929688,23.487499999999997,104,30.53846153846154,1.0,-79.0,184.0,0
1723799995,18.5634091,73.8332039,524.7999877929688,23.58173076923077,104,30.53846153846154,1.0,-79.0,184.0,0
1723799996,18.5633133,73.8332083,524.7999877929688,23.75631067961165,103,30.78640776699029,1.0,-79.0,184.0,0
1723799997,18.5633133,73.8332083,524.7999877929688,23.60582524271845,103,30.78640776699029,1.0,-79.0,185.0,0
1723799998,18.5633133,73.8332083,524.7999877929688,23.604854368932042,103,30.78640776699029,1.0,-79.0,184.0,0
1723799999,18.5633133,73.8332083,524.7999877929688,23.414423076923075,104,30.53846153846154,1.0,-79.0,184.0,0
1723800000,18.5633133,73.8332083,524.7999877929688,23.528846153846153,104,30.53846153846154,1.0,-79.0,184.0,0
1723800001,18.5634427,73.8331974,524.7999877929688,23.46923076923077,104,30.53846153846154,1.0,-79.0,184.0,0
1723800002,18.5633133,73.8332083,524.7999877929688,23.384615384615383,104,30.53846153846154,1.0,-79.0,184.0,0
1723800003,18.5633133,73.8332083,524.7999877929688,23.402884615384615,104,30.53846153846154,1.0,-79.0,184.0,0
1723800004,18.5633133,73.8332083,524.7999877929688,23.6,103,30.78640776699029,1.0,-79.0,185.0,0
1723800005,18.5634208,73.8332097,524.7999877929688,23.776699029126213,103,30.78640776699029,1.0,-79.0,184.0,0
1723800006,18.5633133,73.8332083,524.7999877929688,23.844660194174757,103,32.0,1.0,-79.0,184.0,0
1723800007,18.5633133,73.8332083,524.7999877929688,23.766990291262136,103,32.0,1.0,-79.0,184.0,0
1723800008,18.5633133,73.8332083,524.7999877929688,23.83009708737864,103,32.00970873786408,1.0,-79.0,184.0,0
1723800009,18.5634184,73.8332169,524.7999877929688,23.870873786407767,103,32.00970873786408,1.0,-79.0,184.0,0
1723800010,18.5633133,73.8332083,524.7999877929688,23.80873786407767,103,32.00970873786408,1.0,-79.0,184.0,0
1723800011,18.5633133,73.8332083,524.7999877929688,23.895145631067958,103,32.00970873786408,1.0,-79.0,184.0,0
1723800012,18.5633133,73.8332083,524.7999877929688,23.660194174757283,103,32.57281553398058,1.0,-79.0,185.0,0
1723800013,18.5633133,73.8332083,524.7999877929688,23.57766990291262,103,32.57281553398058,1.0,-79.0,184.0,0
1723800014,18.5633133,73.8332083,524.7999877929688,23.787378640776698,103,32.58252427184466,1.0,-79.0,184.0,0
1723800015,18.5634333,73.8331743,524.7999877929688,23.860784313725492,102,32.3921568627451,1.0,-79.0,184.0,0
1723800016,18.5633133,73.8332083,524.7999877929688,23.826470588235296,102,32.3921568627451,1.0,-79.0,184.0,0
1723800017,18.5633133,73.8332083,524.7999877929688,23.757843137254905,102,32.3921568627451,1.0,-78.0,184.0,0
1723800018,18.5633133,73.8332083,524.7999877929688,23.751960784313724,102,32.3921568627451,1.0,-79.0,184.0,0
1723800019,18.5633133,73.8332083,524.7999877929688,23.863725490196078,102,32.3921568627451,1.0,-79.0,185.0,0
1723800020,18.5633133,73.8332083,524.7999877929688,23.48235294117647,102,32.3921568627451,1.0,-79.0,184.0,0
1723800021,18.5634203,73.8332221,524.7999877929688,23.636274509803922,102,32.3921568627451,1.0,-79.0,184.0,0
1723800022,18.5633133,73.8332083,524.7999877929688,23.64313725490196,102,32.009803921568626,1.0,-79.0,185.0,0
1723800023,18.5633133,73.8332083,524.7999877929688,23.87156862745098,102,32.009803921568626,1.0,-79.0,184.0,0
1723800024,18.5633133,73.8332083,524.7999877929688,23.84174757281553,103,31.184466019417474,1.0,-79.0,185.0,0
1723800025,18.5634639,73.8332293,524.7999877929688,23.897087378640776,103,31.184466019417474,1.0,-79.0,184.0,0
1723800026,18.5633133,73.8332083,524.7999877929688,23.791176470588233,102,31.372549019607842,1.0,-79.0,184.0,0
1723800027,18.5633133,73.8332083,524.7999877929688,23.848039215686274,102,31.372549019607842,1.0,-79.0,184.0,0
1723800028,18.5633133,73.8332083,524.7999877929688,23.798039215686277,102,31.372549019607842,1.0,-79.0,185.0,0
1723800029,18.5633133,73.8332083,524.7999877929688,23.798039215686277,102,31.372549019607842,1.0,-79.0,185.0,0
1723800030,18.5634207,73.8331988,524.7999877929688,23.813725490196077,102,31.372549019607842,1.0,-79.0,185.0,0
1723800031,18.5633133,73.8332083,524.7999877929688,23.768627450980393,102,31.833333333333332,1.0,-79.0,185.0,0
1723800032,18.5633133,73.8332083,524.7999877929688,23.845631067961165,103,31.640776699029125,1.0,-79.0,184.0,0
1723800033,18.5633133,73.8332083,524.7999877929688,23.86764705882353,102,32.78431372549019,1.0,-79.0,185.0,0
1723800034,18.5633133,73.8332083,524.7999877929688,23.865686274509805,102,32.78431372549019,1.0,-79.0,185.0,0
1723800035,18.5633133,73.8332083,524.7999877929688,24.083333333333332,102,32.76470588235294,1.0,-79.0,185.0,0
1723800036,18.5634235,73.8332176,524.7999877929688,24.060784313725488,102,32.76470588235294,1.0,-79.0,185.0,0
1723800037,18.5633133,73.8332083,524.7999877929688,24.024271844660195,103,32.56310679611651,1.0,-79.0,185.0,0
1723800038,18.5633133,73.8332083,524.7999877929688,24.005825242718444,103,32.58252427184466,1.0,-79.0,185.0,0
1723800039,18.5633133,73.8332083,524.7999877929688,23.979411764705883,102,32.76470588235294,1.0,-79.0,185.0,0
1723800040,18.5634194,73.8331967,524.7999877929688,24.138235294117646,102,32.588235294117645,1.0,-79.0,185.0,0
1723800041,18.5633133,73.8332083,524.7999877929688,24.142156862745097,102,32.588235294117645,1.0,-79.0,185.0,0
1723800042,18.5633133,73.8332083,524.7999877929688,23.980392156862745,102,31.99019607843137,1.0,-79.0,185.0,0
1723800043,18.5633133,73.8332083,524.7999877929688,24.01372549019608,102,32.009803921568626,1.0,-79.0,185.0,0
1723800044,18.5633133,73.8332083,524.7999877929688,24.155339805825243,103,31.815533980582526,1.0,-79.0,185.0,0
1723800045,18.5634725,73.8331955,524.7999877929688,24.071568627450983,102,32.009803921568626,1.0,-79.0,185.0,0
1723800046,18.5633133,73.8332083,524.7999877929688,24.031067961165046,103,31.728155339805824,1.0,-79.0,185.0,0
1723800047,18.5633133,73.8332083,524.7999877929688,23.988349514563108,103,31.728155339805824,1.0,-79.0,185.0,0
1723800048,18.5633133,73.8332083,524.7999877929688,23.989320388349515,103,31.728155339805824,1.0,-79.0,185.0,0
1723800049,18.5633133,73.8332083,524.7999877929688,24.07281553398058,103,31.368932038834952,1.0,-79.0,185.0,0
1723800050,18.5633133,73.8332083,524.7999877929688,23.90582524271845,103,31.368932038834952,1.0,-79.0,185.0,0
1723800051,18.5634313,73.833196,524.7999877929688,23.846601941747572,103,30.9126213592233,1.0,-79.0,185.0,0
1723800052,18.5633133,73.8332083,524.7999877929688,23.941346153846155,104,30.73076923076923,1.0,-79.0,185.0,0
1723800053,18.5633133,73.8332083,524.7999877929688,23.97864077669903,103,31.009708737864077,1.0,-79.0,185.0,0
1723800054,18.5633133,73.8332083,524.7999877929688,23.971844660194172,103,31.0,1.0,-79.0,185.0,0
1723800055,18.5634147,73.8331992,524.7999877929688,23.999029126213593,103,31.0,1.0,-79.0,185.0,0
1723800056,18.5633133,73.8332083,524.7999877929688,23.767961165048543,103,30.980582524271846,1.0,-79.0,185.0,0
1723800057,18.5633133,73.8332083,524.7999877929688,23.883495145631066,103,30.980582524271846,1.0,-79.0,185.0,0
1723800058,18.5633133,73.8332083,524.7999877929688,23.85728155339806,103,30.980582524271846,1.0,-79.0,185.0,0
1723800059,18.5633133,73.8332083,524.7999877929688,23.90873786407767,103,30.893203883495147,1.0,-79.0,185.0,0
1723800060,18.5634484,73.8331642,524.7999877929688,24.03495145631068,103,30.805825242718445,1.0,-79.0,185.0,0
1723800061,18.5633133,73.8332083,524.7999877929688,24.122330097087378,103,30.805825242718445,1.0,-79.0,185.0,0
1723800062,18.5633133,73.8332083,524.7999877929688,24.223300970873787,103,30.805825242718445,1.0,-79.0,185.0,0
1723800063,18.5633133,73.8332083,524.7999877929688,24.131730769230767,104,31.009615384615383,1.0,-79.0,185.0,0
1723800064,18.5633133,73.8332083,524.7999877929688,24.09423076923077,104,31.009615384615383,1.0,-79.0,185.0,0
1723800065,18.5633133,73.8332083,524.7999877929688,23.829807692307693,104,31.009615384615383,1.0,-79.0,185.0,0
1723800066,18.5633942,73.8331912,524.7999877929688,23.75769230769231,104,31.009615384615383,1.0,-79.0,184.0,0
1723800067,18.5633133,73.8332083,524.7999877929688,24.21153846153846,104,31.64423076923077,1.0,-79.0,184.0,0
1723800068,18.5633133,73.8332083,524.7999877929688,23.941346153846155,104,31.64423076923077,1.0,-79.0,184.0,0
1723800069,18.5633133,73.8332083,524.7999877929688,23.786538461538463,104,32.21153846153846,1.0,-79.0,185.0,0
1723800070,18.5633133,73.8332083,524.7999877929688,23.726923076923075,104,32.76923076923077,1.0,-79.0,184.0,0
1723800071,18.56343,73.8331992,524.7999877929688,23.698076923076922,104,32.76923076923077,1.0,-79.0,184.0,0
1723800072,18.5633133,73.8332083,524.7999877929688,23.78846153846154,104,32.76923076923077,1.0,-79.0,184.0,0
1723800073,18.5633133,73.8332083,524.7999877929688,23.771153846153844,104,32.76923076923077,1.0,-79.0,185.0,0
1723800074,18.5633133,73.8332083,524.7999877929688,23.852884615384614,104,32.76923076923077,1.0,-79.0,185.0,0
1723800075,18.5633133,73.8332083,524.7999877929688,23.85096153846154,104,32.76923076923077,1.0,-79.0,185.0,0
1723800076,18.5634157,73.8332039,524.7999877929688,23.849038461538463,104,32.61538461538461,1.0,-79.0,184.0,0
1723800077,18.5633133,73.8332083,524.7999877929688,23.571153846153848,104,32.61538461538461,1.0,-79.0,184.0,0
1723800078,18.5633133,73.8332083,524.7999877929688,23.555769230769233,104,32.40384615384615,1.0,-79.0,184.0,0
1723800079,18.5633133,73.8332083,524.7999877929688,23.536190476190477,105,31.752380952380953,1.0,-79.0,185.0,0
1723800080,18.5633133,73.8332083,524.7999877929688,23.523809523809526,105,31.752380952380953,1.0,-79.0,185.0,0
1723800081,18.5634107,73.833219,524.7999877929688,23.620952380952378,105,31.752380952380953,1.0,-79.0,184.0,0
1723800082,18.5633133,73.8332083,524.7999877929688,23.616190476190475,105,31.752380952380953,1.0,-79.0,184.0,0
1723800083,18.5633133,73.8332083,524.7999877929688,23.70952380952381,105,31.752380952380953,1.0,-79.0,184.0,0
1723800084,18.5633133,73.8332083,524.7999877929688,23.62666666666667,105,31.752380952380953,1.0,-79.0,185.0,0
1723800085,18.5633133,73.8332083,524.7999877929688,23.505714285714284,105,31.38095238095238,1.0,-79.0,184.0,0
1723800086,18.5634146,73.8332132,524.7999877929688,23.42666666666667,105,31.38095238095238,1.0,-79.0,184.0,0
1723800087,18.5633133,73.8332083,524.7999877929688,23.668571428571425,105,31.095238095238095,1.0,-79.0,184.0,0
1723800088,18.5633133,73.8332083,524.7999877929688,23.625714285714285,105,30.904761904761905,1.0,-79.0,184.0,0
1723800089,18.5633133,73.8332083,524.7999877929688,23.716190476190473,105,30.904761904761905,1.0,-79.0,184.0,0
1723800090,18.5633133,73.8332083,524.7999877929688,23.66761904761905,105,30.904761904761905,1.0,-79.0,184.0,0
1723800091,18.5634122,73.8332201,524.7999877929688,23.419047619047618,105,30.904761904761905,1.0,-79.0,184.0,0
1723800092,18.5633133,73.8332083,524.7999877929688,23.615238095238094,105,30.904761904761905,1.0,-79.0,184.0,0
1723800093,18.5633133,73.8332083,524.7999877929688,23.72095238095238,105,30.904761904761905,1.0,-79.0,184.0,0
1723800094,18.5633133,73.8332083,524.7999877929688,23.73619047619048,105,30.904761904761905,1.0,-79.0,184.0,0
1723800095,18.5633133,73.8332083,524.7999877929688,23.82761904761905,105,30.8,1.0,-79.0,184.0,0
1723800096,18.5634214,73.833217,524.7999877929688,23.722857142857144,105,30.8,1.0,-78.0,184.0,0
1723800097,18.5633133,73.8332083,524.7999877929688,23.772380952380953,105,30.714285714285715,1.0,-79.0,184.0,0
1723800098,18.5633133,73.8332083,524.7999877929688,23.797142857142855,105,30.704761904761906,1.0,-79.0,184.0,0
1723800099,18.5633133,73.8332083,524.7999877929688,23.874285714285715,105,30.704761904761906,1.0,-79.0,184.0,0
1723800100,18.5633133,73.8332083,524.7999877929688,23.752380952380953,105,30.723809523809525,1.0,-79.0,184.0,0
1723800101,18.5637237,73.8329887,524.7999877929688,23.68857142857143,105,30.723809523809525,0.0,-79.0,184.0,0
1723800102,18.5633133,73.8332083,524.7999877929688,24.004761904761907,105,30.723809523809525,1.0,-79.0,184.0,0
1723800103,18.5633133,73.8332083,524.7999877929688,23.707619047619048,105,30.723809523809525,1.0,-79.0,184.0,0
1723800104,18.5633133,73.8332083,524.7999877929688,23.887619047619047,105,30.723809523809525,0.0,-78.0,184.0,0
1723800105,18.5633133,73.8332083,524.7999877929688,23.98952380952381,105,30.733333333333334,0.0,-79.0,184.0,0
1723800106,18.5634391,73.8331882,524.7999877929688,23.893333333333334,105,30.733333333333334,1.0,-79.0,184.0,0
1723800107,18.5633133,73.8332083,524.7999877929688,23.666666666666668,105,30.733333333333334,0.0,-79.0,184.0,0
1723800108,18.5633133,73.8332083,524.7999877929688,23.72952380952381,105,30.733333333333334,0.0,-79.0,184.0,0
1723800109,18.5633133,73.8332083,524.7999877929688,23.559047619047618,105,30.733333333333334,1.0,-79.0,184.0,0
1723800110,18.5633133,73.8332083,524.7999877929688,23.060952380952383,105,30.733333333333334,0.0,-79.0,184.0,0
1723800111,18.5634411,73.8332152,524.7999877929688,23.104761904761904,105,30.723809523809525,0.0,-79.0,184.0,0
1723800112,18.5633133,73.8332083,524.7999877929688,23.145714285714288,105,30.723809523809525,0.0,-79.0,184.0,0
1723800113,18.5633133,73.8332083,524.7999877929688,23.16761904761905,105,31.35238095238095,0.0,-79.0,184.0,0
1723800114,18.5633133,73.8332083,524.7999877929688,23.243809523809524,105,31.35238095238095,0.0,-79.0,184.0,0
1723800115,18.5633133,73.8332083,524.7999877929688,23.07904761904762,105,31.914285714285715,0.0,-79.0,184.0,0
1723800116,18.5633133,73.8332083,524.7999877929688,23.243809523809524,105,31.914285714285715,0.0,-79.0,184.0,0
1723800117,18.5633133,73.8332083,524.7999877929688,23.2447619047619,105,31.914285714285715,0.0,-79.0,184.0,0
1723800118,18.5633133,73.8332083,524.7999877929688,23.29904761904762,105,31.914285714285715,0.0,-79.0,184.0,0
1723800119,18.5633133,73.8332083,524.7999877929688,23.22666666666667,105,31.914285714285715,0.0,-79.0,184.0,0
1723800120,18.5633133,73.8332083,524.7999877929688,23.259047619047617,105,32.46666666666667,0.0,-79.0,184.0,0
1723800121,18.5633133,73.8332083,524.7999877929688,23.41142857142857,105,32.46666666666667,0.0,-79.0,184.0,0
1723800122,18.5633133,73.8332083,524.7999877929688,23.281904761904762,105,32.457142857142856,0.0,-79.0,184.0,0
1723800123,18.5633133,73.8332083,524.7999877929688,23.419999999999998,105,32.285714285714285,0.0,-79.0,184.0,0
1723800124,18.5633133,73.8332083,524.7999877929688,23.548571428571428,105,32.2952380952381,0.0,-79.0,184.0,0
1723800125,18.5633133,73.8332083,524.7999877929688,23.405714285714286,105,32.08571428571429,0.0,-79.0,184.0,0
1723800126,18.5633133,73.8332083,524.7999877929688,23.44666666666667,105,32.08571428571429,0.0,-79.0,184.0,0
1723800127,18.5634774,73.8331917,524.7999877929688,23.297142857142855,105,32.08571428571429,0.0,-79.0,184.0,0
1723800128,18.5633133,73.8332083,524.7999877929688,23.45047619047619,105,32.08571428571429,0.0,-79.0,184.0,0
1723800129,18.5633133,73.8332083,524.7999877929688,23.49047619047619,105,32.08571428571429,0.0,-79.0,184.0,0
1723800130,18.5633133,73.8332083,524.7999877929688,23.405714285714286,105,31.714285714285715,0.0,-79.0,184.0,0
1723800131,18.5633133,73.8332083,524.7999877929688,23.331428571428575,105,31.714285714285715,0.0,-79.0,184.0,0
1723800132,18.5634399,73.8331779,524.7999877929688,23.208571428571428,105,31.695238095238096,0.0,-79.0,184.0,0
1723800133,18.5633133,73.8332083,524.7999877929688,23.227619047619047,105,31.34285714285714,0.0,-79.0,184.0,0
1723800134,18.5633133,73.8332083,524.7999877929688,23.34807692307692,104,31.384615384615383,0.0,-79.0,184.0,0
1723800135,18.5633133,73.8332083,524.7999877929688,23.232692307692307,104,31.134615384615383,0.0,-79.0,184.0,0
1723800136,18.5633133,73.8332083,524.7999877929688,23.353846153846156,104,31.153846153846153,0.0,-79.0,184.0,0
1723800137,18.563443,73.8331937,524.7999877929688,23.292307692307695,104,31.153846153846153,0.0,-79.0,184.0,0
1723800138,18.5633133,73.8332083,524.7999877929688,23.70384615384615,104,31.153846153846153,0.0,-79.0,184.0,0
1723800139,18.5633133,73.8332083,524.7999877929688,23.557692307692307,104,31.60576923076923,0.0,-79.0,184.0,0
1723800140,18.5633133,73.8332083,524.7999877929688,23.573076923076922,104,31.60576923076923,0.0,-79.0,184.0,0
1723800141,18.5634441,73.8331961,525.2999877929688,23.426923076923078,104,31.60576923076923,0.0,-79.0,184.0,0
1723800142,18.5633133,73.8332083,524.7999877929688,23.42115384615385,104,32.06730769230769,0.0,-79.0,184.0,0
1723800143,18.5633133,73.8332083,525.2999877929688,23.413333333333334,105,32.01904761904762,0.0,-79.0,184.0,0
1723800144,18.5633133,73.8332083,525.2999877929688,23.409523809523808,105,32.48571428571429,0.0,-79.0,184.0,0
1723800145,18.5633133,73.8332083,525.2999877929688,23.529807692307692,104,32.51923076923077,0.0,-79.0,184.0,0
1723800146,18.5633133,73.8332083,525.2999877929688,23.58190476190476,105,32.46666666666667,0.0,-79.0,184.0,0
1723800147,18.5633133,73.8332083,525.2999877929688,23.285714285714285,105,32.46666666666667,0.0,-79.0,184.0,0
1723800148,18.5633133,73.8332083,525.2999877929688,23.45047619047619,105,32.46666666666667,0.0,-79.0,184.0,0
1723800149,18.5633133,73.8332083,525.2999877929688,23.566666666666666,105,32.2952380952381,0.0,-79.0,184.0,0
1723800150,18.5633133,73.8332083,525.2999877929688,23.70952380952381,105,32.2952380952381,0.0,-79.0,184.0,0
1723800151,18.5633133,73.8332083,525.2999877929688,23.48095238095238,105,32.2952380952381,0.0,-79.0,184.0,0
1723800152,18.5634618,73.8331797,524.7999877929688,23.549999999999997,104,32.13461538461539,0.0,-79.0,184.0,0
1723800153,18.5633133,73.8332083,524.7999877929688,23.70576923076923,104,32.11538461538461,0.0,-79.0,184.0,0
1723800154,18.5633133,73.8332083,524.7999877929688,23.740952380952383,105,31.676190476190477,0.0,-79.0,184.0,0
1723800155,18.5633133,73.8332083,524.7999877929688,23.716346153846153,104,31.721153846153847,0.0,-79.0,184.0,0
1723800156,18.5634409,73.8331924,524.7999877929688,23.580000000000002,105,31.676190476190477,0.0,-79.0,184.0,0
1723800157,18.5633133,73.8332083,524.7999877929688,23.743809523809524,105,31.676190476190477,0.0,-79.0,184.0,0
1723800158,18.5633133,73.8332083,524.7999877929688,23.76952380952381,105,31.323809523809523,0.0,-79.0,184.0,0
1723800159,18.5633133,73.8332083,524.7999877929688,23.7,105,31.323809523809523,0.0,-79.0,184.0,0
1723800160,18.5633133,73.8332083,524.7999877929688,23.876923076923074,104,31.365384615384617,0.0,-79.0,184.0,0
1723800161,18.5633133,73.8332083,524.7999877929688,23.580000000000002,105,31.057142857142857,0.0,-79.0,184.0,0
1723800162,18.5634289,73.8331988,524.7999877929688,23.78076923076923,104,31.096153846153847,0.0,-79.0,184.0,0
1723800163,18.5633133,73.8332083,524.7999877929688,23.746153846153845,104,30.91346153846154,0.0,-79.0,184.0,0
1723800164,18.5633133,73.8332083,524.7999877929688,23.905714285714286,105,30.876190476190477,0.0,-79.0,184.0,0
1723800165,18.5633133,73.8332083,524.7999877929688,23.9,104,30.91346153846154,0.0,-79.0,184.0,0
1723800166,18.5635029,73.8331778,524.7999877929688,23.740384615384617,104,30.91346153846154,0.0,-79.0,184.0,0
1723800167,18.5633133,73.8332083,524.7999877929688,23.924038461538462,104,30.807692307692307,0.0,-79.0,184.0,0
1723800168,18.5633133,73.8332083,524.7999877929688,23.922115384615385,104,30.807692307692307,0.0,-79.0,184.0,0
1723800169,18.5633133,73.8332083,524.7999877929688,23.707692307692305,104,30.817307692307693,0.0,-79.0,184.0,0
1723800170,18.5633133,73.8332083,524.7999877929688,23.78846153846154,104,30.721153846153847,0.0,-79.0,184.0,0
1723800171,18.5633133,73.8332083,524.7999877929688,23.691346153846155,104,30.721153846153847,0.0,-79.0,184.0,0
1723800172,18.5633133,73.8332083,524.7999877929688,23.683653846153845,104,30.721153846153847,0.0,-79.0,184.0,0
1723800173,18.5634252,73.8332073,524.7999877929688,23.59326923076923,104,30.721153846153847,0.0,-79.0,184.0,0
1723800174,18.5633133,73.8332083,524.7999877929688,23.64134615384615,104,30.721153846153847,0.0,-78.0,184.0,0
1723800175,18.5633133,73.8332083,524.7999877929688,23.672115384615385,104,30.721153846153847,0.0,-78.0,184.0,0
1723800176,18.5633133,73.8332083,524.7999877929688,23.665384615384614,104,30.721153846153847,0.0,-79.0,184.0,0
1723800177,18.5634692,73.8332007,524.7999877929688,24.137500000000003,104,31.35576923076923,0.0,-78.0,184.0,0
1723800178,18.5633133,73.8332083,524.7999877929688,24.164423076923075,104,31.35576923076923,0.0,-78.0,184.0,0
1723800179,18.5633133,73.8332083,524.7999877929688,24.10673076923077,104,31.35576923076923,0.0,-78.0,184.0,0
1723800180,18.5633133,73.8332083,524.7999877929688,24.082692307692305,104,31.923076923076923,0.0,-78.0,184.0,0
1723800181,18.5633133,73.8332083,524.7999877929688,24.022115384615386,104,31.923076923076923,0.0,-78.0,184.0,0
1723800182,18.5634204,73.8331891,524.7999877929688,24.158653846153847,104,32.48076923076923,0.0,-79.0,184.0,0
1723800183,18.5633133,73.8332083,524.7999877929688,24.048076923076923,104,32.48076923076923,0.0,-78.0,184.0,0
1723800184,18.5633133,73.8332083,524.7999877929688,24.032692307692308,104,32.48076923076923,0.0,-78.0,184.0,0
1723800185,18.5633133,73.8332083,524.7999877929688,24.095192307692308,104,32.48076923076923,0.0,-78.0,184.0,0
1723800186,18.5633133,73.8332083,524.7999877929688,23.815384615384616,104,32.30769230769231,0.0,-79.0,184.0,0
1723800187,18.5634216,73.8332074,524.7999877929688,23.75769230769231,104,32.30769230769231,0.0,-78.0,184.0,0
1723800188,18.5633133,73.8332083,524.7999877929688,23.763461538461538,104,32.30769230769231,0.0,-78.0,184.0,0
1723800189,18.5633133,73.8332083,524.7999877929688,24.042307692307695,104,32.30769230769231,0.0,-78.0,184.0,0
1723800190,18.5633133,73.8332083,524.7999877929688,23.915384615384614,104,32.10576923076923,0.0,-78.0,184.0,0
1723800191,18.5633133,73.8332083,524.7999877929688,23.951923076923077,104,31.73076923076923,0.0,-78.0,184.0,0
1723800192,18.5634228,73.8332005,524.7999877929688,23.89326923076923,104,31.73076923076923,0.0,-78.0,184.0,0
1723800193,18.5633133,73.8332083,524.7999877929688,23.79326923076923,104,31.73076923076923,0.0,-78.0,184.0,0
1723800194,18.5633133,73.8332083,524.7999877929688,23.926923076923078,104,31.73076923076923,0.0,-78.0,184.0,0
1723800195,18.5633133,73.8332083,524.7999877929688,23.916346153846156,104,31.73076923076923,0.0,-78.0,184.0,0
1723800196,18.5634536,73.8332022,524.7999877929688,23.978846153846156,104,31.35576923076923,0.0,-78.0,184.0,0
1723800197,18.5633133,73.8332083,524.7999877929688,23.976923076923075,104,31.35576923076923,0.0,-78.0,184.0,0
1723800198,18.5633133,73.8332083,524.7999877929688,24.029807692307692,104,31.35576923076923,0.0,-78.0,184.0,0
1723800199,18.5633133,73.8332083,524.7999877929688,24.109615384615385,104,31.08653846153846,0.0,-78.0,184.0,0
1723800200,18.5633133,73.8332083,524.7999877929688,24.027884615384615,104,30.903846153846153,0.0,-78.0,184.0,0
1723800201,18.5633133,73.8332083,524.7999877929688,24.079807692307693,104,30.903846153846153,0.0,-78.0,184.0,0
1723800202,18.5634189,73.8332269,524.7999877929688,24.058653846153845,104,30.903846153846153,0.0,-78.0,184.0,0
1723800203,18.5633133,73.8332083,524.7999877929688,24.067307692307693,104,30.903846153846153,0.0,-78.0,184.0,0
1723800204,18.5633133,73.8332083,524.7999877929688,24.084615384615386,104,30.903846153846153,0.0,-78.0,184.0,0
1723800205,18.5633133,73.8332083,524.7999877929688,24.01826923076923,104,30.798076923076923,0.0,-78.0,184.0,0
1723800206,18.5633133,73.8332083,524.7999877929688,24.204807692307693,104,30.798076923076923,0.0,-78.0,184.0,0
1723800207,18.5633133,73.8332083,524.7999877929688,24.325000000000003,104,30.798076923076923,0.0,-78.0,184.0,0
1723800208,18.5633133,73.8332083,524.7999877929688,24.325000000000003,104,30.71153846153846,0.0,-78.0,184.0,0
1723800209,18.5633133,73.8332083,524.7999877929688,24.389423076923077,104,30.721153846153847,0.0,-78.0,184.0,0
1723800210,18.5633133,73.8332083,524.7999877929688,24.122115384615384,104,30.721153846153847,0.0,-78.0,184.0,0
1723800211,18.5633133,73.8332083,524.7999877929688,24.297115384615385,104,30.721153846153847,0.0,-78.0,184.0,0
1723800212,18.5634624,73.833193,524.7999877929688,24.234615384615385,104,30.721153846153847,0.0,-78.0,184.0,0
1723800213,18.5633133,73.8332083,524.7999877929688,24.349038461538463,104,30.721153846153847,0.0,-78.0,184.0,0
1723800214,18.5633133,73.8332083,524.7999877929688,24.21142857142857,105,30.476190476190474,0.0,-78.0,184.0,0
1723800215,18.5633133,73.8332083,524.7999877929688,24.292380952380952,105,30.476190476190474,0.0,-78.0,184.0,0
1723800216,18.5633133,73.8332083,524.7999877929688,24.347619047619048,105,30.476190476190474,0.0,-78.0,184.0,0
1723800217,18.563409,73.8331991,524.7999877929688,24.354285714285712,105,30.476190476190474,0.0,-78.0,184.0,0
1723800218,18.5633133,73.8332083,524.7999877929688,24.22666666666667,105,30.476190476190474,0.0,-78.0,184.0,0
1723800219,18.5633133,73.8332083,524.7999877929688,24.096190476190475,105,30.485714285714284,0.0,-78.0,184.0,0
1723800220,18.5633133,73.8332083,524.7999877929688,24.212380952380954,105,30.466666666666665,0.0,-78.0,184.0,0
1723800221,18.5633133,73.8332083,524.7999877929688,24.218095238095238,105,30.466666666666665,0.0,-78.0,184.0,0
1723800222,18.5634089,73.8332038,524.7999877929688,24.242857142857144,105,30.485714285714284,0.0,-78.0,184.0,0
1723800223,18.5633133,73.8332083,524.7999877929688,24.22,105,30.466666666666665,0.0,-78.0,184.0,0
1723800224,18.5633133,73.8332083,524.7999877929688,24.156190476190478,105,31.095238095238095,0.0,-78.0,184.0,0
1723800225,18.5633133,73.8332083,524.7999877929688,24.023809523809526,105,31.095238095238095,0.0,-78.0,184.0,0
