timestamp,latitude,longitude,altitude,mean_snr,sat_count,mean_elevation,roll,pitch,yaw,is_inclined
1724221383,18.5635167,73.833235,522.1,19.85,82,35.048780487804876,-24.0,-87.0,155.0,0
1724221384,18.5635152,73.8332335,522.1,,0,,-24.0,-87.0,155.0,0
1724221385,18.5635151,73.8332333,554.1999999999999,22.472289156626506,83,35.27710843373494,-24.0,-87.0,155.0,0
1724221386,18.5635152,73.8332333,554.1999999999999,22.660975609756097,82,35.048780487804876,-24.0,-87.0,155.0,0
1724221387,18.5635152,73.8332333,554.1999999999999,22.838372093023256,86,35.616279069767444,-24.0,-87.0,155.0,0
1724221388,18.5635153,73.8332335,554.1999999999999,22.75581395348837,86,35.616279069767444,-24.0,-87.0,155.0,0
1724221389,18.5635151,73.8332334,554.1999999999999,22.82790697674419,86,34.81395348837209,-24.0,-87.0,155.0,0
1724221390,18.563515,73.8332333,554.1999999999999,23.118390804597702,87,34.54022988505747,-24.0,-87.0,154.0,0
1724221391,18.563515,73.8332333,554.1999999999999,23.192045454545454,88,35.01136363636363,-24.0,-87.0,155.0,0
1724221392,18.563515,73.8332333,554.1999999999999,23.15056179775281,89,34.89887640449438,-24.0,-87.0,155.0,0
1724221393,18.563515,73.8332333,554.1999999999999,23.613483146067416,89,34.89887640449438,-24.0,-87.0,155.0,0
1724221394,18.563515,73.8332333,554.1999999999999,23.635955056179775,89,34.89887640449438,-24.0,-87.0,155.0,0
1724221395,18.563515,73.8332333,554.1999999999999,23.517977528089887,89,34.89887640449438,-24.0,-87.0,155.0,0
1724221396,18.563515,73.8332333,554.1999999999999,23.341573033707867,89,34.89887640449438,-24.0,-87.0,154.0,0
1724221397,18.563515,73.8332333,554.1999999999999,23.88876404494382,89,34.89887640449438,-24.0,-87.0,155.0,0
1724221398,18.563515,73.8332333,554.1999999999999,23.764044943820224,89,34.89887640449438,-24.0,-87.0,154.0,0
1724221399,18.563515,73.8332333,554.1999999999999,23.82134831460674,89,34.89887640449438,-24.0,-87.0,154.0,0
1724221400,18.563515,73.8332333,554.1999999999999,23.75505617977528,89,34.89887640449438,-24.0,-87.0,154.0,0
1724221401,18.563515,73.8332333,554.1999999999999,23.637777777777778,90,34.44444444444444,-24.0,-87.0,154.0,0
1724221402,18.563515,73.8332333,554.1999999999999,23.88,90,34.43333333333333,-24.0,-87.0,154.0,0
1724221403,18.563515,73.8332333,554.1999999999999,23.767777777777777,90,34.43333333333333,-24.0,-87.0,154.0,0
1724221404,18.563515,73.8332333,554.1999999999999,23.36333333333333,90,34.53333333333333,-24.0,-87.0,154.0,0
1724221405,18.563515,73.8332333,554.1999999999999,23.772527472527475,91,34.395604395604394,-24.0,-87.0,154.0,0
1724221406,18.563515,73.8332333,554.1999999999999,23.76813186813187,91,34.395604395604394,-24.0,-87.0,154.0,0
1724221407,18.563515,73.8332333,554.1999999999999,23.794505494505497,91,34.395604395604394,-24.0,-87.0,154.0,0
1724221408,18.563515,73.8332333,554.1999999999999,23.86263736263736,91,34.395604395604394,-24.0,-87.0,154.0,0
1724221409,18.563515,73.8332333,554.1999999999999,23.638461538461538,91,34.395604395604394,-24.0,-87.0,155.0,0
1724221410,18.563515,73.8332333,554.1999999999999,23.69782608695652,92,35.17391304347826,-24.0,-87.0,155.0,0
1724221411,18.563515,73.8332333,554.1999999999999,23.52608695652174,92,35.17391304347826,-23.0,-87.0,155.0,0
1724221412,18.563515,73.8332333,554.1999999999999,23.633695652173916,92,35.53260869565217,-24.0,-87.0,155.0,0
1724221413,18.5633803,73.8331702,499.29999999999995,23.679347826086957,92,35.53260869565217,-23.0,-87.0,156.0,0
1724221414,18.5633604,73.8331588,499.5,23.619565217391305,92,35.53260869565217,-24.0,-87.0,154.0,0
1724221415,18.5633573,73.833157,499.6,23.74673913043478,92,35.53260869565217,-24.0,-87.0,154.0,0
1724221416,18.5633568,73.8331568,499.6,23.695652173913043,92,35.53260869565217,-24.0,-87.0,155.0,0
1724221417,18.5633567,73.8331567,499.6,23.721739130434784,92,35.53260869565217,-24.0,-87.0,154.0,0
1724221418,18.5633567,73.8331567,499.6,24.035869565217393,92,35.53260869565217,-24.0,-87.0,154.0,0
1724221419,18.5633567,73.8331567,499.6,24.077173913043477,92,35.34782608695652,-24.0,-87.0,155.0,0
1724221420,18.5633567,73.8331567,499.6,24.092391304347824,92,35.34782608695652,-25.0,-87.0,154.0,0
1724221421,18.5633567,73.8331567,499.6,23.992391304347827,92,34.68478260869565,-25.0,-87.0,154.0,0
1724221422,18.5633567,73.8331567,499.6,24.168478260869566,92,34.68478260869565,-24.0,-87.0,154.0,0
1724221423,18.5633567,73.8331567,499.6,24.119565217391305,92,34.68478260869565,-24.0,-87.0,154.0,0
1724221424,18.5633567,73.8331567,499.6,24.172826086956523,92,34.68478260869565,-24.0,-87.0,154.0,0
1724221425,18.5633567,73.8331567,499.6,24.11182795698925,93,34.333333333333336,-24.0,-87.0,154.0,0
1724221426,18.5633567,73.8331567,499.6,24.15268817204301,93,34.333333333333336,-24.0,-87.0,155.0,0
1724221427,18.5633567,73.8331567,499.6,23.978494623655912,93,34.333333333333336,-25.0,-87.0,153.0,0
1724221428,18.5633567,73.8331567,499.6,24.148387096774197,93,34.01075268817204,-25.0,-87.0,153.0,0
1724221429,18.5633567,73.8331567,499.6,24.247311827956988,93,34.01075268817204,-25.0,-87.0,154.0,0
1724221430,18.5633567,73.8331567,499.6,24.092473118279568,93,33.40860215053763,-25.0,-87.0,154.0,0
1724221431,18.5633567,73.8331567,499.6,24.119354838709675,93,33.40860215053763,-25.0,-87.0,153.0,0
1724221432,18.5633567,73.8331567,499.6,24.081720430107527,93,33.40860215053763,-25.0,-87.0,154.0,0
1724221433,18.5633567,73.8331567,499.6,24.19139784946237,93,33.39784946236559,-25.0,-87.0,154.0,0
1724221434,18.5633567,73.8331567,499.6,24.11720430107527,93,33.38709677419355,-25.0,-87.0,154.0,0
1724221435,18.5633567,73.8331567,499.6,24.18709677419355,93,33.39784946236559,-25.0,-87.0,154.0,0
1724221436,18.5633567,73.8331567,499.6,24.355913978494623,93,33.39784946236559,-25.0,-87.0,154.0,0
1724221437,18.5633567,73.8331567,499.6,24.337634408602153,93,33.204301075268816,-25.0,-87.0,154.0,0
1724221438,18.5633567,73.8331567,499.6,24.053763440860216,93,33.204301075268816,-25.0,-87.0,154.0,0
1724221439,18.5633567,73.8331567,499.6,24.31827956989247,93,33.204301075268816,-25.0,-87.0,154.0,0
1724221440,18.5633567,73.8331567,499.6,24.352688172043013,93,33.204301075268816,-26.0,-87.0,153.0,0
1724221441,18.5633567,73.8331567,499.6,24.216129032258063,93,33.204301075268816,-24.0,-87.0,154.0,0
1724221442,18.5633567,73.8331567,499.6,24.381720430107528,93,32.10752688172043,-26.0,-87.0,153.0,0
1724221443,18.5633567,73.8331567,499.6,24.252173913043475,92,34.33695652173913,-25.0,-87.0,154.0,0
1724221444,18.5633567,73.8331567,499.6,24.125,92,34.33695652173913,-25.0,-87.0,154.0,0
1724221445,18.5633567,73.8331567,499.6,24.026881720430108,93,34.61290322580645,-25.0,-87.0,154.0,0
1724221446,18.5633567,73.8331567,499.6,24.241935483870968,93,34.61290322580645,-24.0,-87.0,154.0,0
1724221447,18.5633567,73.8331567,499.6,24.33010752688172,93,34.60215053763441,-23.0,-87.0,155.0,0
1724221448,18.5633567,73.8331567,499.6,24.32150537634409,93,34.59139784946237,-25.0,-87.0,154.0,0
1724221449,18.5633567,73.8331567,499.6,24.301075268817204,93,35.236559139784944,-25.0,-87.0,154.0,0
1724221450,18.5633567,73.8331567,499.6,24.136559139784943,93,35.236559139784944,-24.0,-87.0,154.0,0
1724221451,18.5633567,73.8331567,499.6,24.26021505376344,93,35.1505376344086,-24.0,-87.0,155.0,0
1724221452,18.5633567,73.8331567,499.6,24.204255319148935,94,34.91489361702128,-23.0,-87.0,155.0,0
1724221453,18.5633567,73.8331567,499.6,23.986170212765956,94,34.91489361702128,-24.0,-87.0,155.0,0
1724221454,18.5633567,73.8331567,499.6,23.86105263157895,95,35.11578947368421,-24.0,-87.0,154.0,0
1724221455,18.5633567,73.8331567,499.6,23.773684210526316,95,35.11578947368421,-26.0,-87.0,153.0,0
1724221456,18.5633567,73.8331567,499.6,23.725263157894737,95,35.11578947368421,-25.0,-87.0,154.0,0
1724221457,18.5633567,73.8331567,499.6,23.781052631578945,95,35.11578947368421,-25.0,-87.0,154.0,0
1724221458,18.5633567,73.8331567,499.6,23.885263157894737,95,34.88421052631579,-25.0,-87.0,154.0,0
1724221459,18.5633567,73.8331567,499.6,23.87263157894737,95,34.88421052631579,-25.0,-87.0,153.0,0
1724221460,18.5633567,73.8331567,499.6,23.68421052631579,95,34.88421052631579,-25.0,-87.0,154.0,0
1724221461,18.5633567,73.8331567,499.6,23.652631578947368,95,34.1578947368421,-25.0,-87.0,153.0,0
1724221462,18.5633567,73.8331567,499.6,23.6,94,34.276595744680854,-25.0,-87.0,154.0,0
1724221463,18.5633567,73.8331567,499.6,23.625531914893617,94,34.276595744680854,-25.0,-87.0,154.0,0
1724221464,18.5633567,73.8331567,499.6,23.751063829787235,94,34.276595744680854,-25.0,-87.0,154.0,0
1724221465,18.5633567,73.8331567,499.6,23.742553191489364,94,34.276595744680854,-25.0,-87.0,153.0,0
1724221466,18.5633567,73.8331567,499.6,23.9531914893617,94,34.276595744680854,-26.0,-87.0,153.0,0
1724221467,18.5633567,73.8331567,499.6,24.134042553191488,94,33.88297872340426,-25.0,-87.0,154.0,0
1724221468,18.5633567,73.8331567,499.6,23.71382978723404,94,33.88297872340426,-25.0,-87.0,153.0,0
1724221469,18.5633567,73.8331567,499.6,23.640425531914893,94,33.88297872340426,-25.0,-87.0,153.0,0
1724221470,18.5633567,73.8331567,499.6,23.835106382978722,94,33.48936170212766,-25.0,-87.0,154.0,0
1724221471,18.5633567,73.8331567,499.6,23.878723404255318,94,33.48936170212766,-25.0,-87.0,153.0,0
1724221472,18.5633567,73.8331567,499.6,23.892553191489363,94,33.48936170212766,-25.0,-87.0,154.0,0
1724221473,18.5633567,73.8331567,499.6,24.01595744680851,94,33.48936170212766,-25.0,-87.0,154.0,0
1724221474,18.5633567,73.8331567,499.6,24.043617021276596,94,33.48936170212766,-25.0,-87.0,154.0,0
1724221475,18.5633567,73.8331567,499.6,24.072340425531916,94,33.51063829787234,-25.0,-87.0,153.0,0
1724221476,18.5633567,73.8331567,499.6,24.21505376344086,93,33.32258064516129,-25.0,-87.0,154.0,0
1724221477,18.5633567,73.8331567,499.6,24.19462365591398,93,33.32258064516129,-26.0,-87.0,153.0,0
1724221478,18.5633567,73.8331567,499.6,24.134408602150536,93,33.32258064516129,-25.0,-87.0,154.0,0
1724221479,18.5633567,73.8331567,499.6,24.16774193548387,93,33.333333333333336,-25.0,-87.0,153.0,0
1724221480,18.5633567,73.8331567,499.6,24.179569892473115,93,33.31182795698925,-25.0,-87.0,154.0,0
1724221481,18.5633567,73.8331567,499.6,23.973118279569892,93,33.31182795698925,-25.0,-87.0,154.0,0
1724221482,18.5633567,73.8331567,499.6,23.88817204301075,93,33.31182795698925,-25.0,-87.0,154.0,0
1724221483,18.5633567,73.8331567,499.6,24.049462365591395,93,33.31182795698925,-25.0,-87.0,154.0,0
1724221484,18.5633567,73.8331567,499.6,24.23978494623656,93,33.333333333333336,-25.0,-87.0,154.0,0
1724221485,18.5633567,73.8331567,499.6,24.083870967741937,93,33.333333333333336,-25.0,-87.0,154.0,0
1724221486,18.5633567,73.8331567,499.6,23.998924731182797,93,33.333333333333336,-25.0,-87.0,154.0,0
1724221487,18.5633567,73.8331567,499.6,23.87311827956989,93,33.333333333333336,-25.0,-87.0,153.0,0
1724221488,18.5633567,73.8331567,499.6,24.016129032258064,93,33.333333333333336,-25.0,-87.0,153.0,0
1724221489,18.5633567,73.8331567,499.6,,0,,-26.0,-87.0,153.0,0
1724221490,18.5633567,73.8331567,499.6,23.886096256684493,187,33.98395721925134,-25.0,-87.0,153.0,0
1724221491,18.5633567,73.8331567,499.6,23.70744680851064,94,34.61702127659574,-25.0,-87.0,153.0,0
1724221492,18.5633567,73.8331567,499.6,23.82340425531915,94,32.829787234042556,-25.0,-87.0,154.0,0
1724221493,18.5633567,73.8331567,499.6,23.939361702127663,94,34.61702127659574,-26.0,-87.0,153.0,0
1724221494,18.5633567,73.8331567,499.6,23.843617021276597,94,34.61702127659574,-25.0,-87.0,153.0,0
1724221495,18.5633567,73.8331567,499.6,23.73404255319149,94,35.223404255319146,-25.0,-87.0,153.0,0
1724221496,18.5633567,73.8331567,499.6,23.68723404255319,94,35.223404255319146,-25.0,-87.0,153.0,0
1724221497,18.5633567,73.8331567,499.6,23.951063829787234,94,35.223404255319146,-25.0,-87.0,153.0,0
1724221498,18.5633567,73.8331567,499.6,23.939361702127663,94,35.138297872340424,-25.0,-87.0,153.0,0
1724221499,18.5633567,73.8331567,499.6,23.94787234042553,94,35.138297872340424,-26.0,-87.0,153.0,0
1724221500,18.5633567,73.8331567,499.6,23.93723404255319,94,34.95744680851064,-26.0,-87.0,153.0,0
1724221501,18.5633567,73.8331567,499.6,24.05212765957447,94,34.95744680851064,-26.0,-87.0,153.0,0
1724221502,18.5633567,73.8331567,499.6,23.830851063829787,94,34.95744680851064,-25.0,-87.0,153.0,0
1724221503,18.5633567,73.8331567,499.6,23.848936170212767,94,34.95744680851064,-26.0,-87.0,153.0,0
1724221504,18.5633567,73.8331567,499.6,23.90212765957447,94,34.95744680851064,-26.0,-87.0,153.0,0
1724221505,18.5633567,73.8331567,499.6,23.939361702127663,94,34.723404255319146,-26.0,-87.0,153.0,0
1724221506,18.5633567,73.8331567,499.6,23.79787234042553,94,34.723404255319146,-26.0,-87.0,153.0,0
1724221507,18.5633567,73.8331567,499.6,23.806382978723406,94,34.308510638297875,-26.0,-87.0,153.0,0
1724221508,18.5633567,73.8331567,499.6,23.898936170212767,94,34.319148936170215,-26.0,-87.0,153.0,0
1724221509,18.5633567,73.8331567,499.6,23.892553191489363,94,34.319148936170215,-26.0,-87.0,153.0,0
1724221510,18.5633567,73.8331567,499.6,23.927659574468084,94,33.98936170212766,-26.0,-87.0,153.0,0
1724221511,18.5633567,73.8331567,499.6,23.98404255319149,94,33.98936170212766,-26.0,-87.0,153.0,0
1724221512,18.5633567,73.8331567,499.6,23.911702127659574,94,33.98936170212766,-26.0,-87.0,153.0,0
1724221513,18.5633567,73.8331567,499.6,23.745744680851065,94,33.98936170212766,-26.0,-87.0,153.0,0
1724221514,18.5633567,73.8331567,499.6,24.0247311827957,93,34.31182795698925,-26.0,-87.0,153.0,0
1724221515,18.5633567,73.8331567,499.6,24.013978494623657,93,34.31182795698925,-26.0,-87.0,153.0,0
1724221516,18.5633567,73.8331567,499.6,24.18494623655914,93,34.806451612903224,-26.0,-87.0,153.0,0
1724221517,18.5633567,73.8331567,499.6,23.883695652173916,92,34.83695652173913,-26.0,-87.0,153.0,0
1724221518,18.5633567,73.8331567,499.6,23.993548387096777,93,34.795698924731184,-26.0,-87.0,153.0,0
1724221519,18.5633567,73.8331567,499.6,23.97204301075269,93,34.795698924731184,-26.0,-87.0,153.0,0
1724221520,18.5633567,73.8331567,499.6,23.922580645161293,93,35.236559139784944,-26.0,-87.0,153.0,0
1724221521,18.5633567,73.8331567,499.6,23.937634408602147,93,35.236559139784944,-26.0,-87.0,153.0,0
1724221522,18.5633567,73.8331567,499.6,24.112903225806452,93,35.236559139784944,-26.0,-87.0,153.0,0
1724221523,18.5633567,73.8331567,499.6,24.132978723404257,94,35.12765957446808,-25.0,-87.0,153.0,0
1724221524,18.5633567,73.8331567,499.6,24.06276595744681,94,35.12765957446808,-26.0,-87.0,153.0,0
1724221525,18.5633567,73.8331567,499.6,23.997872340425534,94,35.12765957446808,-26.0,-87.0,152.0,0
1724221526,18.5633567,73.8331567,499.6,24.121276595744682,94,34.9468085106383,-26.0,-87.0,153.0,0
1724221527,18.5633567,73.8331567,499.6,24.06276595744681,94,34.9468085106383,-26.0,-87.0,153.0,0
1724221528,18.5633567,73.8331567,499.6,24.056382978723406,94,34.9468085106383,-26.0,-87.0,153.0,0
1724221529,18.5633567,73.8331567,499.6,24.163829787234043,94,34.712765957446805,-26.0,-87.0,153.0,0
1724221530,18.5633567,73.8331567,499.6,23.918085106382982,94,34.712765957446805,-26.0,-87.0,153.0,0
1724221531,18.5633567,73.8331567,499.6,23.835106382978722,94,34.712765957446805,-26.0,-87.0,153.0,0
1724221532,18.5633567,73.8331567,499.6,23.9468085106383,94,34.297872340425535,-26.0,-87.0,153.0,0
1724221533,18.5633567,73.8331567,499.6,23.99042553191489,94,34.297872340425535,-26.0,-87.0,153.0,0
1724221534,18.5633567,73.8331567,499.6,24.214893617021275,94,34.297872340425535,-26.0,-87.0,153.0,0
1724221535,18.5633567,73.8331567,499.6,23.825531914893617,94,33.97872340425532,-26.0,-87.0,153.0,0
1724221536,18.5633567,73.8331567,499.6,23.995744680851065,94,33.97872340425532,-25.0,-87.0,153.0,0
1724221537,18.5633567,73.8331567,499.6,23.939361702127663,94,33.98936170212766,-25.0,-87.0,153.0,0
1724221538,18.5633567,73.8331567,499.6,23.964893617021275,94,33.59574468085106,-26.0,-87.0,153.0,0
1724221539,18.5633567,73.8331567,499.6,23.934042553191492,94,33.59574468085106,-26.0,-87.0,153.0,0
1724221540,18.5633567,73.8331567,499.6,23.78617021276596,94,33.59574468085106,-25.0,-87.0,154.0,0
1724221541,18.5633567,73.8331567,499.6,23.737234042553194,94,33.3936170212766,-25.0,-87.0,153.0,0
1724221542,18.5633567,73.8331567,499.6,23.763829787234044,94,31.606382978723403,-25.0,-87.0,153.0,0
1724221543,18.5633567,73.8331567,499.6,23.996808510638296,94,33.37234042553192,-26.0,-87.0,153.0,0
1724221544,18.5633567,73.8331567,499.6,23.717021276595744,94,33.180851063829785,-26.0,-87.0,153.0,0
1724221545,18.5633567,73.8331567,499.6,24.076595744680848,94,33.180851063829785,-26.0,-87.0,153.0,0
1724221546,18.5633567,73.8331567,499.6,24.082978723404256,94,33.180851063829785,-25.0,-87.0,153.0,0
1724221547,18.5633567,73.8331567,499.6,23.785106382978725,94,33.159574468085104,-25.0,-87.0,154.0,0
1724221548,18.5633567,73.8331567,499.6,23.898936170212767,94,33.159574468085104,-25.0,-87.0,154.0,0
1724221549,18.5633567,73.8331567,499.6,23.912765957446812,94,33.159574468085104,-25.0,-87.0,154.0,0
1724221550,18.5633567,73.8331567,499.6,23.614893617021277,94,33.861702127659576,-25.0,-87.0,153.0,0
1724221551,18.5633567,73.8331567,499.6,23.774468085106385,94,33.861702127659576,-25.0,-87.0,154.0,0
1724221552,18.5633567,73.8331567,499.6,23.923655913978497,93,33.89247311827957,-25.0,-87.0,153.0,0
1724221553,18.5633567,73.8331567,499.6,23.950000000000003,94,34.53191489361702,-26.0,-87.0,153.0,0
1724221554,18.5633567,73.8331567,499.6,23.99042553191489,94,34.53191489361702,-25.0,-87.0,153.0,0
1724221555,18.5633567,73.8331567,499.6,24.26195652173913,92,34.93478260869565,-26.0,-87.0,153.0,0
1724221556,18.5633567,73.8331567,499.6,24.32608695652174,92,34.93478260869565,-26.0,-87.0,153.0,0
1724221557,18.5633567,73.8331567,499.6,24.193548387096776,93,35.774193548387096,-26.0,-87.0,153.0,0
1724221558,18.5633567,73.8331567,499.6,24.16021505376344,93,35.763440860215056,-26.0,-87.0,153.0,0
1724221559,18.5633567,73.8331567,499.6,24.419354838709676,93,35.67741935483871,-26.0,-87.0,153.0,0
1724221560,18.5633567,73.8331567,499.6,24.41720430107527,93,35.67741935483871,-25.0,-87.0,153.0,0
1724221561,18.5633567,73.8331567,499.6,24.51827956989247,93,35.69892473118279,-25.0,-87.0,154.0,0
1724221562,18.5633567,73.8331567,499.6,24.48172043010753,93,35.516129032258064,-25.0,-87.0,153.0,0
1724221563,18.5633567,73.8331567,499.6,24.648387096774197,93,35.516129032258064,-25.0,-87.0,153.0,0
1724221564,18.5633567,73.8331567,499.6,24.61505376344086,93,35.516129032258064,-25.0,-87.0,154.0,0
1724221565,18.5633567,73.8331567,499.6,24.706451612903223,93,35.516129032258064,-25.0,-87.0,153.0,0
1724221566,18.5633567,73.8331567,499.6,24.76989247311828,93,35.27956989247312,-25.0,-87.0,154.0,0
1724221567,18.5633567,73.8331567,499.6,24.622580645161293,93,35.27956989247312,-25.0,-87.0,154.0,0
1724221568,18.5633567,73.8331567,499.6,24.633333333333333,93,34.96774193548387,-25.0,-87.0,154.0,0
1724221569,18.5633567,73.8331567,499.6,24.44838709677419,93,34.96774193548387,-25.0,-87.0,154.0,0
1724221570,18.5633567,73.8331567,499.6,24.441935483870967,93,34.96774193548387,-25.0,-87.0,154.0,0
1724221571,18.5633567,73.8331567,499.6,24.769565217391307,92,34.43478260869565,-25.0,-87.0,153.0,0
1724221572,18.5633567,73.8331567,499.6,24.56021505376344,93,34.645161290322584,-25.0,-87.0,154.0,0
1724221573,18.5633567,73.8331567,499.6,24.589247311827958,93,34.645161290322584,-25.0,-87.0,154.0,0
1724221574,18.5633567,73.8331567,499.6,24.58279569892473,93,34.645161290322584,-25.0,-87.0,153.0,0
1724221575,18.5633567,73.8331567,499.6,24.520430107526884,93,34.225806451612904,-25.0,-87.0,153.0,0
1724221576,18.5633567,73.8331567,499.6,24.56021505376344,93,34.225806451612904,-25.0,-87.0,154.0,0
1724221577,18.5633567,73.8331567,499.6,24.74891304347826,92,33.80434782608695,-25.0,-87.0,154.0,0
1724221578,18.5633567,73.8331567,499.6,24.688043478260873,92,33.80434782608695,-25.0,-87.0,153.0,0
1724221579,18.5633567,73.8331567,499.6,24.721739130434784,92,33.80434782608695,-25.0,-87.0,153.0,0
1724221580,18.5633567,73.8331567,499.6,24.733695652173914,92,33.608695652173914,-25.0,-87.0,154.0,0
1724221581,18.5633567,73.8331567,499.6,24.77391304347826,92,33.58695652173913,-25.0,-87.0,154.0,0
1724221582,18.5633567,73.8331567,499.6,24.858695652173914,92,33.58695652173913,-25.0,-87.0,153.0,0
1724221583,18.5633567,73.8331567,499.6,24.81827956989247,93,33.55913978494624,-25.0,-87.0,154.0,0
1724221584,18.5633567,73.8331567,499.6,24.63225806451613,93,33.55913978494624,-25.0,-87.0,153.0,0
1724221585,18.5633567,73.8331567,499.6,24.910752688172042,93,33.55913978494624,-25.0,-87.0,153.0,0
1724221586,18.5633567,73.8331567,499.6,24.827956989247312,93,33.55913978494624,-25.0,-87.0,153.0,0
1724221587,18.5633567,73.8331567,499.6,24.641935483870967,93,33.58064516129032,-25.0,-87.0,153.0,0
1724221588,18.5633567,73.8331567,499.6,24.974999999999998,92,33.608695652173914,-25.0,-87.0,153.0,0
1724221589,18.5633567,73.8331567,499.6,24.930434782608696,92,33.608695652173914,-25.0,-87.0,154.0,0
1724221590,18.5633567,73.8331567,499.6,24.906521739130437,92,33.608695652173914,-25.0,-87.0,153.0,0
1724221591,18.5633567,73.8331567,499.6,24.807608695652174,92,33.608695652173914,-25.0,-87.0,153.0,0
1724221592,18.5633567,73.8331567,499.6,24.845652173913045,92,31.804347826086957,-26.0,-87.0,153.0,0
1724221593,18.5633567,73.8331567,499.6,24.92391304347826,92,33.608695652173914,-26.0,-87.0,153.0,0
1724221594,18.5633567,73.8331567,499.6,24.921739130434784,92,33.608695652173914,-26.0,-87.0,153.0,0
1724221595,18.5633567,73.8331567,499.6,24.958695652173912,92,33.608695652173914,-26.0,-87.0,153.0,0
1724221596,18.5633567,73.8331567,499.6,24.803260869565218,92,33.608695652173914,-26.0,-87.0,152.0,0
1724221597,18.5633567,73.8331567,499.6,24.755434782608695,92,33.608695652173914,-26.0,-87.0,153.0,0
1724221598,18.5633567,73.8331567,499.6,24.85326086956522,92,33.608695652173914,-26.0,-87.0,152.0,0
1724221599,18.5633567,73.8331567,499.6,24.84130434782609,92,35.03260869565217,-26.0,-87.0,152.0,0
1724221600,18.5633567,73.8331567,499.6,24.858695652173914,92,35.03260869565217,-26.0,-87.0,152.0,0
1724221601,18.5633567,73.8331567,499.6,24.902173913043477,92,35.69565217391305,-26.0,-87.0,152.0,0
1724221602,18.5633567,73.8331567,499.6,24.944565217391304,92,35.69565217391305,-26.0,-87.0,153.0,0
1724221603,18.5633567,73.8331567,499.6,24.995652173913044,92,35.69565217391305,-26.0,-87.0,152.0,0
1724221604,18.5633567,73.8331567,499.6,24.90108695652174,92,35.69565217391305,-26.0,-87.0,152.0,0
1724221605,18.5633567,73.8331567,499.6,24.93913043478261,92,35.69565217391305,-26.0,-87.0,152.0,0
1724221606,18.5633567,73.8331567,499.6,24.919565217391302,92,35.69565217391305,-26.0,-87.0,152.0,0
1724221607,18.5633567,73.8331567,499.6,24.875,92,35.69565217391305,-26.0,-87.0,152.0,0
1724221608,18.5633567,73.8331567,499.6,24.90108695652174,92,35.69565217391305,-27.0,-87.0,152.0,0
1724221609,18.5633567,73.8331567,499.6,25.06847826086957,92,35.41304347826087,-26.0,-87.0,152.0,0
1724221610,18.5633567,73.8331567,499.6,25.04565217391304,92,35.17391304347826,-26.0,-87.0,152.0,0
1724221611,18.5633567,73.8331567,499.6,25.083695652173912,92,35.17391304347826,-26.0,-87.0,152.0,0
1724221612,18.5633567,73.8331567,499.6,25.19347826086957,92,35.17391304347826,-27.0,-87.0,152.0,0
1724221613,18.5633567,73.8331567,499.6,25.178260869565218,92,35.17391304347826,-26.0,-87.0,152.0,0
1724221614,18.5633567,73.8331567,499.6,25.032608695652176,92,35.17391304347826,-26.0,-87.0,152.0,0
1724221615,18.5633567,73.8331567,499.6,24.97391304347826,92,35.17391304347826,-26.0,-87.0,152.0,0
1724221616,18.5633567,73.8331567,499.6,25.20434782608696,92,35.17391304347826,-26.0,-87.0,152.0,0
1724221617,18.5633567,73.8331567,499.6,24.914130434782606,92,35.17391304347826,-26.0,-87.0,152.0,0
1724221618,18.5633567,73.8331567,499.6,25.083695652173912,92,34.42391304347826,-26.0,-87.0,153.0,0
1724221619,18.5633567,73.8331567,499.6,25.084782608695654,92,34.73913043478261,-25.0,-87.0,153.0,0
1724221620,18.5633567,73.8331567,499.6,25.099999999999998,92,34.75,-26.0,-87.0,153.0,0
1724221621,18.5633567,73.8331567,499.6,25.203260869565216,92,34.75,-26.0,-87.0,153.0,0
1724221622,18.5633567,73.8331567,499.6,25.133695652173916,92,34.75,-26.0,-87.0,153.0,0
1724221623,18.5633567,73.8331567,499.6,25.190217391304348,92,34.73913043478261,-26.0,-87.0,153.0,0
1724221624,18.5633567,73.8331567,499.6,25.196739130434782,92,34.72826086956522,-26.0,-87.0,153.0,0
1724221625,18.5633567,73.8331567,499.6,25.257608695652173,92,34.75,-26.0,-87.0,152.0,0
1724221626,18.5633567,73.8331567,499.6,25.218478260869563,92,34.75,-26.0,-87.0,152.0,0
1724221627,18.5633567,73.8331567,499.6,25.11195652173913,92,34.75,-26.0,-87.0,152.0,0
1724221628,18.5633567,73.8331567,499.6,25.222826086956523,92,35.608695652173914,-26.0,-87.0,153.0,0
1724221629,18.5633567,73.8331567,499.6,25.205434782608698,92,35.608695652173914,-26.0,-87.0,153.0,0
1724221630,18.5633567,73.8331567,499.6,25.065217391304348,92,35.608695652173914,-26.0,-87.0,152.0,0
1724221631,18.5633567,73.8331567,499.6,25.3,92,35.608695652173914,-26.0,-87.0,152.0,0
1724221632,18.5633567,73.8331567,499.6,25.213043478260868,92,35.608695652173914,-26.0,-87.0,152.0,0
1724221633,18.5633567,73.8331567,499.6,25.152173913043477,92,35.608695652173914,-27.0,-87.0,152.0,0
1724221634,18.5633567,73.8331567,499.6,25.01413043478261,92,35.619565217391305,-27.0,-87.0,152.0,0
1724221635,18.5633567,73.8331567,499.6,24.964130434782607,92,35.619565217391305,-27.0,-87.0,152.0,0
1724221636,18.5633567,73.8331567,499.6,25.046739130434784,92,35.619565217391305,-27.0,-87.0,152.0,0
1724221637,18.5633567,73.8331567,499.6,24.99673913043478,92,34.78260869565217,-27.0,-87.0,152.0,0
1724221638,18.5633567,73.8331567,499.6,24.946739130434782,92,34.78260869565217,-27.0,-87.0,151.0,0
1724221639,18.5633567,73.8331567,499.6,24.832608695652173,92,34.78260869565217,-27.0,-87.0,151.0,0
1724221640,18.5633567,73.8331567,499.6,24.793478260869566,92,34.78260869565217,-27.0,-87.0,152.0,0
1724221641,18.5633567,73.8331567,499.6,25.019565217391307,92,34.78260869565217,-27.0,-87.0,151.0,0
1724221642,18.5633567,73.8331567,499.6,25.00326086956522,92,32.96739130434783,-27.0,-87.0,151.0,0
1724221643,18.5633567,73.8331567,499.6,24.911956521739132,92,34.77173913043478,-27.0,-87.0,151.0,0
1724221644,18.5633567,73.8331567,499.6,24.946739130434782,92,34.78260869565217,-28.0,-87.0,151.0,0
1724221645,18.5633567,73.8331567,499.6,25.096739130434784,92,34.78260869565217,-28.0,-87.0,151.0,0
1724221646,18.5633567,73.8331567,499.6,24.868478260869566,92,33.858695652173914,-28.0,-87.0,151.0,0
1724221647,18.5633567,73.8331567,499.6,24.845652173913045,92,33.858695652173914,-27.0,-87.0,151.0,0
1724221648,18.5633567,73.8331567,499.6,24.904347826086955,92,33.858695652173914,-27.0,-87.0,151.0,0
1724221649,18.5633567,73.8331567,499.6,24.892391304347825,92,33.858695652173914,-27.0,-87.0,151.0,0
1724221650,18.5633567,73.8331567,499.6,24.766304347826086,92,33.858695652173914,-27.0,-87.0,151.0,0
1724221651,18.5633567,73.8331567,499.6,24.691304347826087,92,33.858695652173914,-27.0,-87.0,151.0,0
1724221652,18.5633567,73.8331567,499.6,24.713043478260868,92,33.858695652173914,-27.0,-87.0,151.0,0
1724221653,18.5633567,73.8331567,499.6,24.75,92,33.880434782608695,-27.0,-87.0,151.0,0
1724221654,18.5633567,73.8331567,499.6,23.663855421686748,83,34.54216867469879,-27.0,-87.0,151.0,0
1724221655,18.5633567,73.8331567,499.6,24.020238095238096,84,34.404761904761905,-27.0,-87.0,152.0,0
1724221656,18.5633567,73.8331567,499.6,24.017045454545453,88,34.21590909090909,-27.0,-87.0,151.0,0
1724221657,18.5633567,73.8331567,499.6,23.814285714285713,91,34.032967032967036,-27.0,-87.0,151.0,0
1724221658,18.5633567,73.8331567,499.6,24.227472527472525,91,34.76923076923077,-27.0,-87.0,152.0,0
1724221659,18.5633567,73.8331567,499.6,24.252747252747252,91,34.76923076923077,-27.0,-87.0,152.0,0
1724221660,18.5633567,73.8331567,499.6,24.31098901098901,91,34.76923076923077,-27.0,-87.0,151.0,0
1724221661,18.5633567,73.8331567,499.6,24.303296703296702,91,35.46153846153846,-27.0,-87.0,152.0,0
1724221662,18.5633567,73.8331567,499.6,24.234065934065935,91,35.46153846153846,-27.0,-87.0,152.0,0
1724221663,18.5633567,73.8331567,499.6,24.18351648351648,91,35.46153846153846,-27.0,-87.0,152.0,0
1724221664,18.5633567,73.8331567,499.6,24.067032967032965,91,36.10989010989011,-27.0,-87.0,152.0,0
1724221665,18.5633567,73.8331567,499.6,24.156043956043955,91,36.10989010989011,-27.0,-87.0,152.0,0
1724221666,18.5633567,73.8331567,499.6,24.14835164835165,91,36.10989010989011,-26.0,-87.0,152.0,0
1724221667,18.5633567,73.8331567,499.6,24.51208791208791,91,36.043956043956044,-26.0,-87.0,152.0,0
1724221668,18.5633567,73.8331567,499.6,24.347252747252746,91,36.043956043956044,-26.0,-87.0,153.0,0
1724221669,18.5633567,73.8331567,499.6,24.141758241758243,91,36.032967032967036,-26.0,-87.0,152.0,0
1724221670,18.5633567,73.8331567,499.6,24.439560439560438,91,35.84615384615385,-26.0,-87.0,153.0,0
1724221671,18.5633567,73.8331567,499.6,24.424175824175823,91,35.824175824175825,-26.0,-87.0,153.0,0
1724221672,18.5633567,73.8331567,499.6,24.404395604395607,91,35.824175824175825,-26.0,-87.0,153.0,0
1724221673,18.5633567,73.8331567,499.6,24.44835164835165,91,35.582417582417584,-26.0,-87.0,153.0,0
1724221674,18.5633567,73.8331567,499.6,24.412087912087912,91,35.582417582417584,-26.0,-87.0,153.0,0
1724221675,18.5633567,73.8331567,499.6,24.567032967032965,91,35.582417582417584,-26.0,-87.0,153.0,0
1724221676,18.5633567,73.8331567,499.6,24.515384615384615,91,35.15384615384615,-26.0,-87.0,153.0,0
1724221677,18.5633567,73.8331567,499.6,24.518681318681317,91,35.15384615384615,-25.0,-87.0,153.0,0
1724221678,18.5633567,73.8331567,499.6,24.48681318681319,91,35.15384615384615,-26.0,-87.0,153.0,0
1724221679,18.5633567,73.8331567,499.6,24.613186813186815,91,34.824175824175825,-25.0,-87.0,153.0,0
1724221680,18.5633567,73.8331567,499.6,24.716483516483514,91,34.824175824175825,-25.0,-87.0,153.0,0
1724221681,18.5633567,73.8331567,499.6,24.534065934065932,91,34.824175824175825,-25.0,-87.0,153.0,0
1724221682,18.5633567,73.8331567,499.6,24.479120879120877,91,34.417582417582416,-26.0,-87.0,153.0,0
1724221683,18.5633567,73.8331567,499.6,24.59,90,34.21111111111111,-25.0,-87.0,154.0,0
1724221684,18.5633567,73.8331567,499.6,24.5978021978022,91,34.42857142857143,-25.0,-87.0,153.0,0
1724221685,18.5633567,73.8331567,499.6,24.463736263736262,91,34.21978021978022,-25.0,-87.0,153.0,0
1724221686,18.5633567,73.8331567,499.6,24.496703296703295,91,34.20879120879121,-25.0,-87.0,153.0,0
1724221687,18.5633567,73.8331567,499.6,24.491208791208788,91,34.20879120879121,-24.0,-87.0,154.0,0
1724221688,18.5633567,73.8331567,499.6,24.425274725274722,91,34.010989010989015,-25.0,-87.0,154.0,0
1724221689,18.5633567,73.8331567,499.6,24.392222222222223,90,33.8,-25.0,-87.0,153.0,0
1724221690,18.5633567,73.8331567,499.6,24.414444444444445,90,33.8,-24.0,-87.0,154.0,0
1724221691,18.5633567,73.8331567,499.6,24.381111111111114,90,33.8,-24.0,-87.0,154.0,0
1724221692,18.5633567,73.8331567,499.6,24.377777777777776,90,31.955555555555556,-24.0,-87.0,154.0,0
1724221693,18.5633567,73.8331567,499.6,24.261538461538464,91,34.010989010989015,-25.0,-87.0,154.0,0
1724221694,18.5633567,73.8331567,499.6,24.303296703296702,91,34.010989010989015,-25.0,-87.0,154.0,0
1724221695,18.5633567,73.8331567,499.6,24.484444444444442,90,33.8,-25.0,-87.0,154.0,0
1724221696,18.5633567,73.8331567,499.6,24.425555555555558,90,33.8,-25.0,-87.0,154.0,0
1724221697,18.5633567,73.8331567,499.6,24.747252747252748,91,34.010989010989015,-25.0,-87.0,154.0,0
1724221698,18.5633567,73.8331567,499.6,24.806666666666665,90,33.8,-24.0,-87.0,154.0,0
1724221699,18.5633567,73.8331567,499.6,25.1,90,33.8,-25.0,-87.0,154.0,0
1724221700,18.5633567,73.8331567,499.6,25.35,90,33.8,-25.0,-87.0,154.0,0
1724221701,18.5633567,73.8331567,499.6,25.24,90,33.8,-25.0,-87.0,154.0,0
1724221702,18.5633567,73.8331567,499.6,25.444444444444443,90,33.8,-24.0,-87.0,154.0,0
1724221703,18.5633567,73.8331567,499.6,25.21333333333333,90,33.8,-25.0,-87.0,154.0,0
1724221704,18.5633567,73.8331567,499.6,25.196666666666665,90,33.8,-25.0,-87.0,154.0,0
1724221705,18.5633567,73.8331567,499.6,25.125555555555557,90,33.8,-25.0,-87.0,153.0,0
1724221706,18.5633567,73.8331567,499.6,25.032222222222224,90,33.8,-24.0,-87.0,154.0,0
1724221707,18.5633567,73.8331567,499.6,25.028888888888886,90,33.8,-25.0,-87.0,154.0,0
1724221708,18.5633567,73.8331567,499.6,24.94777777777778,90,33.8,-24.0,-87.0,154.0,0
1724221709,18.5633567,73.8331567,499.6,25.047777777777778,90,34.53333333333333,-25.0,-87.0,154.0,0
1724221710,18.5633567,73.8331567,499.6,24.99111111111111,90,34.53333333333333,-24.0,-87.0,154.0,0
1724221711,18.5633567,73.8331567,499.6,25.060000000000002,90,34.53333333333333,-24.0,-87.0,154.0,0
1724221712,18.5633567,73.8331567,499.6,25.01,90,34.53333333333333,-25.0,-87.0,154.0,0
1724221713,18.5633567,73.8331567,499.6,24.99,90,35.266666666666666,-25.0,-87.0,154.0,0
1724221714,18.5633567,73.8331567,499.6,25.043333333333333,90,35.266666666666666,-25.0,-87.0,153.0,0
1724221715,18.5633567,73.8331567,499.6,24.85888888888889,90,35.266666666666666,-25.0,-87.0,153.0,0
1724221716,18.5633567,73.8331567,499.6,24.982222222222223,90,35.266666666666666,-25.0,-87.0,153.0,0
1724221717,18.5633567,73.8331567,499.6,24.952222222222222,90,35.266666666666666,-25.0,-87.0,153.0,0
1724221718,18.5633567,73.8331567,499.6,24.84777777777778,90,35.18888888888889,-25.0,-87.0,153.0,0
1724221719,18.5633567,73.8331567,499.6,24.83888888888889,90,35.18888888888889,-25.0,-87.0,153.0,0
1724221720,18.5633567,73.8331567,499.6,24.953333333333337,90,35.18888888888889,-25.0,-87.0,153.0,0
1724221721,18.5633567,73.8331567,499.6,24.79111111111111,90,35.18888888888889,-25.0,-87.0,154.0,0
1724221722,18.5633567,73.8331567,499.6,24.974444444444444,90,35.111111111111114,-25.0,-87.0,153.0,0
1724221723,18.5633567,73.8331567,499.6,25.02777777777778,90,35.111111111111114,-25.0,-87.0,154.0,0
1724221724,18.5633567,73.8331567,499.6,25.035555555555554,90,35.111111111111114,-25.0,-87.0,154.0,0
1724221725,18.5633567,73.8331567,499.6,25.065555555555555,90,35.333333333333336,-25.0,-87.0,154.0,0
1724221726,18.5633567,73.8331567,499.6,25.084444444444443,90,35.333333333333336,-25.0,-87.0,153.0,0
1724221727,18.5633567,73.8331567,499.6,25.121111111111112,90,35.21111111111111,-25.0,-87.0,153.0,0
1724221728,18.5633567,73.8331567,499.6,25.103333333333335,90,35.18888888888889,-25.0,-87.0,154.0,0
1724221729,18.5633567,73.8331567,499.6,25.16333333333333,90,35.18888888888889,-25.0,-87.0,154.0,0
1724221730,18.5633567,73.8331567,499.6,25.01,90,35.18888888888889,-25.0,-87.0,153.0,0
1724221731,18.5633567,73.8331567,499.6,25.121111111111112,90,34.955555555555556,-25.0,-87.0,153.0,0
1724221732,18.5633567,73.8331567,499.6,24.964444444444446,90,34.96666666666667,-25.0,-87.0,154.0,0
1724221733,18.5633567,73.8331567,499.6,25.154444444444444,90,34.977777777777774,-25.0,-87.0,154.0,0
1724221734,18.5633567,73.8331567,499.6,25.034444444444443,90,34.955555555555556,-25.0,-87.0,154.0,0
1724221735,18.5633567,73.8331567,499.6,25.045555555555556,90,34.955555555555556,-25.0,-87.0,153.0,0
1724221736,18.5633567,73.8331567,499.6,25.074444444444442,90,34.955555555555556,-24.0,-87.0,154.0,0
1724221737,18.5633567,73.8331567,499.6,24.916666666666668,90,34.65555555555556,-25.0,-87.0,154.0,0
1724221738,18.5633567,73.8331567,499.6,24.964444444444446,90,34.65555555555556,-25.0,-87.0,154.0,0
1724221739,18.5633567,73.8331567,499.6,24.98777777777778,90,34.65555555555556,-25.0,-87.0,154.0,0
1724221740,18.5633567,73.8331567,499.6,24.87666666666667,90,34.422222222222224,-25.0,-87.0,154.0,0
1724221741,18.5633567,73.8331567,499.6,24.837777777777777,90,34.422222222222224,-24.0,-87.0,154.0,0
1724221742,18.5633567,73.8331567,499.6,25.02444444444444,90,32.577777777777776,-25.0,-87.0,154.0,0
1724221743,18.5633567,73.8331567,499.6,24.99,90,34.422222222222224,-25.0,-87.0,154.0,0
1724221744,18.5633567,73.8331567,499.6,24.818888888888885,90,34.422222222222224,-25.0,-87.0,154.0,0
1724221745,18.5633567,73.8331567,499.6,24.770000000000003,90,34.422222222222224,-25.0,-87.0,154.0,0
1724221746,18.5633567,73.8331567,499.6,24.868888888888886,90,34.94444444444444,-24.0,-87.0,154.0,0
1724221747,18.5633567,73.8331567,499.6,24.72888888888889,90,34.94444444444444,-24.0,-87.0,154.0,0
1724221748,18.5633567,73.8331567,499.6,24.82777777777778,90,34.94444444444444,-24.0,-87.0,155.0,0
1724221749,18.5633567,73.8331567,499.6,24.813483146067416,89,35.61797752808989,-24.0,-87.0,155.0,0
1724221750,18.5633567,73.8331567,499.6,24.94943820224719,89,35.61797752808989,-24.0,-87.0,155.0,0
1724221751,18.5633567,73.8331567,499.6,24.82777777777778,90,35.44444444444444,-24.0,-87.0,155.0,0
1724221752,18.5633567,73.8331567,499.6,24.79,90,35.44444444444444,-24.0,-87.0,155.0,0
1724221753,18.5633567,73.8331567,499.6,24.71222222222222,90,35.44444444444444,-24.0,-87.0,155.0,0
1724221754,18.5633567,73.8331567,499.6,24.658888888888892,90,35.44444444444444,-23.0,-87.0,155.0,0
1724221755,18.5633567,73.8331567,499.6,24.8,90,35.36666666666667,-23.0,-87.0,156.0,0
1724221756,18.5633567,73.8331567,499.6,25.076666666666668,90,35.36666666666667,-23.0,-87.0,156.0,0
1724221757,18.5633567,73.8331567,499.6,25.21,90,35.36666666666667,-23.0,-87.0,155.0,0
1724221758,18.5633567,73.8331567,499.6,25.10888888888889,90,35.28888888888889,-23.0,-87.0,156.0,0
1724221759,18.5633567,73.8331567,499.6,25.153333333333336,90,35.28888888888889,-23.0,-87.0,156.0,0
1724221760,18.5633567,73.8331567,499.6,24.953333333333337,90,35.28888888888889,-23.0,-87.0,156.0,0
1724221761,18.5633567,73.8331567,499.6,25.096629213483144,89,35.438202247191015,-23.0,-87.0,156.0,0
1724221762,18.5633567,73.8331567,499.6,25.253932584269663,89,35.438202247191015,-23.0,-87.0,156.0,0
1724221763,18.5633567,73.8331567,499.6,25.10112359550562,89,35.46067415730337,-22.0,-87.0,156.0,0
1724221764,18.5633567,73.8331567,499.6,25.164044943820222,89,35.46067415730337,-22.0,-87.0,156.0,0
1724221765,18.5633567,73.8331567,499.6,25.200000000000003,89,35.449438202247194,-22.0,-87.0,156.0,0
1724221766,18.5633567,73.8331567,499.6,25.2123595505618,89,35.449438202247194,-22.0,-87.0,156.0,0
1724221767,18.5633567,73.8331567,499.6,24.910112359550563,89,35.449438202247194,-22.0,-87.0,157.0,0
1724221768,18.5633567,73.8331567,499.6,24.897752808988766,89,35.337078651685395,-23.0,-87.0,156.0,0
1724221769,18.5633567,73.8331567,499.6,25.17191011235955,89,35.337078651685395,-22.0,-87.0,156.0,0
1724221770,18.5633567,73.8331567,499.6,25.293333333333333,90,35.3,-23.0,-87.0,156.0,0
1724221771,18.5633567,73.8331567,499.6,25.21,90,35.3,-22.0,-87.0,156.0,0
1724221772,18.5633567,73.8331567,499.6,25.114444444444448,90,35.3,-22.0,-87.0,156.0,0
1724221773,18.5633567,73.8331567,499.6,25.057777777777776,90,35.27777777777778,-22.0,-87.0,156.0,0
1724221774,18.5633567,73.8331567,499.6,25.04111111111111,90,35.27777777777778,-22.0,-87.0,156.0,0
1724221775,18.5633567,73.8331567,499.6,24.995555555555555,90,35.27777777777778,-23.0,-87.0,156.0,0
1724221776,18.5633567,73.8331567,499.6,25.063333333333333,90,35.27777777777778,-23.0,-87.0,156.0,0
1724221777,18.5633567,73.8331567,499.6,25.137777777777778,90,35.17777777777778,-23.0,-87.0,155.0,0
1724221778,18.5633567,73.8331567,499.6,25.066666666666666,90,35.17777777777778,-23.0,-87.0,156.0,0
1724221779,18.5633567,73.8331567,499.6,25.043333333333333,90,35.17777777777778,-23.0,-87.0,156.0,0
1724221780,18.5633567,73.8331567,499.6,25.362222222222222,90,35.17777777777778,-23.0,-87.0,156.0,0
1724221781,18.5633567,73.8331567,499.6,25.124444444444443,90,35.17777777777778,-23.0,-87.0,155.0,0
1724221782,18.5633567,73.8331567,499.6,25.11777777777778,90,35.17777777777778,-23.0,-87.0,155.0,0
1724221783,18.5633567,73.8331567,499.6,25.12087912087912,91,35.032967032967036,-23.0,-87.0,156.0,0
1724221784,18.5633567,73.8331567,499.6,24.963736263736262,91,35.032967032967036,-23.0,-87.0,156.0,0
1724221785,18.5633567,73.8331567,499.6,25.02747252747253,91,35.02197802197802,-23.0,-87.0,156.0,0
1724221786,18.5633567,73.8331567,499.6,24.936263736263733,91,34.81318681318681,-23.0,-87.0,155.0,0
1724221787,18.5633567,73.8331567,499.6,24.93736263736264,91,34.824175824175825,-23.0,-87.0,156.0,0
1724221788,18.5633567,73.8331567,499.6,24.90989010989011,91,34.824175824175825,-23.0,-87.0,155.0,0
1724221789,18.5633567,73.8331567,499.6,24.807692307692307,91,34.824175824175825,-23.0,-87.0,155.0,0
1724221790,18.5633567,73.8331567,499.6,24.991208791208788,91,34.824175824175825,-23.0,-87.0,155.0,0
1724221791,18.5633567,73.8331567,499.6,25.021978021978022,91,34.824175824175825,-24.0,-87.0,155.0,0
1724221792,18.5633567,73.8331567,499.6,25.184615384615388,91,33.02197802197802,-24.0,-87.0,155.0,0
1724221793,18.5633567,73.8331567,499.6,24.936956521739127,92,35.02173913043478,-23.0,-87.0,155.0,0
1724221794,18.5633567,73.8331567,499.6,24.96195652173913,92,35.02173913043478,-24.0,-87.0,155.0,0
1724221795,18.5633567,73.8331567,499.6,25.006521739130434,92,35.01086956521739,-23.0,-87.0,155.0,0
1724221796,18.5633567,73.8331567,499.6,24.972826086956523,92,35.01086956521739,-24.0,-87.0,155.0,0
1724221797,18.5633567,73.8331567,499.6,25.10978260869565,92,35.01086956521739,-23.0,-87.0,155.0,0
1724221798,18.5633567,73.8331567,499.6,25.15978260869565,92,35.01086956521739,-23.0,-87.0,155.0,0
1724221799,18.5633567,73.8331567,499.6,25.099999999999998,92,35.0,-24.0,-87.0,155.0,0
1724221800,18.5633567,73.8331567,499.6,25.12608695652174,92,34.98913043478261,-23.0,-87.0,155.0,0
1724221801,18.5633567,73.8331567,499.6,25.075,92,35.0,-24.0,-87.0,155.0,0
1724221802,18.5633567,73.8331567,499.6,25.18586956521739,92,35.0,-24.0,-87.0,155.0,0
1724221803,18.5633567,73.8331567,499.6,25.176086956521736,92,35.0,-23.0,-87.0,155.0,0
1724221804,18.5633567,73.8331567,499.6,25.166304347826088,92,34.80434782608695,-24.0,-87.0,155.0,0
1724221805,18.5633567,73.8331567,499.6,25.221739130434784,92,34.80434782608695,-24.0,-87.0,155.0,0
1724221806,18.5633567,73.8331567,499.6,25.143478260869564,92,34.80434782608695,-24.0,-87.0,155.0,0
1724221807,18.5633567,73.8331567,499.6,25.085869565217394,92,34.80434782608695,-24.0,-87.0,155.0,0
1724221808,18.5633567,73.8331567,499.6,25.195652173913043,92,34.80434782608695,-24.0,-87.0,155.0,0
1724221809,18.5633567,73.8331567,499.6,25.23586956521739,92,34.80434782608695,-24.0,-87.0,155.0,0
1724221810,18.5633567,73.8331567,499.6,25.13478260869565,92,34.80434782608695,-24.0,-87.0,155.0,0
1724221811,18.5633567,73.8331567,499.6,25.606521739130436,92,34.80434782608695,-24.0,-87.0,155.0,0
1724221812,18.5633567,73.8331567,499.6,25.507608695652173,92,34.80434782608695,-24.0,-87.0,155.0,0
1724221813,18.5633567,73.8331567,499.6,25.491304347826084,92,34.80434782608695,-24.0,-87.0,155.0,0
1724221814,18.5633567,73.8331567,499.6,25.417391304347827,92,34.79347826086956,-25.0,-87.0,154.0,0
1724221815,18.5633567,73.8331567,499.6,25.517391304347825,92,34.79347826086956,-25.0,-87.0,154.0,0
1724221816,18.5633567,73.8331567,499.6,25.417391304347827,92,34.79347826086956,-24.0,-87.0,154.0,0
1724221817,18.5633567,73.8331567,499.6,25.453260869565216,92,34.79347826086956,-25.0,-87.0,154.0,0
1724221818,18.5633567,73.8331567,499.6,25.491304347826084,92,34.79347826086956,-25.0,-87.0,153.0,0
1724221819,18.5633567,73.8331567,499.6,25.63695652173913,92,34.79347826086956,-25.0,-87.0,153.0,0
1724221820,18.5633567,73.8331567,499.6,25.578260869565216,92,34.80434782608695,-25.0,-87.0,153.0,0
1724221821,18.5633567,73.8331567,499.6,25.45434782608696,92,34.80434782608695,-25.0,-87.0,154.0,0
1724221822,18.5633567,73.8331567,499.6,25.422826086956523,92,34.80434782608695,-25.0,-87.0,154.0,0
1724221823,18.5633567,73.8331567,499.6,25.551086956521736,92,34.80434782608695,-25.0,-87.0,154.0,0
1724221824,18.5633567,73.8331567,499.6,25.54565217391304,92,34.80434782608695,-25.0,-87.0,154.0,0
1724221825,18.5633567,73.8331567,499.6,25.607608695652175,92,34.80434782608695,-25.0,-87.0,153.0,0
1724221826,18.5633567,73.8331567,499.6,25.61413043478261,92,34.80434782608695,-25.0,-87.0,153.0,0
1724221827,18.5633567,73.8331567,499.6,25.678021978021977,91,35.18681318681319,-25.0,-87.0,153.0,0
1724221828,18.5633567,73.8331567,499.6,25.544565217391302,92,34.82608695652174,-25.0,-87.0,153.0,0
1724221829,18.5633567,73.8331567,499.6,25.48586956521739,92,34.82608695652174,-25.0,-87.0,154.0,0
1724221830,18.5633567,73.8331567,499.6,25.48586956521739,92,34.82608695652174,-25.0,-87.0,153.0,0
1724221831,18.5633567,73.8331567,499.6,25.573913043478264,92,34.84782608695652,-26.0,-87.0,153.0,0
1724221832,18.5633567,73.8331567,499.6,25.167391304347827,92,34.82608695652174,-25.0,-87.0,154.0,0
1724221833,18.5633567,73.8331567,499.6,25.347826086956523,92,34.82608695652174,-26.0,-87.0,153.0,0
1724221834,18.5633567,73.8331567,499.6,25.59130434782609,92,34.83695652173913,-25.0,-87.0,153.0,0
1724221835,18.5633567,73.8331567,499.6,25.570652173913043,92,34.82608695652174,-25.0,-87.0,153.0,0
1724221836,18.5633567,73.8331567,499.6,25.27282608695652,92,35.56521739130435,-25.0,-87.0,153.0,0
1724221837,18.5633567,73.8331567,499.6,25.26304347826087,92,35.54347826086956,-25.0,-87.0,154.0,0
1724221838,18.5633567,73.8331567,499.6,25.557608695652174,92,35.54347826086956,-25.0,-87.0,154.0,0
1724221839,18.5633567,73.8331567,499.6,25.518478260869564,92,35.54347826086956,-25.0,-87.0,154.0,0
1724221840,18.5633567,73.8331567,499.6,25.544565217391302,92,35.54347826086956,-25.0,-87.0,154.0,0
1724221841,18.5633567,73.8331567,499.6,25.425,92,35.54347826086956,-25.0,-87.0,153.0,0
1724221842,18.5633567,73.8331567,499.6,25.604347826086954,92,33.76086956521739,-25.0,-87.0,154.0,0
1724221843,18.5633567,73.8331567,499.6,25.52282608695652,92,35.54347826086956,-25.0,-87.0,154.0,0
1724221844,18.5633567,73.8331567,499.6,25.47826086956522,92,35.52173913043478,-25.0,-87.0,154.0,0
1724221845,18.5633567,73.8331567,499.6,25.50326086956522,92,35.5,-24.0,-87.0,154.0,0
1724221846,18.5633567,73.8331567,499.6,25.414130434782606,92,35.55434782608695,-25.0,-87.0,154.0,0
1724221847,18.5633567,73.8331567,499.6,25.35326086956522,92,35.53260869565217,-25.0,-87.0,153.0,0
1724221848,18.5633567,73.8331567,499.6,25.34731182795699,93,35.16129032258065,-25.0,-87.0,154.0,0
1724221849,18.5633567,73.8331567,499.6,25.33655913978495,93,35.16129032258065,-25.0,-87.0,154.0,0
1724221850,18.5633567,73.8331567,499.6,25.468817204301075,93,35.16129032258065,-25.0,-87.0,154.0,0
1724221851,18.5633567,73.8331567,499.6,25.296774193548387,93,35.16129032258065,-25.0,-87.0,153.0,0
1724221852,18.5633567,73.8331567,499.6,25.34516129032258,93,35.16129032258065,-25.0,-87.0,154.0,0
1724221853,18.5633567,73.8331567,499.6,25.39354838709677,93,35.16129032258065,-24.0,-87.0,154.0,0
1724221854,18.5633567,73.8331567,499.6,25.349462365591396,93,35.086021505376344,-25.0,-87.0,154.0,0
1724221855,18.5633567,73.8331567,499.6,25.478494623655912,93,35.086021505376344,-25.0,-87.0,154.0,0
1724221856,18.5633567,73.8331567,499.6,25.30537634408602,93,35.086021505376344,-25.0,-87.0,154.0,0
1724221857,18.5633567,73.8331567,499.6,,0,,-25.0,-87.0,154.0,0
1724221858,18.5633567,73.8331567,499.6,25.333870967741937,186,35.086021505376344,-25.0,-87.0,153.0,0
1724221859,18.5633567,73.8331567,499.6,25.28494623655914,93,35.086021505376344,-25.0,-87.0,154.0,0
1724221860,18.5633567,73.8331567,499.6,25.301075268817204,93,35.086021505376344,-25.0,-87.0,153.0,0
1724221861,18.5633567,73.8331567,499.6,25.186021505376345,93,35.086021505376344,-25.0,-87.0,153.0,0
1724221862,18.5633567,73.8331567,499.6,25.172043010752688,93,35.075268817204304,-25.0,-87.0,154.0,0
1724221863,18.5633567,73.8331567,499.6,25.19462365591398,93,34.96774193548387,-25.0,-87.0,154.0,0
1724221864,18.5633567,73.8331567,499.6,25.244086021505375,93,34.956989247311824,-25.0,-87.0,153.0,0
1724221865,18.5633567,73.8331567,499.6,25.146236559139783,93,34.956989247311824,-25.0,-87.0,154.0,0
1724221866,18.5633567,73.8331567,499.6,25.244086021505375,93,34.956989247311824,-25.0,-87.0,154.0,0
1724221867,18.5633567,73.8331567,499.6,24.94516129032258,93,34.956989247311824,-24.0,-87.0,154.0,0
1724221868,18.5633567,73.8331567,499.6,25.21630434782609,92,35.27173913043478,-24.0,-87.0,155.0,0
1724221869,18.5633567,73.8331567,499.6,25.190217391304348,92,35.27173913043478,-24.0,-87.0,154.0,0
1724221870,18.5633567,73.8331567,499.6,25.099999999999998,92,35.27173913043478,-24.0,-87.0,154.0,0
1724221871,18.5633567,73.8331567,499.6,25.23913043478261,92,35.27173913043478,-24.0,-87.0,154.0,0
1724221872,18.5633567,73.8331567,499.6,25.269565217391307,92,35.141304347826086,-24.0,-87.0,154.0,0
1724221873,18.5633567,73.8331567,499.6,25.16304347826087,92,35.141304347826086,-24.0,-87.0,154.0,0
1724221874,18.5633567,73.8331567,499.6,25.04565217391304,92,35.141304347826086,-25.0,-87.0,154.0,0
1724221875,18.5633567,73.8331567,499.6,25.061956521739127,92,35.141304347826086,-25.0,-87.0,153.0,0
1724221876,18.5633567,73.8331567,499.6,25.030434782608697,92,35.141304347826086,-26.0,-87.0,153.0,0
1724221877,18.5633567,73.8331567,499.6,25.095652173913045,92,35.141304347826086,-26.0,-87.0,153.0,0
1724221878,18.5633567,73.8331567,499.6,25.133695652173916,92,35.141304347826086,-25.0,-87.0,153.0,0
1724221879,18.5633567,73.8331567,499.6,24.992391304347827,92,35.141304347826086,-26.0,-87.0,153.0,0
1724221880,18.5633567,73.8331567,499.6,25.169565217391302,92,35.141304347826086,-26.0,-87.0,153.0,0
1724221881,18.5633567,73.8331567,499.6,25.07934782608696,92,34.94565217391305,-25.0,-87.0,153.0,0
1724221882,18.5633567,73.8331567,499.6,25.282608695652176,92,34.94565217391305,-25.0,-87.0,153.0,0
1724221883,18.5633567,73.8331567,499.6,25.217391304347824,92,34.94565217391305,-25.0,-87.0,153.0,0
1724221884,18.5633567,73.8331567,499.6,25.21630434782609,92,34.94565217391305,-25.0,-87.0,154.0,0
1724221885,18.5633567,73.8331567,499.6,25.281521739130437,92,34.94565217391305,-26.0,-87.0,153.0,0
1724221886,18.5633567,73.8331567,499.6,25.12826086956522,92,34.94565217391305,-26.0,-87.0,153.0,0
1724221887,18.5633567,73.8331567,499.6,24.960869565217394,92,34.94565217391305,-26.0,-87.0,153.0,0
1724221888,18.5633567,73.8331567,499.6,24.969565217391303,92,34.94565217391305,-26.0,-87.0,153.0,0
1724221889,18.5633567,73.8331567,499.6,24.952173913043477,92,34.94565217391305,-26.0,-87.0,153.0,0
1724221890,18.5633567,73.8331567,499.6,24.91304347826087,92,34.93478260869565,-26.0,-87.0,153.0,0
1724221891,18.5633567,73.8331567,499.6,25.03369565217391,92,34.93478260869565,-26.0,-87.0,153.0,0
1724221892,18.5633567,73.8331567,499.6,24.89673913043478,92,33.15217391304348,-26.0,-87.0,153.0,0
1724221893,18.5633567,73.8331567,499.6,24.386021505376345,93,34.623655913978496,-26.0,-87.0,152.0,0
1724221894,18.5633567,73.8331567,499.6,24.70215053763441,93,34.623655913978496,-27.0,-87.0,152.0,0
1724221895,18.5633567,73.8331567,499.6,24.394623655913975,93,34.623655913978496,-26.0,-87.0,152.0,0
1724221896,18.5633567,73.8331567,499.6,24.516129032258064,93,34.623655913978496,-27.0,-87.0,152.0,0
1724221897,18.5633567,73.8331567,499.6,24.55483870967742,93,34.623655913978496,-27.0,-87.0,152.0,0
1724221898,18.5633567,73.8331567,499.6,24.501075268817203,93,34.623655913978496,-27.0,-87.0,152.0,0
1724221899,18.5633567,73.8331567,499.6,25.013978494623657,93,34.40860215053763,-27.0,-87.0,151.0,0
1724221900,18.5633567,73.8331567,499.6,25.03804347826087,92,34.77173913043478,-27.0,-87.0,151.0,0
1724221901,18.5633567,73.8331567,499.6,25.039130434782606,92,34.77173913043478,-27.0,-87.0,151.0,0
1724221902,18.5633567,73.8331567,499.6,25.234065934065935,91,35.08791208791209,-27.0,-87.0,151.0,0
1724221903,18.5633567,73.8331567,499.6,24.96630434782609,92,34.71739130434783,-27.0,-87.0,151.0,0
1724221904,18.5633567,73.8331567,499.6,25.008695652173916,92,34.77173913043478,-27.0,-87.0,152.0,0
1724221905,18.5633567,73.8331567,499.6,24.955913978494625,93,34.38709677419355,-27.0,-87.0,151.0,0
1724221906,18.5633567,73.8331567,499.6,25.104347826086954,92,34.69565217391305,-27.0,-87.0,152.0,0
1724221907,18.5633567,73.8331567,499.6,24.89354838709677,93,34.38709677419355,-27.0,-87.0,151.0,0
1724221908,18.5633567,73.8331567,499.6,25.0,93,34.38709677419355,-27.0,-87.0,152.0,0
1724221909,18.5633567,73.8331567,499.6,25.002150537634407,93,34.39784946236559,-27.0,-87.0,152.0,0
1724221910,18.5633567,73.8331567,499.6,25.043010752688172,93,34.38709677419355,-27.0,-87.0,152.0,0
1724221911,18.5633567,73.8331567,499.6,24.9494623655914,93,34.38709677419355,-27.0,-87.0,152.0,0
1724221912,18.5633567,73.8331567,499.6,25.01505376344086,93,34.38709677419355,-27.0,-87.0,151.0,0
1724221913,18.5633567,73.8331567,499.6,25.049462365591395,93,34.40860215053763,-27.0,-87.0,151.0,0
1724221914,18.5633567,73.8331567,499.6,25.09354838709677,93,34.40860215053763,-28.0,-87.0,151.0,0
1724221915,18.5633567,73.8331567,499.6,24.92043010752688,93,34.40860215053763,-27.0,-87.0,152.0,0
1724221916,18.5633567,73.8331567,499.6,24.938709677419357,93,34.40860215053763,-27.0,-87.0,151.0,0
1724221917,18.5633567,73.8331567,499.6,24.989247311827956,93,34.40860215053763,-27.0,-87.0,151.0,0
1724221918,18.5633567,73.8331567,499.6,24.63010752688172,93,34.40860215053763,-27.0,-87.0,151.0,0
1724221919,18.5633567,73.8331567,499.6,24.555913978494623,93,34.40860215053763,-28.0,-87.0,151.0,0
1724221920,18.5633567,73.8331567,499.6,24.421505376344083,93,34.40860215053763,-27.0,-87.0,152.0,0
1724221921,18.5633567,73.8331567,499.6,24.444086021505377,93,34.40860215053763,-27.0,-87.0,152.0,0
1724221922,18.5633567,73.8331567,499.6,24.411702127659574,94,34.59574468085106,-27.0,-87.0,151.0,0
1724221923,18.5633567,73.8331567,499.6,24.595744680851062,94,34.59574468085106,-27.0,-87.0,151.0,0
1724221924,18.5633567,73.8331567,499.6,24.668085106382982,94,34.59574468085106,-27.0,-87.0,151.0,0
1724221925,18.5633567,73.8331567,499.6,24.684042553191492,94,34.59574468085106,-27.0,-87.0,151.0,0
1724221926,18.5633567,73.8331567,499.6,24.819148936170212,94,34.59574468085106,-27.0,-87.0,152.0,0
1724221927,18.5633567,73.8331567,499.6,24.716129032258063,93,34.935483870967744,-27.0,-87.0,151.0,0
1724221928,18.5633567,73.8331567,499.6,24.75483870967742,93,34.935483870967744,-27.0,-87.0,151.0,0
1724221929,18.5633567,73.8331567,499.6,24.67659574468085,94,34.57446808510638,-27.0,-87.0,152.0,0
1724221930,18.5633567,73.8331567,499.6,24.66063829787234,94,34.57446808510638,-27.0,-87.0,151.0,0
1724221931,18.5633567,73.8331567,499.6,24.582978723404256,94,34.57446808510638,-27.0,-87.0,152.0,0
1724221932,18.5633567,73.8331567,499.6,24.77608695652174,92,34.75,-27.0,-87.0,152.0,0
1724221933,18.5633567,73.8331567,499.6,24.445652173913043,92,34.72826086956522,-27.0,-87.0,152.0,0
1724221934,18.5633567,73.8331567,499.6,24.756666666666664,90,35.077777777777776,-27.0,-87.0,151.0,0
1724221935,18.5633567,73.8331567,499.6,24.267741935483873,93,34.365591397849464,-28.0,-87.0,151.0,0
1724221936,18.5633567,73.8331567,499.6,24.54891304347826,92,35.22826086956522,-28.0,-87.0,151.0,0
1724221937,18.5633567,73.8331567,499.6,24.841758241758242,91,35.26373626373626,-28.0,-87.0,151.0,0
1724221938,18.5633567,73.8331567,499.6,24.87802197802198,91,35.26373626373626,-27.0,-87.0,151.0,0
1724221939,18.5633567,73.8331567,499.6,24.87912087912088,91,35.285714285714285,-27.0,-87.0,151.0,0
1724221940,18.5633567,73.8331567,499.6,24.76923076923077,91,35.285714285714285,-27.0,-87.0,152.0,0
1724221941,18.5633567,73.8331567,499.6,24.84065934065934,91,35.285714285714285,-28.0,-87.0,151.0,0
1724221942,18.5633567,73.8331567,499.6,25.19010989010989,91,33.48351648351648,-27.0,-87.0,152.0,0
1724221943,18.5633567,73.8331567,499.6,24.895604395604394,91,35.26373626373626,-27.0,-87.0,152.0,0
1724221944,18.5633567,73.8331567,499.6,24.91428571428571,91,35.26373626373626,-27.0,-87.0,152.0,0
1724221945,18.5633567,73.8331567,499.6,24.860439560439563,91,35.26373626373626,-27.0,-87.0,152.0,0
1724221946,18.5633567,73.8331567,499.6,24.886813186813185,91,35.285714285714285,-27.0,-87.0,152.0,0
1724221947,18.5633567,73.8331567,499.6,24.932967032967035,91,34.637362637362635,-27.0,-87.0,152.0,0
1724221948,18.5633567,73.8331567,499.6,24.871428571428574,91,34.637362637362635,-28.0,-87.0,151.0,0
1724221949,18.5633567,73.8331567,499.6,24.931868131868132,91,34.637362637362635,-27.0,-87.0,152.0,0
1724221950,18.5633567,73.8331567,499.6,24.866304347826084,92,34.608695652173914,-27.0,-87.0,152.0,0
1724221951,18.5633567,73.8331567,499.6,24.725806451612904,93,34.24731182795699,-27.0,-87.0,152.0,0
1724221952,18.5633567,73.8331567,499.6,24.66344086021505,93,34.24731182795699,-27.0,-87.0,152.0,0
1724221953,18.5633567,73.8331567,499.6,24.6,93,34.97849462365591,-27.0,-87.0,151.0,0
1724221954,18.5633567,73.8331567,499.6,24.612903225806452,93,34.97849462365591,-27.0,-87.0,151.0,0
1724221955,18.5633567,73.8331567,499.6,24.570967741935483,93,34.97849462365591,-27.0,-87.0,151.0,0
1724221956,18.5633567,73.8331567,499.6,24.53655913978495,93,35.67741935483871,-27.0,-87.0,151.0,0
1724221957,18.5633567,73.8331567,499.6,24.59021739130435,92,35.71739130434783,-27.0,-87.0,151.0,0
1724221958,18.5633567,73.8331567,499.6,24.59130434782609,92,35.71739130434783,-28.0,-87.0,151.0,0
1724221959,18.5633567,73.8331567,499.6,24.616304347826084,92,35.71739130434783,-28.0,-87.0,151.0,0
1724221960,18.5633567,73.8331567,499.6,24.686956521739127,92,35.71739130434783,-28.0,-87.0,150.0,0
1724221961,18.5633567,73.8331567,499.6,24.55652173913043,92,35.70652173913044,-28.0,-87.0,151.0,0
1724221962,18.5633567,73.8331567,499.6,24.710869565217394,92,35.619565217391305,-28.0,-87.0,150.0,0
1724221963,18.5633567,73.8331567,499.6,24.87608695652174,92,35.630434782608695,-28.0,-87.0,151.0,0
1724221964,18.5633567,73.8331567,499.6,24.493478260869566,92,35.630434782608695,-28.0,-87.0,151.0,0
1724221965,18.5633567,73.8331567,499.6,24.790217391304346,92,35.55434782608695,-28.0,-87.0,150.0,0
1724221966,18.5633567,73.8331567,499.6,25.217391304347824,92,35.55434782608695,-28.0,-87.0,150.0,0
1724221967,18.5633567,73.8331567,499.6,24.98709677419355,93,35.516129032258064,-28.0,-87.0,150.0,0
1724221968,18.5633567,73.8331567,499.6,25.02391304347826,92,35.55434782608695,-28.0,-87.0,150.0,0
1724221969,18.5633567,73.8331567,499.6,24.92717391304348,92,35.55434782608695,-28.0,-87.0,151.0,0
1724221970,18.5633567,73.8331567,499.6,25.05161290322581,93,35.516129032258064,-28.0,-87.0,150.0,0
1724221971,18.5633567,73.8331567,499.6,25.002150537634407,93,35.516129032258064,-28.0,-87.0,151.0,0
1724221972,18.5633567,73.8331567,499.6,25.076344086021503,93,35.526881720430104,-28.0,-87.0,150.0,0
1724221973,18.5633567,73.8331567,499.6,25.037634408602152,93,35.526881720430104,-28.0,-87.0,150.0,0
1724221974,18.5633567,73.8331567,499.6,24.83978494623656,93,35.41935483870968,-29.0,-87.0,150.0,0
1724221975,18.5633567,73.8331567,499.6,24.970967741935485,93,35.40860215053763,-29.0,-87.0,150.0,0
1724221976,18.5633567,73.8331567,499.6,25.00957446808511,94,35.08510638297872,-29.0,-87.0,150.0,0
1724221977,18.5633567,73.8331567,499.6,24.932978723404254,94,35.1063829787234,-28.0,-87.0,150.0,0
1724221978,18.5633567,73.8331567,499.6,24.487368421052633,95,34.747368421052634,-29.0,-87.0,150.0,0
1724221979,18.5633567,73.8331567,499.6,24.351578947368424,95,34.747368421052634,-29.0,-87.0,150.0,0
1724221980,18.5633567,73.8331567,499.6,24.397894736842108,95,34.747368421052634,-29.0,-87.0,150.0,0
1724221981,18.5633567,73.8331567,499.6,24.54105263157895,95,34.747368421052634,-29.0,-87.0,150.0,0
1724221982,18.5633567,73.8331567,499.6,24.353684210526314,95,33.04210526315789,-29.0,-87.0,150.0,0
1724221983,18.5633567,73.8331567,499.6,24.54105263157895,95,34.63157894736842,-29.0,-87.0,150.0,0
1724221984,18.5633567,73.8331567,499.6,24.351578947368424,95,34.63157894736842,-29.0,-87.0,150.0,0
1724221985,18.5633567,73.8331567,499.6,24.67659574468085,94,34.4468085106383,-29.0,-87.0,149.0,0
1724221986,18.5633567,73.8331567,499.6,24.540000000000003,95,34.642105263157895,-29.0,-87.0,150.0,0
1724221987,18.5633567,73.8331567,499.6,24.446315789473687,95,34.63157894736842,-29.0,-87.0,150.0,0
1724221988,18.5633567,73.8331567,499.6,24.44736842105263,95,34.63157894736842,-29.0,-87.0,150.0,0
1724221989,18.5633567,73.8331567,499.6,24.486315789473682,95,34.642105263157895,-29.0,-87.0,150.0,0
1724221990,18.5633567,73.8331567,499.6,24.471578947368425,95,34.642105263157895,-29.0,-87.0,150.0,0
1724221991,18.5633567,73.8331567,499.6,24.16842105263158,95,34.642105263157895,-29.0,-87.0,150.0,0
