timestamp,latitude,longitude,altitude,mean_snr,sat_count,mean_elevation,mean_azimuth,roll,pitch,yaw,is_inclined
1723967415,18.5632385,73.8331762,507.0,,0,,,174.0,-87.0,346.0,0
1723967416,18.5632387,73.833172,507.1,,0,,,177.0,-87.0,349.0,0
1723967417,18.5632383,73.8331674,507.1,19.67209302325581,86,34.895348837209305,161.63953488372093,168.0,-88.0,340.0,0
1723967418,18.5632347,73.8331559,507.19999999999993,19.415116279069768,86,34.895348837209305,161.63953488372093,-179.0,-86.0,352.0,0
1723967419,18.5632325,73.833154,507.19999999999993,19.205813953488374,86,35.25581395348837,162.43023255813952,169.0,-87.0,341.0,0
1723967420,18.5632318,73.8331534,507.1,19.11279069767442,86,35.25581395348837,162.43023255813952,174.0,-87.0,347.0,0
1723967421,18.5632317,73.8331558,507.1,19.208045977011494,87,34.9080459770115,162.22988505747125,174.0,-87.0,346.0,0
1723967422,18.5632293,73.8331576,507.19999999999993,19.33953488372093,86,34.7906976744186,160.24418604651163,172.0,-87.0,344.0,0
1723967423,18.5632286,73.8331581,507.19999999999993,19.214117647058824,85,34.83529411764706,161.16470588235293,172.0,-87.0,344.0,0
1723967424,18.5632284,73.8331582,507.19999999999993,18.287209302325582,86,34.80232558139535,160.24418604651163,171.0,-87.0,344.0,0
1723967425,18.5632283,73.8331583,507.19999999999993,19.074418604651164,86,34.54651162790697,160.51162790697674,171.0,-87.0,344.0,0
1723967426,18.5632283,73.8331583,507.19999999999993,19.393023255813954,86,34.54651162790697,160.51162790697674,171.0,-87.0,344.0,0
1723967427,18.5632283,73.8331583,507.19999999999993,19.08139534883721,86,34.54651162790697,160.51162790697674,171.0,-87.0,344.0,0
1723967428,18.5632283,73.8331583,507.19999999999993,19.37093023255814,86,33.66279069767442,157.25581395348837,171.0,-87.0,343.0,0
1723967429,18.5632283,73.8331583,507.19999999999993,19.25,86,33.66279069767442,157.25581395348837,171.0,-87.0,343.0,0
1723967430,18.5632283,73.8331583,507.19999999999993,19.36627906976744,86,33.66279069767442,157.25581395348837,171.0,-87.0,344.0,0
1723967431,18.5632283,73.8331583,507.19999999999993,19.345977011494252,87,33.793103448275865,159.27586206896552,172.0,-87.0,344.0,0
1723967432,18.5632283,73.8331583,507.19999999999993,18.793023255813953,86,33.651162790697676,157.25581395348837,171.0,-87.0,343.0,0
1723967433,18.5632283,73.8331583,507.19999999999993,18.99186046511628,86,33.651162790697676,157.25581395348837,171.0,-87.0,343.0,0
1723967434,18.5632283,73.8331583,507.19999999999993,19.288372093023256,86,33.651162790697676,157.25581395348837,158.0,-88.0,331.0,0
1723967435,18.5632283,73.8331583,507.19999999999993,19.848235294117647,85,33.35294117647059,156.3294117647059,0.0,-37.0,173.0,0
1723967436,18.5632283,73.8331583,507.19999999999993,20.775581395348837,86,33.325581395348834,155.46511627906978,-6.0,-43.0,167.0,0
1723967437,18.5632283,73.8331583,507.19999999999993,20.604819277108433,83,32.433734939759034,149.9879518072289,0.0,-33.0,174.0,0
1723967438,18.5632283,73.8331583,507.19999999999993,19.87093023255814,86,33.44186046511628,156.5581395348837,0.0,-33.0,174.0,0
1723967439,18.5632283,73.8331583,507.19999999999993,19.569767441860463,86,33.45348837209303,156.88372093023256,0.0,-33.0,174.0,0
1723967440,18.5632283,73.8331583,507.19999999999993,20.439080459770114,87,33.689655172413794,155.77011494252875,0.0,-33.0,174.0,0
1723967441,18.5632283,73.8331583,507.19999999999993,20.666666666666668,87,33.689655172413794,155.77011494252875,0.0,-33.0,174.0,0
1723967442,18.5632283,73.8331583,507.19999999999993,20.445977011494254,87,33.689655172413794,155.77011494252875,0.0,-33.0,174.0,0
1723967443,18.5632283,73.8331583,507.19999999999993,20.404597701149427,87,33.689655172413794,155.77011494252875,0.0,-33.0,174.0,0
1723967444,18.5632283,73.8331583,507.19999999999993,21.064367816091952,87,33.689655172413794,155.77011494252875,0.0,-33.0,174.0,0
1723967445,18.5632283,73.8331583,507.19999999999993,20.972413793103446,87,33.58620689655172,154.66666666666666,0.0,-33.0,174.0,0
1723967446,18.5632283,73.8331583,507.19999999999993,20.586206896551722,87,33.58620689655172,154.66666666666666,0.0,-33.0,174.0,0
1723967447,18.5632283,73.8331583,507.19999999999993,20.48965517241379,87,33.58620689655172,154.66666666666666,0.0,-33.0,173.0,0
1723967448,18.5632283,73.8331583,507.19999999999993,20.469767441860466,86,33.23255813953488,152.6627906976744,0.0,-33.0,173.0,0
1723967449,18.5632283,73.8331583,507.19999999999993,20.691860465116278,86,34.0,155.1046511627907,0.0,-33.0,173.0,0
1723967450,18.5632283,73.8331583,507.19999999999993,20.717441860465115,86,34.0,155.1046511627907,0.0,-33.0,173.0,0
1723967451,18.5632289,73.8331583,507.19999999999993,20.775581395348837,86,34.68604651162791,157.74418604651163,0.0,-32.0,173.0,0
1723967452,18.5632291,73.8331583,507.19999999999993,20.75581395348837,86,34.68604651162791,157.74418604651163,0.0,-33.0,173.0,0
1723967453,18.5632293,73.8331582,507.19999999999993,21.024137931034485,87,34.35632183908046,156.4022988505747,0.0,-33.0,173.0,0
1723967454,18.563229,73.8331585,507.19999999999993,21.327272727272728,88,34.69318181818182,158.3409090909091,0.0,-33.0,173.0,0
1723967455,18.5632292,73.8331584,507.19999999999993,21.428409090909092,88,34.69318181818182,158.3409090909091,0.0,-33.0,173.0,0
1723967456,18.5632295,73.8331588,507.19999999999993,18.269318181818182,88,35.35227272727273,159.82954545454547,0.0,-33.0,173.0,0
1723967457,18.5632289,73.8331588,507.19999999999993,20.37191011235955,89,35.247191011235955,161.7078651685393,0.0,-33.0,173.0,0
1723967458,18.5632293,73.833159,507.19999999999993,20.307865168539326,89,35.04494382022472,162.07865168539325,0.0,-33.0,173.0,0
1723967459,18.5632287,73.8331587,507.19999999999993,20.552808988764045,89,35.04494382022472,162.07865168539325,0.0,-33.0,173.0,0
1723967460,18.5632285,73.8331584,507.19999999999993,20.797752808988765,89,35.04494382022472,162.07865168539325,0.0,-33.0,173.0,0
1723967461,18.5632284,73.8331583,507.19999999999993,20.987640449438203,89,34.79775280898876,162.3370786516854,0.0,-33.0,173.0,0
1723967462,18.5632283,73.8331583,507.19999999999993,21.29550561797753,89,34.79775280898876,162.3370786516854,0.0,-33.0,173.0,0
1723967463,18.5632283,73.8331583,507.19999999999993,21.29887640449438,89,34.79775280898876,162.34831460674158,0.0,-33.0,173.0,0
1723967464,18.5632283,73.8331583,507.19999999999993,21.20112359550562,89,34.79775280898876,162.35955056179776,0.0,-33.0,173.0,0
1723967465,18.5632283,73.8331583,507.19999999999993,21.15505617977528,89,34.359550561797754,160.8988764044944,0.0,-33.0,173.0,0
1723967466,18.5632283,73.8331583,507.19999999999993,21.005555555555556,90,34.022222222222226,161.9777777777778,0.0,-33.0,173.0,0
1723967467,18.5632283,73.8331583,507.19999999999993,20.783333333333335,90,33.611111111111114,160.32222222222222,0.0,-33.0,173.0,0
1723967468,18.5632283,73.8331583,507.19999999999993,20.754444444444445,90,33.611111111111114,160.32222222222222,0.0,-33.0,173.0,0
1723967469,18.5632283,73.8331583,507.19999999999993,21.156666666666666,90,33.611111111111114,160.32222222222222,0.0,-33.0,173.0,0
1723967470,18.5632283,73.8331583,507.19999999999993,21.143333333333334,90,33.3,158.61111111111111,0.0,-33.0,173.0,0
1723967471,18.5632283,73.8331583,507.19999999999993,21.17666666666667,90,33.3,158.61111111111111,0.0,-33.0,173.0,0
1723967472,18.5632283,73.8331583,507.19999999999993,21.00111111111111,90,33.3,158.61111111111111,0.0,-33.0,173.0,0
1723967473,18.5632283,73.8331583,507.19999999999993,21.195555555555554,90,33.3,158.6,0.0,-33.0,173.0,0
1723967474,18.5632283,73.8331583,507.19999999999993,21.12,90,33.08888888888889,158.5888888888889,0.0,-33.0,173.0,0
1723967475,18.5632283,73.8331583,507.19999999999993,21.065555555555555,90,33.08888888888889,158.5888888888889,0.0,-33.0,173.0,0
1723967476,18.5632428,73.8331739,509.29999999999995,20.77032967032967,91,32.934065934065934,159.9010989010989,0.0,-33.0,173.0,0
1723967477,18.5632468,73.8331807,509.5,20.794505494505493,91,32.8021978021978,158.86813186813185,0.0,-33.0,173.0,0
1723967478,18.5632468,73.833185,509.5,20.986813186813187,91,32.79120879120879,158.82417582417582,0.0,-33.0,173.0,0
1723967479,18.5632455,73.8331874,509.6,20.831521739130434,92,32.391304347826086,157.31521739130434,0.0,-33.0,173.0,0
1723967480,18.5632451,73.8331869,509.6,21.032608695652176,92,32.391304347826086,157.31521739130434,0.0,-33.0,173.0,0
1723967481,18.5632463,73.8331891,509.79999999999995,21.02282608695652,92,32.391304347826086,157.31521739130434,0.0,-33.0,173.0,0
1723967482,18.5632466,73.8331898,509.69999999999993,20.705434782608698,92,32.391304347826086,157.31521739130434,0.0,-33.0,174.0,0
1723967483,18.5632491,73.8331912,509.79999999999995,18.754347826086956,92,32.391304347826086,157.31521739130434,0.0,-33.0,174.0,0
1723967484,18.5632497,73.8331927,509.9,19.79891304347826,92,32.391304347826086,157.31521739130434,0.0,-33.0,173.0,0
1723967485,18.5632512,73.833192,509.9,20.39673913043478,92,32.391304347826086,157.31521739130434,0.0,-33.0,174.0,0
1723967486,18.5632527,73.8331918,510.19999999999993,20.726086956521737,92,32.391304347826086,157.31521739130434,0.0,-33.0,173.0,0
1723967487,18.5632544,73.8331905,509.9,20.604347826086954,92,32.391304347826086,157.31521739130434,0.0,-33.0,173.0,0
1723967488,18.5632548,73.8331901,509.9,20.597826086956523,92,32.391304347826086,157.31521739130434,0.0,-33.0,174.0,0
1723967489,18.563255,73.83319,509.9,20.661956521739132,92,32.391304347826086,157.31521739130434,0.0,-33.0,173.0,0
1723967490,18.563255,73.83319,509.9,20.56304347826087,92,32.391304347826086,157.30434782608697,0.0,-33.0,173.0,0
1723967491,18.563255,73.83319,509.9,20.65,92,32.391304347826086,157.29347826086956,0.0,-33.0,174.0,0
1723967492,18.563255,73.83319,509.9,20.569565217391304,92,32.40217391304348,157.30434782608697,0.0,-33.0,173.0,0
1723967493,18.563255,73.83319,509.9,20.66304347826087,92,32.41304347826087,157.30434782608697,0.0,-33.0,174.0,0
1723967494,18.563255,73.83319,509.9,20.78021978021978,91,32.7032967032967,157.43956043956044,0.0,-33.0,173.0,0
1723967495,18.563255,73.83319,509.9,20.71630434782609,92,32.40217391304348,157.30434782608697,0.0,-33.0,173.0,0
1723967496,18.563255,73.83319,509.9,20.653260869565216,92,32.41304347826087,157.30434782608697,0.0,-33.0,173.0,0
1723967497,18.563255,73.83319,509.9,20.968131868131866,91,33.43956043956044,159.75824175824175,0.0,-33.0,173.0,0
1723967498,18.563255,73.83319,509.9,21.27252747252747,91,33.43956043956044,159.75824175824175,0.0,-33.0,173.0,0
1723967499,18.563255,73.83319,509.9,21.35604395604396,91,33.43956043956044,159.75824175824175,0.0,-33.0,173.0,0
1723967500,18.563255,73.83319,509.9,21.42087912087912,91,34.08791208791209,162.24175824175825,0.0,-33.0,173.0,0
1723967501,18.563255,73.83319,509.9,21.373626373626372,91,34.08791208791209,162.24175824175825,0.0,-33.0,173.0,0
1723967502,18.563255,73.83319,509.9,21.752747252747252,91,34.72527472527472,163.6813186813187,0.0,-33.0,173.0,0
1723967503,18.563255,73.83319,509.9,21.751648351648353,91,34.72527472527472,163.7032967032967,0.0,-33.0,174.0,0
1723967504,18.563255,73.83319,509.9,21.801098901098904,91,34.72527472527472,163.7032967032967,0.0,-33.0,174.0,0
1723967505,18.563255,73.83319,509.9,21.845054945054947,91,34.72527472527472,163.72527472527472,0.0,-33.0,174.0,0
1723967506,18.563255,73.83319,509.9,21.826373626373627,91,34.527472527472526,164.1098901098901,0.0,-33.0,173.0,0
1723967507,18.563255,73.83319,509.9,21.89010989010989,91,34.527472527472526,164.1098901098901,0.0,-33.0,174.0,0
1723967508,18.563255,73.83319,509.9,21.709890109890107,91,34.527472527472526,164.1098901098901,0.0,-33.0,173.0,0
1723967509,18.563255,73.83319,509.9,21.73076923076923,91,34.285714285714285,164.36263736263737,0.0,-33.0,174.0,0
1723967510,18.563255,73.83319,509.9,21.69010989010989,91,34.285714285714285,164.36263736263737,0.0,-33.0,173.0,0
1723967511,18.563255,73.83319,509.9,21.763736263736263,91,34.285714285714285,164.36263736263737,0.0,-33.0,174.0,0
1723967512,18.563255,73.83319,509.9,21.5978021978022,91,33.857142857142854,162.92307692307693,0.0,-33.0,174.0,0
1723967513,18.563255,73.83319,509.9,21.55934065934066,91,33.83516483516483,162.92307692307693,0.0,-33.0,173.0,0
1723967514,18.563255,73.83319,509.9,21.569230769230767,91,33.83516483516483,162.92307692307693,0.0,-33.0,173.0,0
1723967515,18.563255,73.83319,509.9,21.552747252747253,91,33.42857142857143,161.28571428571428,0.0,-33.0,173.0,0
1723967516,18.563255,73.83319,509.9,21.594444444444445,90,33.43333333333333,162.44444444444446,0.0,-33.0,173.0,0
1723967517,18.563255,73.83319,509.9,21.58888888888889,90,33.43333333333333,162.44444444444446,0.0,-33.0,173.0,0
1723967518,18.563255,73.83319,509.9,21.6,90,33.12222222222222,160.73333333333332,0.0,-33.0,173.0,0
1723967519,18.563255,73.83319,509.9,21.605555555555554,90,33.111111111111114,160.72222222222223,0.0,-33.0,173.0,0
1723967520,18.563255,73.83319,509.9,21.547777777777778,90,33.12222222222222,160.7111111111111,0.0,-33.0,174.0,0
1723967521,18.563255,73.83319,509.9,21.644444444444446,90,33.644444444444446,163.04444444444445,0.0,-33.0,173.0,0
1723967522,18.563255,73.83319,509.9,21.471111111111114,90,33.644444444444446,163.06666666666666,0.0,-33.0,173.0,0
1723967523,18.563255,73.83319,509.9,21.45888888888889,90,33.644444444444446,163.04444444444445,0.0,-33.0,173.0,0
1723967524,18.563255,73.83319,509.9,21.656666666666666,90,33.644444444444446,163.04444444444445,0.0,-33.0,173.0,0
1723967525,18.563255,73.83319,509.9,21.68901098901099,91,34.16483516483517,163.34065934065933,0.0,-33.0,174.0,0
1723967526,18.563255,73.83319,509.9,21.723076923076924,91,34.16483516483517,163.34065934065933,0.0,-33.0,173.0,0
1723967527,18.563255,73.83319,509.9,21.614285714285714,91,34.16483516483517,163.34065934065933,0.0,-33.0,173.0,0
1723967528,18.563255,73.83319,509.9,21.64395604395604,91,34.7032967032967,163.71428571428572,0.0,-33.0,174.0,0
1723967529,18.563255,73.83319,509.9,21.685714285714287,91,34.714285714285715,163.7032967032967,0.0,-33.0,173.0,0
1723967530,18.563255,73.83319,509.9,21.786813186813188,91,34.51648351648352,164.05494505494505,0.0,-33.0,173.0,0
1723967531,18.563255,73.83319,509.9,21.66043956043956,91,34.51648351648352,164.05494505494505,0.0,-33.0,174.0,0
1723967532,18.563255,73.83319,509.9,21.523913043478263,92,34.18478260869565,163.8586956521739,0.0,-33.0,174.0,0
1723967533,18.563255,73.83319,509.9,21.78021978021978,91,34.1978021978022,165.03296703296704,0.0,-33.0,173.0,0
1723967534,18.563255,73.83319,509.9,21.670652173913044,92,33.94565217391305,164.1086956521739,0.0,-33.0,174.0,0
1723967535,18.563255,73.83319,509.9,21.721739130434784,92,33.94565217391305,164.1086956521739,0.0,-33.0,173.0,0
1723967536,18.563255,73.83319,509.9,21.67391304347826,92,33.94565217391305,164.1086956521739,0.0,-33.0,173.0,0
1723967537,18.563255,73.83319,509.9,21.542391304347827,92,33.52173913043478,162.68478260869566,0.0,-33.0,173.0,0
1723967538,18.563255,73.83319,509.9,21.521978021978022,91,33.84615384615385,163.1868131868132,0.0,-33.0,174.0,0
1723967539,18.563255,73.83319,509.9,21.569230769230767,91,33.43956043956044,161.54945054945054,0.0,-33.0,173.0,0
1723967540,18.563255,73.83319,509.9,21.459340659340658,91,33.43956043956044,161.53846153846155,0.0,-33.0,173.0,0
1723967541,18.563255,73.83319,509.9,21.47142857142857,91,33.43956043956044,161.53846153846155,0.0,-33.0,173.0,0
1723967542,18.563255,73.83319,509.9,21.2,91,32.120879120879124,155.53846153846155,0.0,-33.0,174.0,0
1723967543,18.563255,73.83319,509.9,21.24615384615385,91,33.13186813186813,159.8901098901099,0.0,-33.0,173.0,0
1723967544,18.563255,73.83319,509.9,21.336263736263735,91,33.13186813186813,159.8901098901099,0.0,-33.0,173.0,0
1723967545,18.563255,73.83319,509.9,21.5032967032967,91,33.13186813186813,159.8901098901099,0.0,-33.0,173.0,0
1723967546,18.563255,73.83319,509.9,21.647252747252747,91,32.92307692307692,159.8901098901099,0.0,-33.0,173.0,0
1723967547,18.563255,73.83319,509.9,21.695604395604395,91,32.92307692307692,159.8901098901099,0.0,-33.0,173.0,0
1723967548,18.563255,73.83319,509.9,21.69120879120879,91,32.92307692307692,159.8901098901099,0.0,-33.0,173.0,0
1723967549,18.563255,73.83319,509.9,21.68021978021978,91,32.8021978021978,158.85714285714286,0.0,-33.0,173.0,0
1723967550,18.563255,73.83319,509.9,21.661538461538463,91,32.8021978021978,158.85714285714286,0.0,-33.0,173.0,0
1723967551,18.563255,73.83319,509.9,21.81098901098901,91,32.8021978021978,158.85714285714286,0.0,-33.0,174.0,0
1723967552,18.563255,73.83319,509.9,21.723076923076924,91,32.8021978021978,158.86813186813185,0.0,-33.0,174.0,0
1723967553,18.563255,73.83319,509.9,21.694505494505496,91,32.7032967032967,157.8131868131868,0.0,-33.0,174.0,0
1723967554,18.563255,73.83319,509.9,21.807692307692307,91,32.7032967032967,157.8131868131868,0.0,-33.0,173.0,0
1723967555,18.563255,73.83319,509.9,21.87032967032967,91,32.7032967032967,157.8131868131868,0.0,-33.0,174.0,0
1723967556,18.563255,73.83319,509.9,21.78131868131868,91,32.69230769230769,157.82417582417582,0.0,-33.0,174.0,0
1723967557,18.563255,73.83319,509.9,21.805494505494504,91,32.69230769230769,157.82417582417582,0.0,-33.0,173.0,0
1723967558,18.563255,73.83319,509.9,21.82857142857143,91,32.69230769230769,157.82417582417582,0.0,-33.0,174.0,0
1723967559,18.563255,73.83319,509.9,22.020879120879123,91,33.417582417582416,160.13186813186815,0.0,-33.0,173.0,0
1723967560,18.563255,73.83319,509.9,21.82087912087912,91,33.417582417582416,160.13186813186815,0.0,-33.0,173.0,0
1723967561,18.563255,73.83319,509.9,21.73956043956044,91,33.417582417582416,160.13186813186815,0.0,-33.0,174.0,0
1723967562,18.563255,73.83319,509.9,21.692307692307693,91,34.065934065934066,162.62637362637363,0.0,-33.0,173.0,0
1723967563,18.563255,73.83319,509.9,21.791208791208792,91,34.065934065934066,162.62637362637363,0.0,-33.0,174.0,0
1723967564,18.563255,73.83319,509.9,21.71098901098901,91,34.065934065934066,162.62637362637363,0.0,-33.0,173.0,0
1723967565,18.563255,73.83319,509.9,21.67912087912088,91,34.065934065934066,162.62637362637363,0.0,-33.0,173.0,0
1723967566,18.563255,73.83319,509.9,21.582417582417584,91,34.7032967032967,164.06593406593407,0.0,-33.0,173.0,0
1723967567,18.563255,73.83319,509.9,21.646153846153847,91,34.7032967032967,164.06593406593407,0.0,-33.0,173.0,0
1723967568,18.563255,73.83319,509.9,21.693406593406593,91,34.7032967032967,164.06593406593407,0.0,-33.0,174.0,0
1723967569,18.563255,73.83319,509.9,21.696703296703298,91,34.505494505494504,164.4065934065934,0.0,-33.0,173.0,0
1723967570,18.563255,73.83319,509.9,21.62857142857143,91,34.505494505494504,164.4065934065934,0.0,-33.0,173.0,0
1723967571,18.563255,73.83319,509.9,21.59120879120879,91,34.26373626373626,164.7032967032967,0.0,-33.0,173.0,0
1723967572,18.563255,73.83319,509.9,21.57608695652174,92,33.93478260869565,164.18478260869566,0.0,-33.0,174.0,0
1723967573,18.563255,73.83319,509.9,21.65,92,33.93478260869565,164.18478260869566,0.0,-33.0,173.0,0
1723967574,18.563255,73.83319,509.9,21.58695652173913,92,33.93478260869565,164.18478260869566,0.0,-33.0,173.0,0
1723967575,18.563255,73.83319,509.9,21.557608695652174,92,33.93478260869565,164.18478260869566,0.0,-33.0,173.0,0
1723967576,18.563255,73.83319,509.9,21.607608695652175,92,33.51086956521739,162.7608695652174,0.0,-33.0,173.0,0
1723967577,18.563255,73.83319,509.9,21.536956521739132,92,33.51086956521739,162.7608695652174,0.0,-33.0,173.0,0
1723967578,18.563255,73.83319,509.9,21.615384615384617,91,33.83516483516483,163.26373626373626,0.0,-33.0,173.0,0
1723967579,18.563255,73.83319,509.9,21.562637362637364,91,33.40659340659341,161.64835164835165,0.0,-33.0,173.0,0
1723967580,18.563255,73.83319,509.9,21.604347826086954,92,33.08695652173913,161.16304347826087,0.0,-33.0,173.0,0
1723967581,18.563255,73.83319,509.9,21.48913043478261,92,32.78260869565217,159.4891304347826,0.0,-33.0,173.0,0
1723967582,18.563255,73.83319,509.9,21.52282608695652,92,31.48913043478261,153.5108695652174,0.0,-33.0,173.0,0
1723967583,18.563255,73.83319,509.9,21.593478260869563,92,32.79347826086956,159.4891304347826,0.0,-33.0,173.0,0
1723967584,18.563255,73.83319,509.9,21.541304347826088,92,32.79347826086956,159.5326086956522,0.0,-33.0,173.0,0
1723967585,18.563255,73.83319,509.9,21.54891304347826,92,32.56521739130435,159.5108695652174,0.0,-33.0,173.0,0
1723967586,18.563255,73.83319,509.9,21.668478260869566,92,32.56521739130435,159.4891304347826,0.0,-33.0,174.0,0
1723967587,18.563255,73.83319,509.9,21.74891304347826,92,32.56521739130435,159.47826086956522,0.0,-33.0,173.0,0
1723967588,18.563255,73.83319,509.9,21.673626373626373,91,32.43956043956044,157.35164835164835,0.0,-33.0,174.0,0
1723967589,18.563255,73.83319,509.9,21.571739130434782,92,32.43478260869565,158.41304347826087,0.0,-33.0,173.0,0
1723967590,18.563255,73.83319,509.9,21.74021739130435,92,32.33695652173913,157.3695652173913,0.0,-33.0,173.0,0
1723967591,18.563255,73.83319,509.9,21.68586956521739,92,32.33695652173913,157.3695652173913,0.0,-33.0,174.0,0
1723967592,18.563255,73.83319,509.9,21.753260869565217,92,31.043478260869566,151.3804347826087,0.0,-33.0,174.0,0
1723967593,18.563255,73.83319,509.9,21.67391304347826,92,32.32608695652174,157.42391304347825,0.0,-33.0,173.0,0
1723967594,18.563255,73.83319,509.9,21.754347826086956,92,32.32608695652174,157.42391304347825,0.0,-33.0,173.0,0
1723967595,18.563255,73.83319,509.9,21.838043478260868,92,32.32608695652174,157.42391304347825,0.0,-33.0,173.0,0
1723967596,18.563255,73.83319,509.9,21.80217391304348,92,32.32608695652174,157.42391304347825,0.0,-33.0,174.0,0
1723967597,18.563255,73.83319,509.9,21.61413043478261,92,32.32608695652174,157.42391304347825,0.0,-33.0,173.0,0
1723967598,18.563255,73.83319,509.9,21.69891304347826,92,32.32608695652174,157.42391304347825,0.0,-33.0,173.0,0
1723967599,18.563255,73.83319,509.9,21.669565217391302,92,32.32608695652174,157.42391304347825,0.0,-33.0,173.0,0
1723967600,18.563255,73.83319,509.9,21.681521739130435,92,32.33695652173913,157.40217391304347,0.0,-33.0,174.0,0
1723967601,18.563255,73.83319,509.9,21.63695652173913,92,32.33695652173913,157.40217391304347,0.0,-33.0,173.0,0
1723967602,18.563255,73.83319,509.9,21.796739130434784,92,32.33695652173913,157.40217391304347,0.0,-33.0,173.0,0
1723967603,18.563255,73.83319,509.9,21.661956521739132,92,32.33695652173913,157.40217391304347,0.0,-33.0,173.0,0
1723967604,18.563255,73.83319,509.9,21.84130434782609,92,32.33695652173913,157.40217391304347,0.0,-33.0,174.0,0
1723967605,18.563255,73.83319,509.9,21.879347826086956,92,32.33695652173913,157.40217391304347,0.0,-33.0,173.0,0
1723967606,18.563255,73.83319,509.9,21.76086956521739,92,32.33695652173913,157.40217391304347,0.0,-33.0,174.0,0
1723967607,18.563255,73.83319,509.9,21.997826086956522,92,32.31521739130435,157.40217391304347,0.0,-33.0,174.0,0
1723967608,18.563255,73.83319,509.9,22.22391304347826,92,33.03260869565217,159.69565217391303,0.0,-33.0,173.0,0
1723967609,18.563255,73.83319,509.9,22.22065217391304,92,33.03260869565217,159.69565217391303,0.0,-33.0,173.0,0
1723967610,18.563255,73.83319,509.9,21.89782608695652,92,33.67391304347826,162.16304347826087,0.0,-33.0,173.0,0
1723967611,18.563255,73.83319,509.9,21.847826086956523,92,33.67391304347826,162.16304347826087,0.0,-33.0,173.0,0
1723967612,18.563255,73.83319,509.9,21.66086956521739,92,33.67391304347826,162.16304347826087,0.0,-33.0,173.0,0
1723967613,18.563255,73.83319,509.9,21.682608695652174,92,34.28260869565217,163.6086956521739,0.0,-33.0,173.0,0
1723967614,18.563255,73.83319,509.9,21.932608695652174,92,34.28260869565217,163.6086956521739,0.0,-33.0,174.0,0
1723967615,18.563255,73.83319,509.9,22.14021739130435,92,34.28260869565217,163.6086956521739,0.0,-33.0,173.0,0
1723967616,18.563255,73.83319,509.9,22.161956521739132,92,34.28260869565217,163.6086956521739,0.0,-33.0,173.0,0
1723967617,18.563255,73.83319,509.9,22.217391304347824,92,34.08695652173913,163.9673913043478,0.0,-33.0,174.0,0
1723967618,18.563255,73.83319,509.9,21.918478260869566,92,34.08695652173913,163.9673913043478,0.0,-33.0,173.0,0
1723967619,18.563255,73.83319,509.9,21.854347826086954,92,33.84782608695652,164.22826086956522,0.0,-33.0,174.0,0
1723967620,18.563255,73.83319,509.9,22.034065934065932,91,33.879120879120876,163.23076923076923,0.0,-33.0,173.0,0
1723967621,18.563255,73.83319,509.9,22.09120879120879,91,33.879120879120876,163.21978021978023,0.0,-33.0,173.0,0
1723967622,18.563255,73.83319,509.9,22.076923076923077,91,33.45054945054945,161.78021978021977,0.0,-33.0,174.0,0
1723967623,18.563255,73.83319,509.9,22.01521739130435,92,33.42391304347826,162.79347826086956,0.0,-33.0,174.0,0
1723967624,18.563255,73.83319,509.9,22.055434782608696,92,33.42391304347826,162.79347826086956,0.0,-33.0,174.0,0
1723967625,18.563255,73.83319,509.9,21.965217391304346,92,33.42391304347826,162.79347826086956,0.0,-33.0,173.0,0
1723967626,18.563255,73.83319,509.9,22.164130434782606,92,33.04347826086956,161.17391304347825,0.0,-33.0,173.0,0
1723967627,18.563255,73.83319,509.9,21.99021739130435,92,33.06521739130435,161.15217391304347,0.0,-33.0,174.0,0
1723967628,18.563255,73.83319,509.9,21.980434782608697,92,32.76086956521739,159.47826086956522,0.0,-33.0,173.0,0
1723967629,18.563255,73.83319,509.9,21.9,92,32.76086956521739,159.5,0.0,-33.0,174.0,0
1723967630,18.563255,73.83319,509.9,21.84130434782609,92,32.76086956521739,159.5,0.0,-33.0,173.0,0
1723967631,18.563255,73.83319,509.9,21.87391304347826,92,33.27173913043478,161.7826086956522,0.0,-33.0,173.0,0
1723967632,18.563255,73.83319,509.9,21.968478260869563,92,33.27173913043478,161.7826086956522,0.0,-33.0,173.0,0
1723967633,18.563255,73.83319,509.9,22.016304347826086,92,33.29347826086956,161.7826086956522,0.0,-33.0,173.0,0
1723967634,18.563255,73.83319,509.9,22.05,92,33.29347826086956,161.7826086956522,0.0,-33.0,173.0,0
1723967635,18.563255,73.83319,509.9,22.21413043478261,92,33.81521739130435,163.22826086956522,0.0,-33.0,173.0,0
1723967636,18.563255,73.83319,509.9,22.067391304347826,92,33.81521739130435,163.22826086956522,0.0,-33.0,174.0,0
1723967637,18.563255,73.83319,509.9,22.045652173913044,92,34.34782608695652,163.6086956521739,0.0,-33.0,174.0,0
1723967638,18.563255,73.83319,509.9,22.094565217391306,92,34.34782608695652,163.6086956521739,0.0,-33.0,173.0,0
1723967639,18.563255,73.83319,509.9,22.282417582417583,91,34.37362637362637,162.6153846153846,0.0,-33.0,174.0,0
1723967640,18.563255,73.83319,509.9,22.20769230769231,91,34.175824175824175,163.0,0.0,-33.0,173.0,0
1723967641,18.563255,73.83319,509.9,22.28901098901099,91,34.175824175824175,163.01098901098902,0.0,-33.0,173.0,0
1723967642,18.563255,73.83319,509.9,22.453333333333333,90,33.077777777777776,155.17777777777778,0.0,-33.0,174.0,0
1723967643,18.563255,73.83319,509.9,22.452747252747255,91,34.37362637362637,162.34065934065933,0.0,-33.0,173.0,0
1723967644,18.563255,73.83319,509.9,22.087777777777777,90,34.166666666666664,161.56666666666666,0.0,-33.0,173.0,0
1723967645,18.563255,73.83319,509.9,22.186666666666667,90,34.166666666666664,161.56666666666666,0.0,-33.0,173.0,0
1723967646,18.563255,73.83319,509.9,22.258888888888887,90,33.733333333333334,160.11111111111111,0.0,-33.0,173.0,0
1723967647,18.563255,73.83319,509.9,21.636666666666667,90,33.733333333333334,160.11111111111111,0.0,-33.0,174.0,0
1723967648,18.563255,73.83319,509.9,21.894444444444446,90,33.733333333333334,160.11111111111111,0.0,-33.0,174.0,0
1723967649,18.563255,73.83319,509.9,22.27,90,33.733333333333334,160.1,0.0,-33.0,173.0,0
1723967650,18.563255,73.83319,509.9,22.317777777777778,90,33.333333333333336,158.43333333333334,0.0,-33.0,174.0,0
1723967651,18.563255,73.83319,509.9,22.357777777777777,90,33.333333333333336,158.43333333333334,0.0,-33.0,174.0,0
1723967652,18.563255,73.83319,509.9,22.17888888888889,90,33.333333333333336,158.43333333333334,0.0,-33.0,174.0,0
1723967653,18.563255,73.83319,509.9,22.18111111111111,90,33.0,156.73333333333332,0.0,-33.0,174.0,0
1723967654,18.563255,73.83319,509.9,22.21222222222222,90,32.98888888888889,156.66666666666666,0.0,-33.0,174.0,0
1723967655,18.563255,73.83319,509.9,21.98,90,32.78888888888889,156.65555555555557,0.0,-33.0,174.0,0
1723967656,18.563255,73.83319,509.9,21.865555555555556,90,32.78888888888889,156.65555555555557,0.0,-33.0,174.0,0
1723967657,18.563255,73.83319,509.9,21.914444444444445,90,32.78888888888889,156.65555555555557,0.0,-33.0,174.0,0
1723967658,18.563255,73.83319,509.9,22.163333333333334,90,32.78888888888889,156.65555555555557,0.0,-33.0,174.0,0
1723967659,18.563255,73.83319,509.9,22.16111111111111,90,32.666666666666664,155.61111111111111,0.0,-33.0,174.0,0
1723967660,18.563255,73.83319,509.9,22.27777777777778,90,32.666666666666664,155.61111111111111,0.0,-33.0,174.0,0
1723967661,18.563255,73.83319,509.9,22.274444444444445,90,32.666666666666664,155.61111111111111,0.0,-33.0,174.0,0
1723967662,18.563255,73.83319,509.9,22.226666666666667,90,32.56666666666667,154.54444444444445,0.0,-33.0,174.0,0
1723967663,18.563255,73.83319,509.9,22.29,90,32.56666666666667,154.54444444444445,0.0,-33.0,174.0,0
1723967664,18.563255,73.83319,509.9,22.272222222222222,90,32.56666666666667,154.54444444444445,0.0,-33.0,174.0,0
1723967665,18.563255,73.83319,509.9,22.414444444444445,90,32.56666666666667,154.54444444444445,0.0,-33.0,173.0,0
1723967666,18.563255,73.83319,509.9,22.637777777777778,90,32.56666666666667,154.5222222222222,0.0,-33.0,174.0,0
1723967667,18.563255,73.83319,509.9,22.57111111111111,90,32.56666666666667,154.5222222222222,0.0,-33.0,174.0,0
1723967668,18.563255,73.83319,509.9,22.824444444444442,90,33.3,156.85555555555555,0.0,-33.0,174.0,0
1723967669,18.563255,73.83319,509.9,22.904444444444444,90,33.3,156.84444444444443,0.0,-33.0,174.0,0
1723967670,18.563255,73.83319,509.9,22.825555555555557,90,33.3,156.83333333333334,0.0,-33.0,174.0,0
1723967671,18.563255,73.83319,509.9,22.732222222222223,90,33.955555555555556,159.35555555555555,0.0,-33.0,174.0,0
1723967672,18.563255,73.83319,509.9,22.66,90,33.955555555555556,159.34444444444443,0.0,-33.0,174.0,0
1723967673,18.563255,73.83319,509.9,22.763333333333332,90,34.6,160.8111111111111,0.0,-33.0,174.0,0
1723967674,18.563255,73.83319,509.9,22.574444444444445,90,34.6,160.8111111111111,0.0,-33.0,174.0,0
1723967675,18.563255,73.83319,509.9,22.522222222222222,90,34.6,160.8111111111111,0.0,-33.0,174.0,0
1723967676,18.563255,73.83319,509.9,22.497777777777777,90,34.611111111111114,160.8,0.0,-33.0,174.0,0
1723967677,18.563255,73.83319,509.9,22.336666666666666,90,34.611111111111114,160.8,0.0,-33.0,174.0,0
1723967678,18.563255,73.83319,509.9,22.34777777777778,90,34.41111111111111,161.16666666666666,0.0,-33.0,174.0,0
1723967679,18.563255,73.83319,509.9,22.40222222222222,90,34.388888888888886,161.1888888888889,0.0,-33.0,174.0,0
1723967680,18.563255,73.83319,509.9,22.459340659340658,91,34.02197802197802,159.9010989010989,0.0,-33.0,174.0,0
1723967681,18.563255,73.83319,509.9,22.47142857142857,91,33.78021978021978,160.17582417582418,0.0,-33.0,174.0,0
1723967682,18.563255,73.83319,509.9,22.464835164835165,91,33.35164835164835,158.78021978021977,0.0,-33.0,174.0,0
1723967683,18.563255,73.83319,509.9,22.45434782608696,92,33.32608695652174,159.82608695652175,0.0,-33.0,174.0,0
1723967684,18.563255,73.83319,509.9,22.51195652173913,92,33.32608695652174,159.82608695652175,0.0,-33.0,174.0,0
1723967685,18.563255,73.83319,509.9,22.406521739130437,92,33.32608695652174,159.82608695652175,0.0,-33.0,174.0,0
1723967686,18.563255,73.83319,509.9,22.507608695652173,92,33.32608695652174,159.82608695652175,0.0,-33.0,174.0,0
1723967687,18.563255,73.83319,509.9,21.96195652173913,92,32.92391304347826,158.20652173913044,0.0,-33.0,174.0,0
1723967688,18.563255,73.83319,509.9,22.106521739130436,92,32.92391304347826,158.20652173913044,0.0,-33.0,173.0,0
1723967689,18.563255,73.83319,509.9,21.942391304347826,92,32.90217391304348,158.20652173913044,0.0,-33.0,173.0,0
1723967690,18.563255,73.83319,509.9,22.124444444444446,90,32.96666666666667,156.6888888888889,0.0,-33.0,173.0,0
1723967691,18.563255,73.83319,509.9,22.26067415730337,89,32.26966292134831,154.46067415730337,0.0,-33.0,173.0,0
1723967692,18.563255,73.83319,509.9,22.077528089887643,89,32.26966292134831,154.46067415730337,0.0,-33.0,173.0,0
1723967693,18.563255,73.83319,509.9,22.026966292134833,89,32.26966292134831,154.46067415730337,0.0,-33.0,173.0,0
1723967694,18.563255,73.83319,509.9,22.041573033707866,89,32.26966292134831,154.46067415730337,0.0,-32.0,173.0,0
1723967695,18.563255,73.83319,509.9,21.831460674157302,89,32.258426966292134,154.43820224719101,0.0,-33.0,173.0,0
1723967696,18.563255,73.83319,509.9,21.82134831460674,89,32.258426966292134,154.42696629213484,0.0,-33.0,174.0,0
1723967697,18.563255,73.83319,509.9,21.182022471910113,89,32.13483146067416,153.37078651685394,0.0,-33.0,173.0,0
1723967698,18.563255,73.83319,509.9,21.321590909090908,88,32.5,155.13636363636363,0.0,-32.0,174.0,0
1723967699,18.563255,73.83319,509.9,21.636363636363637,88,32.5,155.11363636363637,0.0,-33.0,174.0,0
1723967700,18.563255,73.83319,509.9,21.56179775280899,89,32.8876404494382,156.2808988764045,0.0,-33.0,174.0,0
1723967701,18.563255,73.83319,509.9,21.79,90,32.522222222222226,154.54444444444445,0.0,-33.0,174.0,0
1723967702,18.563255,73.83319,509.9,21.745555555555555,90,32.522222222222226,154.54444444444445,0.0,-33.0,174.0,0
1723967703,18.563255,73.83319,509.9,21.905555555555555,90,32.522222222222226,154.54444444444445,0.0,-33.0,174.0,0
1723967704,18.563255,73.83319,509.9,21.93,90,32.53333333333333,154.53333333333333,0.0,-33.0,174.0,0
1723967705,18.563255,73.83319,509.9,21.85111111111111,90,32.544444444444444,154.53333333333333,0.0,-33.0,174.0,0
1723967706,18.563255,73.83319,509.9,21.73,90,32.544444444444444,154.5222222222222,0.0,-33.0,174.0,0
1723967707,18.563255,73.83319,509.9,21.554444444444446,90,32.544444444444444,154.5222222222222,0.0,-33.0,174.0,0
1723967708,18.563255,73.83319,509.9,21.252747252747252,91,32.527472527472526,155.62637362637363,0.0,-33.0,174.0,0
1723967709,18.563255,73.83319,509.9,21.423076923076923,91,32.527472527472526,155.62637362637363,0.0,-33.0,174.0,0
1723967710,18.563255,73.83319,509.9,21.237362637362637,91,32.527472527472526,155.62637362637363,0.0,-33.0,174.0,0
1723967711,18.563255,73.83319,509.9,21.52,90,32.58888888888889,153.72222222222223,0.0,-33.0,174.0,0
1723967712,18.563255,73.83319,509.9,21.63370786516854,89,32.10112359550562,151.46067415730337,0.0,-33.0,174.0,0
1723967713,18.563255,73.83319,509.9,21.358426966292136,89,32.10112359550562,151.46067415730337,0.0,-33.0,174.0,0
1723967714,18.563255,73.83319,509.9,21.42359550561798,89,32.10112359550562,151.46067415730337,0.0,-33.0,173.0,0
1723967715,18.563255,73.83319,509.9,21.335955056179778,89,32.10112359550562,151.46067415730337,0.0,-33.0,174.0,0
1723967716,18.563255,73.83319,509.9,21.51011235955056,89,32.1123595505618,151.4494382022472,0.0,-32.0,173.0,0
1723967717,18.563255,73.83319,509.9,21.302272727272726,88,32.125,150.27272727272728,0.0,-33.0,173.0,0
1723967718,18.563255,73.83319,509.9,21.09318181818182,88,33.73863636363637,156.6931818181818,0.0,-33.0,174.0,0
1723967719,18.563255,73.83319,509.9,21.47011494252874,87,33.252873563218394,154.41379310344828,0.0,-33.0,174.0,0
1723967720,18.563255,73.83319,509.9,21.39659090909091,88,33.54545454545455,155.23863636363637,0.0,-33.0,174.0,0
1723967721,18.563255,73.83319,509.9,21.1123595505618,89,33.51685393258427,156.35955056179776,0.0,-33.0,174.0,0
1723967722,18.563255,73.83319,509.9,21.405494505494506,91,34.26373626373626,158.74725274725276,0.0,-32.0,174.0,0
1723967723,18.563255,73.83319,509.9,21.813186813186814,91,34.26373626373626,158.74725274725276,0.0,-32.0,173.0,0
1723967724,18.563255,73.83319,509.9,21.35054945054945,91,34.26373626373626,158.74725274725276,0.0,-33.0,173.0,0
1723967725,18.563255,73.83319,509.9,21.62087912087912,91,34.26373626373626,158.74725274725276,0.0,-32.0,173.0,0
1723967726,18.563255,73.83319,509.9,18.157777777777778,90,34.644444444444446,160.51111111111112,0.0,-32.0,173.0,0
1723967727,18.563255,73.83319,509.9,20.38111111111111,90,34.44444444444444,160.86666666666667,0.0,-32.0,173.0,0
1723967728,18.563255,73.83319,509.9,21.025555555555556,90,34.43333333333333,160.37777777777777,0.0,-33.0,174.0,0
1723967729,18.563255,73.83319,509.9,21.51,90,34.18888888888889,160.63333333333333,0.0,-32.0,174.0,0
1723967730,18.563255,73.83319,509.9,21.8978021978022,91,33.824175824175825,159.35164835164835,0.0,-32.0,174.0,0
1723967731,18.563255,73.83319,509.9,22.286813186813188,91,33.824175824175825,159.35164835164835,0.0,-33.0,174.0,0
1723967732,18.563255,73.83319,509.9,22.058241758241756,91,33.395604395604394,157.9120879120879,0.0,-33.0,174.0,0
1723967733,18.563255,73.83319,509.9,22.14065934065934,91,33.395604395604394,157.9120879120879,0.0,-33.0,174.0,0
1723967734,18.563255,73.83319,509.9,21.83076923076923,91,33.395604395604394,157.9120879120879,0.0,-58.0,175.0,0
1723967735,18.563255,73.83319,509.9,21.97888888888889,90,33.75555555555555,159.17777777777778,-1.0,-70.0,180.0,0
1723967736,18.563255,73.83319,509.9,21.427777777777777,90,33.75555555555555,159.17777777777778,140.0,-88.0,320.0,0
1723967737,18.563255,73.83319,509.9,21.693258426966292,89,33.50561797752809,156.14606741573033,-26.0,-86.0,152.0,0
1723967738,18.563255,73.83319,509.9,21.683333333333334,90,33.03333333333333,155.8111111111111,-7.0,-85.0,170.0,0
1723967739,18.563255,73.83319,509.9,21.34111111111111,90,33.03333333333333,155.8111111111111,-6.0,-84.0,172.0,0
1723967740,18.563255,73.83319,509.9,21.017777777777777,90,33.03333333333333,155.8111111111111,-8.0,-84.0,170.0,0
1723967741,18.563255,73.83319,509.9,20.934831460674157,89,33.056179775280896,156.61797752808988,-7.0,-84.0,170.0,0
1723967742,18.563255,73.83319,509.9,21.211111111111112,90,32.51111111111111,153.45555555555555,-7.0,-84.0,170.0,0
1723967743,18.563255,73.83319,509.9,21.26153846153846,91,33.81318681318681,158.8021978021978,-7.0,-84.0,170.0,0
1723967744,18.563255,73.83319,509.9,21.68901098901099,91,33.81318681318681,158.8021978021978,-7.0,-84.0,171.0,0
1723967745,18.563255,73.83319,509.9,21.76813186813187,91,33.81318681318681,158.7912087912088,-7.0,-84.0,171.0,0
1723967746,18.563255,73.83319,509.9,21.835164835164836,91,34.34065934065934,160.25274725274724,-7.0,-84.0,170.0,0
1723967747,18.563255,73.83319,509.9,22.040659340659342,91,34.9010989010989,160.65934065934067,-7.0,-84.0,170.0,0
1723967748,18.563255,73.83319,509.9,21.953846153846154,91,34.9010989010989,160.65934065934067,-7.0,-84.0,171.0,0
1723967749,18.563255,73.83319,509.9,22.072527472527472,91,34.9010989010989,160.65934065934067,-7.0,-84.0,171.0,0
1723967750,18.563255,73.83319,509.9,22.144444444444446,90,34.94444444444444,161.51111111111112,-7.0,-84.0,171.0,0
1723967751,18.563255,73.83319,509.9,22.127777777777776,90,34.74444444444445,161.87777777777777,-8.0,-84.0,170.0,0
1723967752,18.563255,73.83319,509.9,21.994505494505493,91,34.7032967032967,161.02197802197801,-7.0,-84.0,171.0,0
1723967753,18.563255,73.83319,509.9,21.982417582417582,91,34.7032967032967,161.02197802197801,-7.0,-84.0,170.0,0
1723967754,18.563255,73.83319,509.9,21.946153846153845,91,34.7032967032967,161.02197802197801,-8.0,-84.0,170.0,0
1723967755,18.563255,73.83319,509.9,21.923076923076923,91,34.43956043956044,161.2967032967033,-7.0,-84.0,171.0,0
1723967756,18.563255,73.83319,509.9,21.99230769230769,91,34.43956043956044,161.2967032967033,-8.0,-84.0,170.0,0
1723967757,18.563255,73.83319,509.9,22.385714285714286,91,34.010989010989015,159.85714285714286,-7.0,-84.0,170.0,0
1723967758,18.563255,73.83319,509.9,22.6956043956044,91,34.02197802197802,159.85714285714286,-8.0,-84.0,170.0,0
1723967759,18.563255,73.83319,509.9,22.258695652173913,92,33.66304347826087,158.59782608695653,-8.0,-84.0,170.0,0
1723967760,18.563255,73.83319,509.9,22.74175824175824,91,33.824175824175825,157.28571428571428,-8.0,-84.0,170.0,0
1723967761,18.563255,73.83319,509.9,22.376923076923077,91,33.032967032967036,158.0879120879121,-8.0,-84.0,170.0,0
1723967762,18.563255,73.83319,509.9,21.976666666666667,90,33.21111111111111,156.7111111111111,-8.0,-84.0,170.0,0
1723967763,18.563255,73.83319,509.9,22.36813186813187,91,33.43956043956044,155.6153846153846,-7.0,-84.0,170.0,0
1723967764,18.563255,73.83319,509.9,21.795652173913044,92,32.97826086956522,155.27173913043478,-8.0,-84.0,170.0,0
1723967765,18.563255,73.83319,509.9,22.145652173913046,92,33.0,155.2608695652174,-8.0,-84.0,170.0,0
1723967766,18.563255,73.83319,509.9,21.645652173913046,92,32.79347826086956,155.2608695652174,-8.0,-84.0,170.0,0
1723967767,18.563255,73.83319,509.9,21.608695652173914,92,33.07608695652174,158.33695652173913,-8.0,-84.0,170.0,0
1723967768,18.563255,73.83319,509.9,21.58494623655914,93,32.74193548387097,157.10752688172042,-8.0,-84.0,170.0,0
1723967769,18.563255,73.83319,509.9,21.56989247311828,93,32.72043010752688,157.1505376344086,-8.0,-84.0,170.0,0
1723967770,18.563255,73.83319,509.9,21.35217391304348,92,32.619565217391305,156.92391304347825,-8.0,-84.0,170.0,0
1723967771,18.563255,73.83319,509.9,21.417582417582416,91,32.967032967032964,158.16483516483515,-8.0,-84.0,170.0,0
1723967772,18.563255,73.83319,509.9,21.93777777777778,90,33.01111111111111,156.2888888888889,-8.0,-84.0,170.0,0
1723967773,18.563255,73.83319,509.9,21.876923076923077,91,32.89010989010989,154.45054945054946,-8.0,-84.0,170.0,0
1723967774,18.563255,73.83319,509.9,22.092307692307692,91,32.89010989010989,154.45054945054946,-8.0,-84.0,170.0,0
1723967775,18.563255,73.83319,509.9,22.206593406593406,91,32.89010989010989,154.76923076923077,-7.0,-84.0,171.0,0
1723967776,18.563255,73.83319,509.9,22.12087912087912,91,32.89010989010989,154.75824175824175,-7.0,-84.0,171.0,0
1723967777,18.563255,73.83319,509.9,22.197802197802197,91,32.89010989010989,154.75824175824175,-8.0,-84.0,170.0,0
1723967778,18.563255,73.83319,509.9,22.346153846153847,91,32.89010989010989,154.75824175824175,-7.0,-84.0,170.0,0
1723967779,18.563255,73.83319,509.9,22.23846153846154,91,32.89010989010989,154.75824175824175,-7.0,-84.0,170.0,0
1723967780,18.563255,73.83319,509.9,22.95274725274725,91,33.61538461538461,157.06593406593407,-7.0,-84.0,171.0,0
1723967781,18.563255,73.83319,509.9,22.774725274725274,91,33.61538461538461,157.06593406593407,-13.0,-85.0,165.0,0
1723967782,18.563255,73.83319,509.9,22.72826086956522,92,32.92391304347826,152.69565217391303,-8.0,-84.0,170.0,0
1723967783,18.563255,73.83319,509.9,22.291304347826088,92,34.20652173913044,158.7608695652174,-7.0,-84.0,170.0,0
1723967784,18.563255,73.83319,509.9,22.339130434782607,92,34.19565217391305,158.2826086956522,-7.0,-84.0,170.0,0
1723967785,18.563255,73.83319,509.9,22.853846153846153,91,35.20879120879121,161.46153846153845,-8.0,-84.0,170.0,0
1723967786,18.563255,73.83319,509.9,22.796703296703296,91,35.20879120879121,161.46153846153845,-8.0,-84.0,170.0,0
1723967787,18.563255,73.83319,509.9,22.86703296703297,91,35.20879120879121,161.46153846153845,-7.0,-84.0,170.0,0
1723967788,18.563255,73.83319,509.9,22.9989010989011,91,35.20879120879121,161.46153846153845,-8.0,-85.0,170.0,0
1723967789,18.563255,73.83319,509.9,22.963736263736262,91,34.989010989010985,161.86813186813185,-7.0,-84.0,170.0,0
1723967790,18.563255,73.83319,509.9,23.01888888888889,90,35.32222222222222,162.38888888888889,-7.0,-85.0,171.0,0
1723967791,18.563255,73.83319,509.9,23.14111111111111,90,35.32222222222222,162.38888888888889,-1.0,-84.0,177.0,0
1723967792,18.563255,73.83319,509.9,22.98777777777778,90,35.32222222222222,162.38888888888889,-8.0,-85.0,169.0,0
1723967793,18.563255,73.83319,509.9,23.374725274725275,91,34.989010989010985,161.86813186813185,-8.0,-85.0,170.0,0
1723967794,18.563255,73.83319,509.9,22.939560439560438,91,34.75824175824176,163.17582417582418,-9.0,-85.0,169.0,0
1723967795,18.563255,73.83319,509.9,23.099999999999998,91,34.76923076923077,163.1868131868132,-9.0,-85.0,169.0,0
1723967796,18.563255,73.83319,509.9,23.06263736263736,91,34.76923076923077,163.1868131868132,-8.0,-84.0,170.0,0
1723967797,18.563255,73.83319,509.9,23.005494505494507,91,34.76923076923077,163.17582417582418,-8.0,-85.0,170.0,0
1723967798,18.563255,73.83319,509.9,23.446153846153845,91,34.45054945054945,160.5054945054945,-8.0,-84.0,170.0,0
1723967799,18.563255,73.83319,509.9,23.870329670329667,91,34.45054945054945,160.5054945054945,-8.0,-85.0,170.0,0
1723967800,18.563255,73.83319,509.9,23.942857142857147,91,34.45054945054945,160.5054945054945,-8.0,-85.0,170.0,0
1723967801,18.563255,73.83319,509.9,24.860439560439563,91,34.45054945054945,160.5054945054945,-8.0,-85.0,170.0,0
1723967802,18.563255,73.83319,509.9,24.9032967032967,91,34.494505494505496,160.5054945054945,-8.0,-85.0,170.0,0
1723967803,18.563255,73.83319,509.9,24.919565217391302,92,34.06521739130435,158.8695652173913,-8.0,-85.0,170.0,0
1723967804,18.563255,73.83319,509.9,24.936956521739127,92,34.06521739130435,158.8695652173913,-8.0,-85.0,170.0,0
1723967805,18.563255,73.83319,509.9,24.553260869565218,92,34.06521739130435,158.8695652173913,-8.0,-85.0,170.0,0
1723967806,18.563255,73.83319,509.9,24.88804347826087,92,34.06521739130435,158.8695652173913,-8.0,-85.0,170.0,0
1723967807,18.563255,73.83319,509.9,24.825,92,33.95652173913044,159.91304347826087,-8.0,-85.0,170.0,0
1723967808,18.563255,73.83319,509.9,24.80652173913043,92,33.95652173913044,159.91304347826087,-8.0,-85.0,170.0,0
1723967809,18.563255,73.83319,509.9,24.867391304347827,92,33.96739130434783,159.91304347826087,-8.0,-85.0,170.0,0
1723967810,18.563255,73.83319,509.9,25.025000000000002,92,33.96739130434783,159.91304347826087,-8.0,-85.0,170.0,0
1723967811,18.563255,73.83319,509.9,24.979347826086954,92,33.96739130434783,159.91304347826087,-8.0,-85.0,170.0,0
1723967812,18.563255,73.83319,509.9,24.92391304347826,92,33.84782608695652,158.8913043478261,-8.0,-85.0,170.0,0
1723967813,18.563255,73.83319,509.9,24.967391304347824,92,33.84782608695652,158.8913043478261,-8.0,-85.0,170.0,0
1723967814,18.563255,73.83319,509.9,24.91505376344086,93,33.946236559139784,160.34408602150538,-8.0,-85.0,170.0,0
1723967815,18.563255,73.83319,509.9,25.037634408602152,93,33.946236559139784,160.36559139784947,-8.0,-85.0,170.0,0
1723967816,18.563255,73.83319,509.9,25.034408602150535,93,33.83870967741935,159.3548387096774,-8.0,-85.0,170.0,0
1723967817,18.563255,73.83319,509.9,25.154347826086955,92,33.83695652173913,161.1086956521739,-8.0,-85.0,170.0,0
1723967818,18.563255,73.83319,509.9,24.801086956521736,92,33.83695652173913,161.1086956521739,-8.0,-85.0,170.0,0
1723967819,18.563255,73.83319,509.9,25.20434782608696,92,33.83695652173913,161.1086956521739,-8.0,-85.0,170.0,0
1723967820,18.563255,73.83319,509.9,25.027173913043477,92,33.83695652173913,161.1086956521739,-8.0,-85.0,170.0,0
1723967821,18.563255,73.83319,509.9,25.153260869565216,92,33.83695652173913,161.1086956521739,-8.0,-85.0,170.0,0
1723967822,18.563255,73.83319,509.9,25.19782608695652,92,33.83695652173913,161.1086956521739,-8.0,-85.0,170.0,0
1723967823,18.563255,73.83319,509.9,25.183695652173913,92,33.83695652173913,161.1086956521739,-9.0,-84.0,169.0,0
1723967824,18.563255,73.83319,509.9,24.657608695652176,92,33.83695652173913,161.1086956521739,-8.0,-84.0,170.0,0
1723967825,18.563255,73.83319,509.9,24.75,92,33.84782608695652,161.08695652173913,-9.0,-84.0,169.0,0
1723967826,18.563255,73.83319,509.9,25.117582417582415,91,33.89010989010989,161.9120879120879,-11.0,-85.0,167.0,0
1723967827,18.563255,73.83319,509.9,22.237362637362637,91,33.89010989010989,161.9120879120879,-12.0,-85.0,166.0,0
1723967828,18.563255,73.83319,509.9,22.125555555555554,90,33.6,160.62222222222223,-10.0,-85.0,168.0,0
1723967829,18.563255,73.83319,509.9,22.325274725274724,91,33.879120879120876,161.9120879120879,-9.0,-85.0,169.0,0
1723967830,18.563255,73.83319,509.9,22.421978021978024,91,33.86813186813187,161.84615384615384,-9.0,-84.0,169.0,0
1723967831,18.563255,73.83319,509.9,23.015384615384615,91,33.89010989010989,161.83516483516485,-8.0,-84.0,170.0,0
1723967832,18.563255,73.83319,509.9,23.386813186813185,91,33.89010989010989,161.83516483516485,-8.0,-84.0,170.0,0
1723967833,18.563255,73.83319,509.9,23.291208791208792,91,33.89010989010989,161.83516483516485,-8.0,-84.0,170.0,0
1723967834,18.563255,73.83319,509.9,23.29340659340659,91,33.89010989010989,161.83516483516485,-8.0,-84.0,170.0,0
1723967835,18.563255,73.83319,509.9,23.13296703296703,91,33.89010989010989,161.83516483516485,-8.0,-84.0,170.0,0
1723967836,18.563255,73.83319,509.9,23.23076923076923,91,33.89010989010989,161.83516483516485,-8.0,-84.0,170.0,0
1723967837,18.563255,73.83319,509.9,23.77032967032967,91,33.89010989010989,161.83516483516485,-8.0,-84.0,170.0,0
1723967838,18.563255,73.83319,509.9,23.798901098901098,91,33.879120879120876,161.83516483516485,-8.0,-84.0,170.0,0
1723967839,18.563255,73.83319,509.9,23.954945054945057,91,33.879120879120876,161.84615384615384,-8.0,-84.0,170.0,0
1723967840,18.563255,73.83319,509.9,23.646153846153847,91,33.879120879120876,161.84615384615384,-8.0,-84.0,170.0,0
1723967841,18.563255,73.83319,509.9,23.658241758241758,91,33.879120879120876,161.84615384615384,-8.0,-84.0,170.0,0
1723967842,18.563255,73.83319,509.9,23.90989010989011,91,33.89010989010989,161.83516483516485,-8.0,-84.0,170.0,0
1723967843,18.563255,73.83319,509.9,23.9978021978022,91,33.89010989010989,161.84615384615384,-8.0,-84.0,170.0,0
1723967844,18.563255,73.83319,509.9,23.894505494505495,91,33.89010989010989,161.85714285714286,-8.0,-84.0,170.0,0
1723967845,18.563255,73.83319,509.9,23.95054945054945,91,33.9010989010989,161.84615384615384,-8.0,-84.0,170.0,0
1723967846,18.563255,73.83319,509.9,24.281521739130437,92,33.869565217391305,161.0,-8.0,-84.0,170.0,0
1723967847,18.563255,73.83319,509.9,25.20434782608696,92,34.58695652173913,163.2826086956522,-8.0,-84.0,170.0,0
1723967848,18.563255,73.83319,509.9,25.508695652173916,92,34.59782608695652,163.27173913043478,-8.0,-84.0,170.0,0
1723967849,18.563255,73.83319,509.9,25.22391304347826,92,34.608695652173914,163.27173913043478,-8.0,-84.0,170.0,0
1723967850,18.563255,73.83319,509.9,25.428260869565218,92,34.608695652173914,163.27173913043478,-8.0,-84.0,170.0,0
1723967851,18.563255,73.83319,509.9,25.58695652173913,92,35.23913043478261,164.69565217391303,-8.0,-84.0,170.0,0
1723967852,18.563255,73.83319,509.9,24.492473118279573,93,35.193548387096776,163.81720430107526,-8.0,-84.0,170.0,0
1723967853,18.563255,73.83319,509.9,24.504301075268817,93,35.193548387096776,163.81720430107526,-8.0,-84.0,170.0,0
1723967854,18.563255,73.83319,509.9,24.983870967741936,93,35.193548387096776,163.81720430107526,-8.0,-84.0,170.0,0
1723967855,18.563255,73.83319,509.9,25.05698924731183,93,35.193548387096776,163.83870967741936,-8.0,-84.0,170.0,0
1723967856,18.563255,73.83319,509.9,24.577659574468086,94,34.680851063829785,163.67021276595744,-8.0,-84.0,170.0,0
1723967857,18.563255,73.83319,509.9,24.628723404255318,94,34.702127659574465,163.7127659574468,-8.0,-84.0,170.0,0
1723967858,18.563255,73.83319,509.9,24.582978723404256,94,34.702127659574465,163.7340425531915,-8.0,-84.0,170.0,0
1723967859,18.563255,73.83319,509.9,24.872340425531913,94,34.702127659574465,163.7340425531915,-8.0,-84.0,170.0,0
1723967860,18.563255,73.83319,509.9,24.887234042553192,94,34.47872340425532,165.0,-8.0,-84.0,170.0,0
1723967861,18.563255,73.83319,509.9,25.086170212765957,94,34.47872340425532,165.0,-8.0,-84.0,170.0,0
1723967862,18.563255,73.83319,509.9,24.971276595744683,94,34.47872340425532,165.0,-8.0,-84.0,170.0,0
1723967863,18.563255,73.83319,509.9,25.002127659574466,94,34.47872340425532,165.0,-8.0,-84.0,170.0,0
1723967864,18.563255,73.83319,509.9,24.929787234042553,94,34.46808510638298,165.0,-8.0,-84.0,170.0,0
1723967865,18.563255,73.83319,509.9,25.159139784946237,93,34.60215053763441,163.72043010752688,-8.0,-84.0,170.0,0
1723967866,18.563255,73.83319,509.9,25.02553191489362,94,34.138297872340424,162.39361702127658,-8.0,-84.0,170.0,0
1723967867,18.563255,73.83319,509.9,25.08494623655914,93,34.29032258064516,161.10752688172042,-8.0,-84.0,169.0,0
1723967868,18.563255,73.83319,509.9,24.809782608695652,92,34.32608695652174,161.93478260869566,-8.0,-84.0,170.0,0
1723967869,18.563255,73.83319,509.9,24.98510638297872,94,33.861702127659576,160.7340425531915,-8.0,-84.0,170.0,0
1723967870,18.563255,73.83319,509.9,24.986170212765956,94,33.861702127659576,160.7340425531915,-8.0,-84.0,170.0,0
1723967871,18.563255,73.83319,509.9,25.0,94,33.840425531914896,160.7127659574468,-8.0,-84.0,170.0,0
1723967872,18.563255,73.83319,509.9,25.01063829787234,94,33.861702127659576,160.67021276595744,-8.0,-84.0,169.0,0
1723967873,18.563255,73.83319,509.9,25.085106382978722,94,33.861702127659576,160.67021276595744,-8.0,-84.0,170.0,0
1723967874,18.563255,73.83319,509.9,25.2968085106383,94,33.861702127659576,160.67021276595744,-8.0,-84.0,170.0,0
1723967875,18.563255,73.83319,509.9,25.269148936170215,94,33.755319148936174,161.67021276595744,-8.0,-84.0,170.0,0
1723967876,18.563255,73.83319,509.9,25.535483870967745,93,33.903225806451616,160.3763440860215,-9.0,-84.0,169.0,0
1723967877,18.563255,73.83319,509.9,25.54193548387097,93,33.903225806451616,160.3763440860215,-8.0,-84.0,170.0,0
1723967878,18.563255,73.83319,509.9,25.690217391304348,92,34.53260869565217,162.4673913043478,-9.0,-84.0,169.0,0
1723967879,18.563255,73.83319,509.9,25.6752688172043,93,34.494623655913976,161.6236559139785,-9.0,-85.0,169.0,0
1723967880,18.563255,73.83319,509.9,25.568817204301077,93,34.376344086021504,163.70967741935485,-9.0,-85.0,169.0,0
1723967881,18.563255,73.83319,509.9,25.513978494623657,93,34.39784946236559,163.68817204301075,-9.0,-85.0,169.0,0
1723967882,18.563255,73.83319,509.9,25.497849462365593,93,34.39784946236559,163.68817204301075,-9.0,-85.0,169.0,0
1723967883,18.563255,73.83319,509.9,25.359574468085107,94,34.361702127659576,162.8404255319149,-9.0,-84.0,169.0,0
1723967884,18.563255,73.83319,509.9,25.55652173913043,92,35.08695652173913,162.7826086956522,-9.0,-84.0,169.0,0
1723967885,18.563255,73.83319,509.9,25.486021505376343,93,35.043010752688176,161.93548387096774,-9.0,-85.0,169.0,0
1723967886,18.563255,73.83319,509.9,24.820430107526885,93,35.043010752688176,161.93548387096774,-8.0,-84.0,169.0,0
1723967887,18.563255,73.83319,509.9,25.133333333333333,93,35.043010752688176,161.93548387096774,-9.0,-84.0,169.0,0
1723967888,18.563255,73.83319,509.9,25.09354838709677,93,34.8494623655914,162.29032258064515,-9.0,-84.0,169.0,0
1723967889,18.563255,73.83319,509.9,25.12688172043011,93,34.8494623655914,162.29032258064515,-9.0,-84.0,169.0,0
1723967890,18.563255,73.83319,509.9,25.138709677419357,93,34.8494623655914,162.29032258064515,-9.0,-84.0,169.0,0
1723967891,18.563255,73.83319,509.9,25.125806451612902,93,34.8494623655914,162.29032258064515,-9.0,-84.0,169.0,0
1723967892,18.563255,73.83319,509.9,25.465591397849465,93,34.8494623655914,162.2688172043011,-9.0,-84.0,169.0,0
1723967893,18.563255,73.83319,509.9,25.66989247311828,93,34.96774193548387,162.29032258064515,-9.0,-84.0,169.0,0
1723967894,18.563255,73.83319,509.9,25.53010752688172,93,34.333333333333336,159.8494623655914,-9.0,-84.0,169.0,0
1723967895,18.563255,73.83319,509.9,24.85531914893617,94,34.265957446808514,161.62765957446808,-9.0,-84.0,169.0,0
1723967896,18.563255,73.83319,509.9,25.124468085106383,94,34.265957446808514,161.62765957446808,-9.0,-84.0,169.0,0
1723967897,18.563255,73.83319,509.9,25.24042553191489,94,33.95744680851064,159.04255319148936,-9.0,-84.0,169.0,0
1723967898,18.563255,73.83319,509.9,24.864893617021277,94,33.95744680851064,159.04255319148936,-9.0,-84.0,169.0,0
1723967899,18.563255,73.83319,509.9,25.112765957446808,94,33.95744680851064,159.04255319148936,-9.0,-84.0,169.0,0
1723967900,18.563255,73.83319,509.9,25.285106382978725,94,33.95744680851064,159.04255319148936,-9.0,-84.0,169.0,0
1723967901,18.563255,73.83319,509.9,25.55744680851064,94,33.95744680851064,159.04255319148936,-9.0,-84.0,169.0,0
1723967902,18.563255,73.83319,509.9,25.54787234042553,94,33.680851063829785,157.38297872340425,-9.0,-84.0,169.0,0
1723967903,18.563255,73.83319,509.9,25.551063829787235,94,33.62765957446808,157.53191489361703,-9.0,-84.0,169.0,0
1723967904,18.563255,73.83319,509.9,25.455319148936173,94,33.659574468085104,157.53191489361703,-9.0,-84.0,169.0,0
1723967905,18.563255,73.83319,509.9,25.492553191489364,94,33.702127659574465,157.53191489361703,-9.0,-84.0,169.0,0
1723967906,18.563255,73.83319,509.9,25.386170212765958,94,33.691489361702125,158.54255319148936,-9.0,-84.0,169.0,0
1723967907,18.563255,73.83319,509.9,25.651063829787233,94,33.829787234042556,158.5212765957447,-9.0,-84.0,169.0,0
1723967908,18.563255,73.83319,509.9,25.581914893617018,94,34.04255319148936,158.4787234042553,-9.0,-84.0,169.0,0
1723967909,18.563255,73.83319,509.9,25.66063829787234,94,34.287234042553195,162.14893617021278,-9.0,-84.0,169.0,0
1723967910,18.563255,73.83319,509.9,25.611702127659573,94,34.41489361702128,161.5744680851064,-9.0,-84.0,169.0,0
1723967911,18.563255,73.83319,509.9,25.56276595744681,94,34.244680851063826,160.0212765957447,-9.0,-84.0,169.0,0
1723967912,18.563255,73.83319,509.9,25.486170212765956,94,34.191489361702125,159.87234042553192,-9.0,-84.0,169.0,0
1723967913,18.563255,73.83319,509.9,25.365957446808512,94,34.148936170212764,159.81914893617022,-9.0,-84.0,169.0,0
1723967914,18.563255,73.83319,509.9,25.51063829787234,94,34.11702127659574,159.80851063829786,-8.0,-84.0,169.0,0
1723967915,18.563255,73.83319,509.9,25.45851063829787,94,34.01063829787234,158.7872340425532,-9.0,-84.0,169.0,0
1723967916,18.563255,73.83319,509.9,25.588297872340426,94,34.0,158.79787234042553,-9.0,-84.0,169.0,0
1723967917,18.563255,73.83319,509.9,24.911702127659574,94,33.98936170212766,158.80851063829786,-9.0,-84.0,169.0,0
1723967918,18.563255,73.83319,509.9,25.263829787234044,94,33.98936170212766,158.82978723404256,-8.0,-84.0,169.0,0
1723967919,18.563255,73.83319,509.9,25.218279569892474,93,34.02150537634409,159.6451612903226,-9.0,-84.0,169.0,0
1723967920,18.563255,73.83319,509.9,25.422580645161293,93,34.02150537634409,159.67741935483872,-9.0,-84.0,169.0,0
1723967921,18.563255,73.83319,509.9,25.238297872340425,94,33.702127659574465,160.82978723404256,-9.0,-84.0,169.0,0
1723967922,18.563255,73.83319,509.9,25.153191489361703,94,33.861702127659576,161.0531914893617,-8.0,-84.0,169.0,0
1723967923,18.563255,73.83319,509.9,25.21808510638298,94,33.861702127659576,161.12765957446808,-9.0,-84.0,169.0,0
1723967924,18.563255,73.83319,509.9,25.080851063829787,94,33.87234042553192,161.1595744680851,-8.0,-84.0,170.0,0
1723967925,18.563255,73.83319,509.9,25.130851063829788,94,33.87234042553192,161.19148936170214,-8.0,-84.0,169.0,0
1723967926,18.563255,73.83319,509.9,25.22978723404255,94,33.87234042553192,161.22340425531914,-8.0,-84.0,170.0,0
1723967927,18.563255,73.83319,509.9,25.131914893617022,94,33.88297872340426,161.25531914893617,-8.0,-84.0,170.0,0
1723967928,18.563255,73.83319,509.9,25.087234042553188,94,33.88297872340426,161.29787234042553,-8.0,-84.0,169.0,0
1723967929,18.563255,73.83319,509.9,25.439361702127663,94,33.88297872340426,161.32978723404256,-8.0,-84.0,169.0,0
1723967930,18.563255,73.83319,509.9,25.424468085106383,94,34.58510638297872,163.59574468085106,-8.0,-84.0,170.0,0
1723967931,18.563255,73.83319,509.9,25.211702127659574,94,34.56382978723404,163.6595744680851,-8.0,-84.0,170.0,0
1723967932,18.563255,73.83319,509.9,25.261702127659575,94,34.56382978723404,163.69148936170214,-8.0,-84.0,169.0,0
1723967933,18.563255,73.83319,509.9,25.26595744680851,94,35.180851063829785,165.11702127659575,-8.0,-84.0,170.0,0
1723967934,18.563255,73.83319,509.9,25.325531914893617,94,35.191489361702125,165.1595744680851,-8.0,-84.0,170.0,0
1723967935,18.563255,73.83319,509.9,25.268085106382976,94,35.180851063829785,165.19148936170214,-8.0,-84.0,170.0,0
1723967936,18.563255,73.83319,509.9,25.243617021276595,94,35.180851063829785,165.2659574468085,-9.0,-84.0,169.0,0
1723967937,18.563255,73.83319,509.9,25.21276595744681,94,35.159574468085104,165.27659574468086,-9.0,-84.0,169.0,0
1723967938,18.563255,73.83319,509.9,25.172340425531914,94,35.148936170212764,165.27659574468086,-9.0,-84.0,169.0,0
1723967939,18.563255,73.83319,509.9,25.362765957446808,94,35.159574468085104,165.29787234042553,-9.0,-84.0,169.0,0
1723967940,18.563255,73.83319,509.9,25.266315789473687,95,34.92631578947368,164.76842105263157,-9.0,-84.0,169.0,0
1723967941,18.563255,73.83319,509.9,24.28842105263158,95,34.92631578947368,164.78947368421052,-9.0,-84.0,169.0,0
