timestamp,latitude,longitude,altitude,mean_snr,sat_count,mean_elevation,roll,pitch,yaw,is_inclined
1723891199,18.5633183,73.8332233,522.8,,0,,177.0,-85.0,340.0,0
1723891198,18.5633183,73.8332233,522.8,,0,,,,,0
1723891200,18.5633183,73.8332233,522.8,20.323469387755104,98,32.53061224489796,177.0,-84.0,340.0,0
1723891201,18.5633183,73.8332233,522.8,20.366326530612245,98,32.53061224489796,177.0,-85.0,340.0,0
1723891202,18.5633183,73.8332233,522.8,20.457142857142856,98,32.53061224489796,177.0,-85.0,340.0,0
1723891203,18.5633183,73.8332233,522.8,20.355102040816327,98,32.53061224489796,177.0,-84.0,340.0,0
1723891204,18.5633183,73.8332233,522.8,20.264285714285716,98,31.755102040816325,177.0,-84.0,340.0,0
1723891205,18.5633183,73.8332233,522.8,20.464285714285715,98,31.755102040816325,176.0,-84.0,339.0,0
1723891206,18.5633183,73.8332233,522.8,20.076288659793814,97,31.90721649484536,178.0,-84.0,340.0,0
1723891207,18.5633183,73.8332233,522.8,20.07422680412371,97,31.90721649484536,176.0,-84.0,339.0,0
1723891208,18.5633183,73.8332233,522.8,19.995876288659794,97,31.61855670103093,177.0,-84.0,340.0,0
1723891209,18.5633183,73.8332233,522.8,20.069072164948455,97,31.61855670103093,177.0,-84.0,340.0,0
1723891210,18.5633183,73.8332233,522.8,20.157731958762888,97,31.61855670103093,177.0,-85.0,340.0,0
1723891211,18.5633183,73.8332233,522.8,20.384536082474227,97,31.61855670103093,177.0,-85.0,340.0,0
1723891212,18.5633183,73.8332233,522.8,20.64081632653061,98,31.46938775510204,178.0,-83.0,340.0,0
1723891213,18.5633183,73.8332233,522.8,20.477551020408164,98,31.46938775510204,178.0,-84.0,340.0,0
1723891214,18.5633183,73.8332233,522.8,20.151020408163266,98,31.163265306122447,178.0,-84.0,340.0,0
1723891215,18.5633183,73.8332233,522.8,20.26530612244898,98,31.163265306122447,177.0,-84.0,340.0,0
1723891216,18.5633183,73.8332233,522.8,20.418367346938776,98,31.163265306122447,177.0,-84.0,340.0,0
1723891217,18.5633183,73.8332233,522.8,20.601020408163265,98,31.163265306122447,177.0,-84.0,339.0,0
1723891218,18.5633183,73.8332233,522.8,20.518367346938774,98,31.071428571428573,177.0,-84.0,340.0,0
1723891219,18.5633183,73.8332233,522.8,20.379591836734694,98,31.071428571428573,177.0,-84.0,340.0,0
1723891220,18.5633183,73.8332233,522.8,20.583673469387755,98,31.071428571428573,177.0,-85.0,340.0,0
1723891221,18.5633183,73.8332233,522.8,20.444897959183674,98,31.071428571428573,177.0,-85.0,340.0,0
1723891222,18.5633183,73.8332233,522.8,20.492857142857144,98,31.071428571428573,176.0,-85.0,340.0,0
1723891223,18.5633183,73.8332233,522.8,20.585714285714285,98,31.071428571428573,175.0,-85.0,343.0,0
1723891224,18.5633183,73.8332233,522.8,20.63877551020408,98,31.071428571428573,178.0,-84.0,348.0,0
1723891225,18.5633183,73.8332233,522.8,20.458163265306123,98,31.071428571428573,178.0,-85.0,347.0,0
1723891226,18.5633183,73.8332233,522.8,20.65408163265306,98,32.3469387755102,178.0,-85.0,348.0,0
1723891227,18.5633183,73.8332233,522.8,20.643877551020406,98,32.3469387755102,178.0,-85.0,347.0,0
1723891228,18.5633183,73.8332233,522.8,20.655102040816328,98,32.3469387755102,178.0,-85.0,348.0,0
1723891229,18.5633183,73.8332233,522.8,20.821428571428573,98,32.3469387755102,178.0,-85.0,348.0,0
1723891230,18.5633183,73.8332233,522.8,20.68673469387755,98,32.93877551020408,-178.0,-85.0,351.0,0
1723891231,18.5633183,73.8332233,522.8,20.6265306122449,98,32.93877551020408,-178.0,-84.0,350.0,0
1723891232,18.5633183,73.8332233,522.8,20.60816326530612,98,32.93877551020408,179.0,-84.0,349.0,0
1723891233,18.5633183,73.8332233,522.8,20.380612244897957,98,32.93877551020408,-179.0,-84.0,349.0,0
1723891234,18.5633183,73.8332233,522.8,20.136734693877553,98,32.93877551020408,-179.0,-84.0,349.0,0
1723891235,18.5633183,73.8332233,522.8,20.268367346938774,98,32.93877551020408,-179.0,-85.0,349.0,0
1723891236,18.5633183,73.8332233,522.8,20.334693877551018,98,32.53061224489796,-179.0,-84.0,349.0,0
1723891237,18.5633183,73.8332233,522.8,20.258163265306123,98,32.53061224489796,-179.0,-84.0,349.0,0
1723891238,18.5633183,73.8332233,522.8,20.298979591836734,98,32.53061224489796,-179.0,-84.0,349.0,0
1723891239,18.5633183,73.8332233,522.8,20.475510204081633,98,32.13265306122449,-179.0,-84.0,349.0,0
1723891240,18.5633183,73.8332233,522.8,21.002040816326527,98,32.13265306122449,-179.0,-84.0,349.0,0
1723891241,18.5633183,73.8332233,522.8,21.0,98,32.13265306122449,-179.0,-85.0,349.0,0
1723891242,18.5633183,73.8332233,522.8,21.04040404040404,99,31.939393939393938,-179.0,-84.0,349.0,0
1723891243,18.5633183,73.8332233,522.8,21.513131313131314,99,31.939393939393938,-179.0,-84.0,349.0,0
1723891244,18.5633183,73.8332233,522.8,21.63131313131313,99,31.939393939393938,-179.0,-84.0,349.0,0
1723891245,18.5633183,73.8332233,522.8,21.575757575757574,99,31.282828282828284,-179.0,-84.0,350.0,0
1723891246,18.5633183,73.8332233,522.8,21.506060606060604,99,31.272727272727273,-179.0,-84.0,349.0,0
1723891247,18.5633183,73.8332233,522.8,21.541999999999998,100,31.15,-179.0,-84.0,349.0,0
1723891248,18.5633183,73.8332233,522.8,21.519000000000002,100,31.15,-179.0,-84.0,349.0,0
1723891249,18.5633183,73.8332233,522.8,21.436,100,30.96,-179.0,-85.0,349.0,0
1723891250,18.5633183,73.8332233,522.8,21.405,100,30.96,-179.0,-85.0,350.0,0
1723891251,18.5633183,73.8332233,522.8,21.729292929292928,99,31.07070707070707,-179.0,-85.0,350.0,0
1723891252,18.5633183,73.8332233,522.8,22.0,100,30.75,-179.0,-84.0,349.0,0
1723891253,18.5633183,73.8332233,522.8,22.046,100,30.75,-179.0,-85.0,349.0,0
1723891254,18.5633183,73.8332233,522.8,22.09417475728155,103,30.106796116504853,-179.0,-85.0,349.0,0
1723891255,18.5633183,73.8332233,522.8,21.80673076923077,104,29.865384615384617,-179.0,-84.0,349.0,0
1723891256,18.5633183,73.8332233,522.8,21.51634615384615,104,29.865384615384617,-179.0,-85.0,349.0,0
1723891257,18.5633183,73.8332233,522.8,21.51904761904762,105,29.695238095238096,-179.0,-84.0,349.0,0
1723891258,18.5633183,73.8332233,522.8,21.567307692307693,104,29.798076923076923,-179.0,-84.0,349.0,0
1723891259,18.5633183,73.8332233,522.8,21.419047619047618,105,29.695238095238096,-179.0,-84.0,349.0,0
1723891260,18.5633183,73.8332233,522.8,21.542857142857144,105,29.60952380952381,-179.0,-84.0,350.0,0
1723891261,18.5633183,73.8332233,522.8,21.51047619047619,105,29.60952380952381,-179.0,-84.0,350.0,0
1723891262,18.5633183,73.8332233,522.8,21.847619047619048,105,29.60952380952381,-179.0,-84.0,349.0,0
1723891263,18.5633183,73.8332233,522.8,21.84190476190476,105,29.60952380952381,-179.0,-84.0,349.0,0
1723891264,18.5633183,73.8332233,522.8,21.976190476190474,105,29.60952380952381,-179.0,-84.0,349.0,0
1723891265,18.5633183,73.8332233,522.8,21.81809523809524,105,29.60952380952381,-179.0,-84.0,350.0,0
1723891266,18.5633183,73.8332233,522.8,21.975238095238097,105,29.60952380952381,-179.0,-85.0,350.0,0
1723891267,18.5633183,73.8332233,522.8,21.78952380952381,105,29.61904761904762,-179.0,-85.0,350.0,0
1723891268,18.5633183,73.8332233,522.8,21.749523809523808,105,29.61904761904762,-179.0,-85.0,349.0,0
1723891269,18.5633183,73.8332233,522.8,21.696190476190477,105,29.60952380952381,-178.0,-84.0,350.0,0
1723891270,18.5633183,73.8332233,522.8,21.7811320754717,106,29.330188679245282,-179.0,-85.0,350.0,0
1723891271,18.5633183,73.8332233,522.8,21.850943396226413,106,29.330188679245282,-179.0,-85.0,349.0,0
1723891272,18.5633183,73.8332233,522.8,22.734905660377358,106,29.330188679245282,-179.0,-85.0,349.0,0
1723891273,18.5633183,73.8332233,522.8,22.7688679245283,106,29.32075471698113,-179.0,-85.0,349.0,0
1723891274,18.5633183,73.8332233,522.8,22.83301886792453,106,30.5,-179.0,-84.0,350.0,0
1723891275,18.5633183,73.8332233,522.8,22.873584905660376,106,30.5,-179.0,-84.0,349.0,0
1723891276,18.5633183,73.8332233,522.8,22.750943396226415,106,30.5,-179.0,-85.0,350.0,0
1723891277,18.5633183,73.8332233,522.8,22.48867924528302,106,30.5,-179.0,-85.0,349.0,0
1723891278,18.5633183,73.8332233,522.8,22.68584905660377,106,30.5,-179.0,-84.0,349.0,0
1723891279,18.5633183,73.8332233,522.8,22.95,106,30.5,-179.0,-85.0,349.0,0
1723891280,18.5633183,73.8332233,522.8,22.90566037735849,106,30.5,-179.0,-84.0,350.0,0
1723891281,18.5633183,73.8332233,522.8,22.89345794392523,107,31.261682242990656,-179.0,-84.0,350.0,0
1723891282,18.5633183,73.8332233,522.8,22.77570093457944,107,31.27102803738318,-179.0,-84.0,349.0,0
1723891283,18.5633183,73.8332233,522.8,22.202803738317755,107,31.252336448598133,-179.0,-84.0,350.0,0
1723891284,18.5633183,73.8332233,522.8,22.450467289719626,107,30.878504672897197,-179.0,-84.0,350.0,0
1723891285,18.5633183,73.8332233,522.8,22.454205607476634,107,30.878504672897197,-179.0,-84.0,350.0,0
1723891286,18.5633183,73.8332233,522.8,22.21682242990654,107,30.878504672897197,-179.0,-84.0,350.0,0
1723891287,18.5633183,73.8332233,522.8,22.478504672897195,107,30.878504672897197,-179.0,-84.0,350.0,0
1723891288,18.5633183,73.8332233,522.8,22.453271028037385,107,30.878504672897197,-179.0,-85.0,350.0,0
1723891289,18.5633183,73.8332233,522.8,22.358878504672898,107,30.878504672897197,-179.0,-85.0,350.0,0
1723891290,18.5633183,73.8332233,522.8,,0,,-179.0,-85.0,350.0,0
1723891291,18.5633183,73.8332233,522.8,22.39766355140187,214,30.53271028037383,-179.0,-84.0,349.0,0
1723891292,18.5633183,73.8332233,522.8,22.749532710280373,107,30.53271028037383,-179.0,-85.0,349.0,0
1723891293,18.5633183,73.8332233,522.8,22.72056074766355,107,29.925233644859812,-179.0,-84.0,349.0,0
1723891294,18.5633183,73.8332233,522.8,22.798130841121495,107,29.925233644859812,-179.0,-84.0,349.0,0
1723891295,18.5633183,73.8332233,522.8,22.813084112149532,107,29.925233644859812,-179.0,-84.0,350.0,0
1723891296,18.5633183,73.8332233,522.8,22.829906542056076,107,29.925233644859812,-179.0,-84.0,350.0,0
1723891297,18.5633183,73.8332233,522.8,22.466355140186916,107,29.925233644859812,-179.0,-84.0,350.0,0
1723891298,18.5633183,73.8332233,522.8,22.79074074074074,108,29.824074074074073,-179.0,-84.0,349.0,0
1723891299,18.5633183,73.8332233,522.8,22.735185185185188,108,30.27777777777778,-179.0,-84.0,350.0,0
1723891300,18.5633183,73.8332233,522.8,22.75462962962963,108,30.27777777777778,-179.0,-84.0,350.0,0
1723891301,18.5633183,73.8332233,522.8,22.662037037037038,108,30.27777777777778,-179.0,-84.0,350.0,0
1723891302,18.5633183,73.8332233,522.8,22.817592592592593,108,30.25925925925926,-179.0,-84.0,349.0,0
1723891303,18.5633183,73.8332233,522.8,22.389814814814812,108,31.15740740740741,-179.0,-84.0,349.0,0
1723891304,18.5633183,73.8332233,522.8,22.75,108,31.15740740740741,-179.0,-84.0,350.0,0
1723891305,18.5633183,73.8332233,522.8,22.75648148148148,108,31.15740740740741,-179.0,-84.0,350.0,0
1723891306,18.5633183,73.8332233,522.8,22.819444444444443,108,31.15740740740741,-179.0,-84.0,350.0,0
1723891307,18.5633183,73.8332233,522.8,22.816666666666666,108,31.15740740740741,-179.0,-84.0,350.0,0
1723891308,18.5633183,73.8332233,522.8,22.840740740740742,108,30.99074074074074,-179.0,-84.0,349.0,0
1723891309,18.5633183,73.8332233,522.8,22.462962962962962,108,30.99074074074074,-179.0,-84.0,350.0,0
1723891310,18.5633183,73.8332233,522.8,22.916666666666668,108,30.99074074074074,-179.0,-85.0,350.0,0
1723891311,18.5633183,73.8332233,522.8,22.869444444444444,108,30.99074074074074,-179.0,-85.0,350.0,0
1723891312,18.5633183,73.8332233,522.8,22.8962962962963,108,30.99074074074074,-179.0,-85.0,350.0,0
1723891313,18.5633183,73.8332233,522.8,22.87685185185185,108,30.416666666666668,-179.0,-85.0,349.0,0
1723891314,18.5633183,73.8332233,522.8,22.999065420560747,107,30.53271028037383,-179.0,-85.0,349.0,0
1723891315,18.5633183,73.8332233,522.8,22.662616822429907,107,30.542056074766354,-179.0,-85.0,350.0,0
1723891316,18.5633183,73.8332233,522.8,22.99056603773585,106,30.70754716981132,-179.0,-85.0,350.0,0
1723891317,18.5633183,73.8332233,522.8,22.88425925925926,108,30.435185185185187,-179.0,-85.0,350.0,0
1723891318,18.5633183,73.8332233,522.8,22.78878504672897,107,30.19626168224299,-179.0,-85.0,349.0,0
1723891319,18.5633183,73.8332233,522.8,22.858878504672898,107,30.19626168224299,-179.0,-84.0,350.0,0
1723891320,18.5633183,73.8332233,522.8,22.791666666666668,108,30.09259259259259,-179.0,-84.0,349.0,0
1723891321,18.5633183,73.8332233,522.8,22.173148148148147,108,30.09259259259259,-179.0,-85.0,350.0,0
1723891322,18.5633183,73.8332233,522.8,22.58888888888889,108,29.65740740740741,-179.0,-85.0,349.0,0
1723891323,18.5633183,73.8332233,522.8,22.51574074074074,108,29.65740740740741,-179.0,-84.0,349.0,0
1723891324,18.5633183,73.8332233,522.8,22.546296296296298,108,29.65740740740741,-179.0,-84.0,350.0,0
1723891325,18.5633183,73.8332233,522.8,22.634579439252338,107,29.813084112149532,-179.0,-84.0,350.0,0
1723891326,18.5633183,73.8332233,522.8,22.65233644859813,107,29.813084112149532,-179.0,-85.0,350.0,0
1723891327,18.5633183,73.8332233,522.8,22.23177570093458,107,29.710280373831775,-179.0,-84.0,350.0,0
1723891328,18.5633183,73.8332233,522.8,22.444444444444443,108,29.555555555555557,-179.0,-84.0,349.0,0
1723891329,18.5633183,73.8332233,522.8,22.528971962616822,107,29.710280373831775,-179.0,-85.0,349.0,0
1723891330,18.5633183,73.8332233,522.8,22.549532710280374,107,29.710280373831775,-179.0,-85.0,349.0,0
1723891331,18.5633183,73.8332233,522.8,22.523364485981308,107,29.626168224299064,-179.0,-85.0,349.0,0
1723891332,18.5633183,73.8332233,522.8,22.42803738317757,107,29.626168224299064,-179.0,-85.0,349.0,0
1723891333,18.5633183,73.8332233,522.8,22.090740740740742,108,29.47222222222222,-179.0,-85.0,349.0,0
1723891334,18.5633183,73.8332233,522.8,22.303703703703704,108,29.47222222222222,-179.0,-85.0,350.0,0
1723891335,18.5633183,73.8332233,522.8,22.449074074074073,108,29.47222222222222,-179.0,-85.0,350.0,0
1723891336,18.5633183,73.8332233,522.8,22.442592592592593,108,29.47222222222222,-179.0,-85.0,350.0,0
1723891337,18.5633183,73.8332233,522.8,22.375,108,30.10185185185185,-179.0,-84.0,350.0,0
1723891338,18.5633183,73.8332233,522.8,22.35833333333333,108,30.11111111111111,-179.0,-84.0,350.0,0
1723891339,18.5633183,73.8332233,522.8,22.14766355140187,107,30.822429906542055,-179.0,-84.0,350.0,0
1723891340,18.5633183,73.8332233,522.8,22.38425925925926,108,30.65740740740741,-179.0,-84.0,350.0,0
1723891341,18.5633183,73.8332233,522.8,22.33084112149533,107,31.30841121495327,-179.0,-84.0,350.0,0
1723891342,18.5633183,73.8332233,522.8,22.30377358490566,106,31.4811320754717,-179.0,-84.0,350.0,0
1723891343,18.5633183,73.8332233,522.8,22.325233644859814,107,31.364485981308412,-179.0,-85.0,349.0,0
1723891344,18.5633183,73.8332233,522.8,22.25607476635514,107,31.345794392523363,-179.0,-85.0,349.0,0
1723891345,18.5633183,73.8332233,522.8,21.96822429906542,107,31.345794392523363,179.0,-85.0,349.0,0
1723891346,18.5633183,73.8332233,522.8,22.14392523364486,107,31.177570093457945,-179.0,-84.0,350.0,0
1723891347,18.5633183,73.8332233,522.8,22.225233644859813,107,31.177570093457945,-179.0,-84.0,350.0,0
1723891348,18.5633183,73.8332233,522.8,22.145794392523364,107,30.97196261682243,-179.0,-85.0,349.0,0
1723891349,18.5633183,73.8332233,522.8,22.30841121495327,107,30.97196261682243,-179.0,-84.0,350.0,0
1723891350,18.5633183,73.8332233,522.8,22.213084112149534,107,30.61682242990654,-179.0,-84.0,350.0,0
1723891351,18.5633183,73.8332233,522.8,21.849532710280375,107,30.61682242990654,-179.0,-84.0,350.0,0
1723891352,18.5633183,73.8332233,522.8,22.1607476635514,107,30.61682242990654,-179.0,-84.0,350.0,0
1723891353,18.5633183,73.8332233,522.8,22.189719626168227,107,30.61682242990654,-179.0,-84.0,350.0,0
1723891354,18.5633183,73.8332233,522.8,22.16635514018692,107,30.61682242990654,-179.0,-84.0,350.0,0
1723891355,18.5633183,73.8332233,522.8,22.349999999999998,106,30.72641509433962,-179.0,-84.0,350.0,0
1723891356,18.5633183,73.8332233,522.8,22.3,106,30.37735849056604,-179.0,-84.0,350.0,0
1723891357,18.5633183,73.8332233,522.8,22.076415094339623,106,30.28301886792453,-179.0,-84.0,350.0,0
1723891358,18.5633183,73.8332233,522.8,22.408490566037738,106,30.28301886792453,-179.0,-84.0,350.0,0
1723891359,18.5633183,73.8332233,522.8,22.265094339622642,106,30.264150943396228,-179.0,-84.0,350.0,0
1723891360,18.5633183,73.8332233,522.8,22.288679245283017,106,30.10377358490566,-179.0,-84.0,350.0,0
1723891361,18.5633183,73.8332233,522.8,22.247169811320752,106,30.10377358490566,-179.0,-84.0,350.0,0
1723891362,18.5633183,73.8332233,522.8,22.2688679245283,106,30.09433962264151,-179.0,-84.0,350.0,0
1723891363,18.5633183,73.8332233,522.8,21.783962264150944,106,30.09433962264151,-179.0,-84.0,350.0,0
1723891364,18.5633183,73.8332233,522.8,22.17238095238095,105,30.295238095238094,-179.0,-84.0,350.0,0
1723891365,18.5633183,73.8332233,522.8,21.96981132075472,106,29.9811320754717,-179.0,-84.0,349.0,0
1723891366,18.5633183,73.8332233,522.8,22.068867924528302,106,29.89622641509434,-179.0,-84.0,350.0,0
1723891367,18.5633183,73.8332233,522.8,22.033962264150944,106,29.89622641509434,-179.0,-84.0,349.0,0
1723891368,18.5633183,73.8332233,522.8,21.977358490566036,106,29.90566037735849,-179.0,-84.0,349.0,0
1723891369,18.5633183,73.8332233,522.8,21.600943396226413,106,29.90566037735849,-179.0,-85.0,349.0,0
1723891370,18.5633183,73.8332233,522.8,22.05428571428571,105,30.104761904761904,-179.0,-84.0,350.0,0
1723891371,18.5633183,73.8332233,522.8,21.987619047619045,105,30.104761904761904,-179.0,-84.0,349.0,0
1723891372,18.5633183,73.8332233,522.8,22.040952380952383,105,30.104761904761904,-179.0,-84.0,349.0,0
1723891373,18.5633183,73.8332233,522.8,22.041904761904764,105,30.104761904761904,-179.0,-84.0,349.0,0
1723891374,18.5633183,73.8332233,522.8,22.10190476190476,105,30.104761904761904,-179.0,-85.0,349.0,0
1723891375,18.5633183,73.8332233,522.8,22.005714285714284,105,30.104761904761904,-179.0,-84.0,350.0,0
1723891376,18.5633183,73.8332233,522.8,22.324761904761903,105,30.104761904761904,-179.0,-84.0,350.0,0
1723891377,18.5633183,73.8332233,522.8,22.26380952380952,105,30.085714285714285,-179.0,-84.0,350.0,0
1723891378,18.5633183,73.8332233,522.8,22.242857142857144,105,30.085714285714285,-179.0,-84.0,349.0,0
1723891379,18.5633183,73.8332233,522.8,22.357142857142858,105,30.066666666666666,-179.0,-84.0,349.0,0
1723891380,18.5633183,73.8332233,522.8,22.314285714285713,105,30.066666666666666,-179.0,-84.0,350.0,0
1723891381,18.5633183,73.8332233,522.8,21.97142857142857,105,30.066666666666666,-179.0,-84.0,350.0,0
1723891382,18.5633183,73.8332233,522.8,22.28952380952381,105,30.066666666666666,-179.0,-84.0,350.0,0
1723891383,18.5633183,73.8332233,522.8,22.313333333333333,105,30.047619047619047,-179.0,-85.0,349.0,0
1723891384,18.5633183,73.8332233,522.8,22.365714285714287,105,30.02857142857143,-179.0,-84.0,349.0,0
1723891385,18.5633183,73.8332233,522.8,22.39047619047619,105,31.2,-179.0,-84.0,349.0,0
1723891386,18.5633183,73.8332233,522.8,22.291428571428572,105,31.2,-179.0,-84.0,349.0,0
1723891387,18.5633183,73.8332233,522.8,21.933333333333334,105,31.2,-179.0,-85.0,349.0,0
1723891388,18.5633183,73.8332233,522.8,22.234285714285715,105,31.2,179.0,-85.0,349.0,0
1723891389,18.5633183,73.8332233,522.8,22.293333333333337,105,31.2,-179.0,-85.0,349.0,0
1723891390,18.5633183,73.8332233,522.8,22.218095238095238,105,31.2,-179.0,-84.0,350.0,0
1723891391,18.5633183,73.8332233,522.8,22.334285714285713,105,31.752380952380953,-179.0,-85.0,350.0,0
1723891392,18.5633183,73.8332233,522.8,22.18190476190476,105,31.752380952380953,-179.0,-85.0,349.0,0
1723891393,18.5633183,73.8332233,522.8,22.022857142857145,105,31.752380952380953,-179.0,-85.0,349.0,0
1723891394,18.5633183,73.8332233,522.8,22.22952380952381,105,31.37142857142857,-179.0,-84.0,349.0,0
1723891395,18.5633183,73.8332233,522.8,22.193333333333335,105,31.37142857142857,-179.0,-84.0,349.0,0
1723891396,18.5633183,73.8332233,522.8,22.31809523809524,105,31.37142857142857,-179.0,-84.0,349.0,0
1723891397,18.5633183,73.8332233,522.8,22.306666666666665,105,31.38095238095238,-179.0,-84.0,349.0,0
1723891398,18.5633183,73.8332233,522.8,22.16792452830189,106,31.169811320754718,-179.0,-85.0,349.0,0
1723891399,18.5633183,73.8332233,522.8,21.75188679245283,106,31.169811320754718,-179.0,-84.0,349.0,0
1723891400,18.5633183,73.8332233,522.8,22.106603773584908,106,30.80188679245283,-179.0,-84.0,349.0,0
1723891401,18.5633183,73.8332233,522.8,22.141509433962263,106,30.80188679245283,-179.0,-85.0,349.0,0
1723891402,18.5633183,73.8332233,522.8,21.967924528301886,106,30.80188679245283,-179.0,-84.0,349.0,0
1723891403,18.5633183,73.8332233,522.8,21.88396226415094,106,30.18867924528302,-179.0,-84.0,349.0,0
1723891404,18.5633183,73.8332233,522.8,22.017924528301887,106,30.20754716981132,-179.0,-84.0,349.0,0
1723891405,18.5633183,73.8332233,522.8,21.641509433962263,106,30.20754716981132,-179.0,-84.0,349.0,0
1723891406,18.5633183,73.8332233,522.8,22.06132075471698,106,30.20754716981132,-179.0,-84.0,349.0,0
1723891407,18.5633183,73.8332233,522.8,22.050943396226415,106,30.20754716981132,-179.0,-84.0,350.0,0
1723891408,18.5633183,73.8332233,522.8,22.330188679245282,106,30.20754716981132,-179.0,-84.0,349.0,0
1723891409,18.5633183,73.8332233,522.8,22.41132075471698,106,30.669811320754718,-179.0,-84.0,349.0,0
1723891410,18.5633183,73.8332233,522.8,22.3803738317757,107,30.523364485981308,-179.0,-84.0,349.0,0
1723891411,18.5633183,73.8332233,522.8,22.244859813084112,107,30.514018691588785,-179.0,-84.0,350.0,0
1723891412,18.5633183,73.8332233,522.8,22.620560747663554,107,31.42056074766355,-179.0,-84.0,349.0,0
1723891413,18.5633183,73.8332233,522.8,22.614018691588782,107,31.429906542056074,-179.0,-84.0,349.0,0
1723891414,18.5633183,73.8332233,522.8,22.44299065420561,107,31.429906542056074,-179.0,-84.0,349.0,0
1723891415,18.5633183,73.8332233,522.8,22.510280373831776,107,31.429906542056074,-179.0,-84.0,349.0,0
1723891416,18.5633183,73.8332233,522.8,22.385981308411218,107,31.429906542056074,-179.0,-84.0,349.0,0
1723891417,18.5633183,73.8332233,522.8,22.00467289719626,107,31.429906542056074,-179.0,-85.0,349.0,0
1723891418,18.5633183,73.8332233,522.8,22.38878504672897,107,31.261682242990656,-179.0,-84.0,349.0,0
1723891419,18.5633183,73.8332233,522.8,22.365420560747662,107,31.261682242990656,-179.0,-84.0,349.0,0
1723891420,18.5633183,73.8332233,522.8,22.375700934579438,107,31.261682242990656,-179.0,-84.0,349.0,0
1723891421,18.5633183,73.8332233,522.8,22.30747663551402,107,30.69158878504673,-179.0,-84.0,349.0,0
1723891422,18.5633183,73.8332233,522.8,22.384112149532708,107,30.682242990654206,-179.0,-84.0,349.0,0
1723891423,18.5633183,73.8332233,522.8,21.934579439252335,107,30.69158878504673,-179.0,-84.0,349.0,0
1723891424,18.5633183,73.8332233,522.8,22.55140186915888,107,30.710280373831775,-179.0,-84.0,349.0,0
1723891425,18.5633183,73.8332233,522.8,22.33551401869159,107,30.710280373831775,-179.0,-84.0,349.0,0
1723891426,18.5633183,73.8332233,522.8,22.428971962616824,107,30.710280373831775,-179.0,-84.0,349.0,0
1723891427,18.5633183,73.8332233,522.8,22.47962962962963,108,30.194444444444443,-179.0,-84.0,349.0,0
1723891428,18.5633183,73.8332233,522.8,22.33425925925926,108,30.194444444444443,-179.0,-84.0,349.0,0
1723891429,18.5633183,73.8332233,522.8,22.05185185185185,108,30.324074074074073,-179.0,-84.0,349.0,0
1723891430,18.5633183,73.8332233,522.8,22.596261682242993,107,30.35514018691589,-179.0,-84.0,349.0,0
1723891431,18.5633183,73.8332233,522.8,22.83867924528302,106,30.150943396226417,-179.0,-84.0,349.0,0
1723891432,18.5633183,73.8332233,522.8,22.82547169811321,106,30.150943396226417,-179.0,-84.0,349.0,0
1723891433,18.5633183,73.8332233,522.8,22.82358490566038,106,30.150943396226417,-179.0,-84.0,349.0,0
1723891434,18.5633183,73.8332233,522.8,22.764150943396228,106,30.150943396226417,-179.0,-84.0,349.0,0
1723891435,18.5633183,73.8332233,522.8,19.83684210526316,95,31.46315789473684,-179.0,-84.0,349.0,0
1723891436,18.5633183,73.8332233,522.8,21.459183673469386,98,31.806122448979593,-179.0,-84.0,350.0,0
1723891437,18.5633183,73.8332233,522.8,21.772,100,31.42,-179.0,-84.0,350.0,0
1723891438,18.5633183,73.8332233,522.8,21.80792079207921,101,31.198019801980198,-179.0,-84.0,349.0,0
1723891439,18.5633183,73.8332233,522.8,21.81089108910891,101,31.18811881188119,-179.0,-84.0,349.0,0
1723891440,18.5633183,73.8332233,522.8,21.975247524752476,101,31.198019801980198,-179.0,-85.0,350.0,0
1723891441,18.5633183,73.8332233,522.8,21.944554455445545,101,31.10891089108911,-179.0,-85.0,350.0,0
1723891442,18.5633183,73.8332233,522.8,22.004950495049506,101,31.10891089108911,-179.0,-84.0,350.0,0
1723891443,18.5633183,73.8332233,522.8,22.082178217821784,101,31.10891089108911,-179.0,-84.0,349.0,0
1723891444,18.5633183,73.8332233,522.8,21.993069306930696,101,31.099009900990097,-179.0,-84.0,349.0,0
1723891445,18.5633183,73.8332233,522.8,22.016831683168316,101,31.08910891089109,-179.0,-84.0,349.0,0
1723891446,18.5633183,73.8332233,522.8,21.935643564356436,101,31.08910891089109,-179.0,-85.0,349.0,0
1723891447,18.5633183,73.8332233,522.8,22.072277227722775,101,31.752475247524753,-179.0,-85.0,350.0,0
1723891448,18.5633183,73.8332233,522.8,21.883168316831682,101,31.752475247524753,-179.0,-84.0,349.0,0
1723891449,18.5633183,73.8332233,522.8,21.904950495049505,101,32.336633663366335,-179.0,-85.0,349.0,0
1723891450,18.5633183,73.8332233,522.8,21.914851485148517,101,32.91089108910891,-179.0,-85.0,349.0,0
1723891451,18.5633183,73.8332233,522.8,21.87920792079208,101,32.91089108910891,-179.0,-84.0,349.0,0
1723891452,18.5633183,73.8332233,522.8,21.821782178217823,101,32.91089108910891,179.0,-85.0,349.0,0
1723891453,18.5633183,73.8332233,522.8,21.9019801980198,101,32.91089108910891,-179.0,-84.0,349.0,0
1723891454,18.5633183,73.8332233,522.8,21.900990099009903,101,32.91089108910891,-179.0,-84.0,349.0,0
1723891455,18.5633183,73.8332233,522.8,21.78415841584158,101,32.91089108910891,-179.0,-85.0,349.0,0
1723891456,18.5633183,73.8332233,522.8,21.861386138613863,101,32.91089108910891,-179.0,-84.0,349.0,0
1723891457,18.5633183,73.8332233,522.8,21.913861386138617,101,32.772277227722775,-179.0,-85.0,349.0,0
1723891458,18.5633183,73.8332233,522.8,21.933663366336635,101,32.56435643564357,-179.0,-84.0,349.0,0
1723891459,18.5633183,73.8332233,522.8,21.9990099009901,101,32.17821782178218,-179.0,-84.0,349.0,0
1723891460,18.5633183,73.8332233,522.8,21.913861386138617,101,32.17821782178218,-179.0,-84.0,349.0,0
1723891461,18.5633183,73.8332233,522.8,21.758415841584156,101,32.17821782178218,-179.0,-84.0,350.0,0
1723891462,18.5633183,73.8332233,522.8,21.77920792079208,101,32.17821782178218,-179.0,-84.0,350.0,0
1723891463,18.5633183,73.8332233,522.8,21.785148514851485,101,32.17821782178218,-179.0,-84.0,350.0,0
1723891464,18.5633183,73.8332233,522.8,22.314851485148516,101,32.17821782178218,-179.0,-84.0,349.0,0
1723891465,18.5633183,73.8332233,522.8,22.211881188118813,101,32.17821782178218,-179.0,-85.0,349.0,0
1723891466,18.5633183,73.8332233,522.8,22.09009900990099,101,31.81188118811881,-179.0,-84.0,350.0,0
1723891467,18.5633183,73.8332233,522.8,22.143564356435643,101,31.514851485148515,-179.0,-85.0,350.0,0
1723891468,18.5633183,73.8332233,522.8,22.088118811881188,101,31.326732673267326,-179.0,-84.0,350.0,0
1723891469,18.5633183,73.8332233,522.8,22.193069306930692,101,31.326732673267326,-179.0,-84.0,350.0,0
1723891470,18.5633183,73.8332233,522.8,22.185148514851484,101,31.326732673267326,-179.0,-84.0,350.0,0
1723891471,18.5633183,73.8332233,522.8,22.30792079207921,101,31.326732673267326,-179.0,-85.0,349.0,0
1723891472,18.5633183,73.8332233,522.8,22.37920792079208,101,31.326732673267326,-179.0,-85.0,349.0,0
1723891473,18.5633183,73.8332233,522.8,22.596039603960396,101,31.336633663366335,-179.0,-84.0,349.0,0
1723891474,18.5633183,73.8332233,522.8,22.8421568627451,102,31.45098039215686,-179.0,-84.0,349.0,0
1723891475,18.5633183,73.8332233,522.8,22.83921568627451,102,31.34313725490196,-179.0,-85.0,350.0,0
1723891476,18.5633183,73.8332233,522.8,23.111764705882354,102,31.254901960784313,-179.0,-84.0,350.0,0
1723891477,18.5633183,73.8332233,522.8,23.140196078431373,102,31.254901960784313,-179.0,-84.0,350.0,0
1723891478,18.5633183,73.8332233,522.8,23.150000000000002,102,31.235294117647058,-179.0,-84.0,349.0,0
1723891479,18.5633183,73.8332233,522.8,23.16764705882353,102,31.235294117647058,-179.0,-84.0,349.0,0
1723891480,18.5633183,73.8332233,522.8,23.198039215686272,102,31.235294117647058,-179.0,-84.0,349.0,0
1723891481,18.5633183,73.8332233,522.8,23.10490196078431,102,31.235294117647058,-179.0,-85.0,349.0,0
1723891482,18.5633183,73.8332233,522.8,23.05392156862745,102,31.235294117647058,-179.0,-84.0,349.0,0
1723891483,18.5633183,73.8332233,522.8,22.754368932038833,103,31.116504854368934,-179.0,-84.0,349.0,0
1723891484,18.5633183,73.8332233,522.8,22.73106796116505,103,31.116504854368934,-179.0,-84.0,349.0,0
1723891485,18.5633183,73.8332233,522.8,22.718446601941746,103,31.116504854368934,-179.0,-84.0,349.0,0
1723891486,18.5633183,73.8332233,522.8,23.113592233009708,103,31.116504854368934,-179.0,-84.0,349.0,0
1723891487,18.5633183,73.8332233,522.8,23.00576923076923,104,30.89423076923077,-179.0,-84.0,349.0,0
1723891488,18.5633183,73.8332233,522.8,22.69519230769231,104,30.89423076923077,-179.0,-84.0,349.0,0
1723891489,18.5633183,73.8332233,522.8,22.89903846153846,104,30.89423076923077,-179.0,-84.0,349.0,0
1723891490,18.5633183,73.8332233,522.8,22.903846153846153,104,30.89423076923077,-179.0,-84.0,349.0,0
1723891491,18.5633183,73.8332233,522.8,23.072115384615383,104,30.89423076923077,-179.0,-85.0,350.0,0
1723891492,18.5633183,73.8332233,522.8,23.045192307692307,104,30.89423076923077,-179.0,-84.0,350.0,0
1723891493,18.5633183,73.8332233,522.8,22.94903846153846,104,30.89423076923077,-179.0,-84.0,350.0,0
1723891494,18.5633183,73.8332233,522.8,23.015384615384615,104,31.528846153846153,-179.0,-84.0,350.0,0
1723891495,18.5633183,73.8332233,522.8,23.039423076923075,104,31.528846153846153,-179.0,-84.0,350.0,0
1723891496,18.5633183,73.8332233,522.8,23.00769230769231,104,32.09615384615385,-179.0,-84.0,350.0,0
1723891497,18.5633183,73.8332233,522.8,23.145192307692305,104,32.09615384615385,-179.0,-84.0,350.0,0
1723891498,18.5633183,73.8332233,522.8,22.982692307692307,104,32.09615384615385,-179.0,-84.0,350.0,0
1723891499,18.5633183,73.8332233,522.8,22.889423076923077,104,32.65384615384615,-179.0,-84.0,350.0,0
1723891500,18.5633183,73.8332233,522.8,22.97378640776699,103,32.90291262135922,-179.0,-84.0,350.0,0
1723891501,18.5633183,73.8332233,522.8,22.800970873786408,103,32.90291262135922,-179.0,-84.0,350.0,0
1723891502,18.5633183,73.8332233,522.8,22.92621359223301,103,32.90291262135922,-179.0,-84.0,350.0,0
1723891503,18.5633183,73.8332233,522.8,22.837864077669906,103,32.90291262135922,-179.0,-84.0,350.0,0
1723891504,18.5633183,73.8332233,522.8,22.726923076923075,104,32.49038461538461,-179.0,-84.0,350.0,0
1723891505,18.5633183,73.8332233,522.8,22.743269230769233,104,32.27884615384615,-179.0,-84.0,350.0,0
1723891506,18.5633183,73.8332233,522.8,22.701923076923077,104,32.27884615384615,-179.0,-84.0,350.0,0
1723891507,18.5633183,73.8332233,522.8,22.914423076923075,104,32.27884615384615,-179.0,-84.0,350.0,0
1723891508,18.5633183,73.8332233,522.8,22.91826923076923,104,31.903846153846153,-179.0,-84.0,350.0,0
1723891509,18.5633183,73.8332233,522.8,22.9125,104,31.903846153846153,-179.0,-85.0,350.0,0
1723891510,18.5633183,73.8332233,522.8,22.847115384615385,104,31.903846153846153,-179.0,-84.0,350.0,0
1723891511,18.5633183,73.8332233,522.8,22.746153846153845,104,31.903846153846153,-179.0,-84.0,350.0,0
1723891512,18.5633183,73.8332233,522.8,22.66057692307692,104,31.903846153846153,-179.0,-84.0,350.0,0
1723891513,18.5633183,73.8332233,522.8,22.789423076923075,104,31.567307692307693,-179.0,-84.0,350.0,0
1723891514,18.5633183,73.8332233,522.8,22.68653846153846,104,31.298076923076923,-179.0,-84.0,350.0,0
1723891515,18.5633183,73.8332233,522.8,22.66826923076923,104,31.298076923076923,-179.0,-84.0,350.0,0
1723891516,18.5633183,73.8332233,522.8,22.65192307692308,104,31.298076923076923,-179.0,-84.0,350.0,0
1723891517,18.5633183,73.8332233,522.8,22.692307692307693,104,31.75,-179.0,-85.0,350.0,0
1723891518,18.5633183,73.8332233,522.8,22.57281553398058,103,31.97087378640777,-179.0,-84.0,350.0,0
1723891519,18.5633183,73.8332233,522.8,22.466019417475728,103,31.97087378640777,-179.0,-84.0,350.0,0
1723891520,18.5633183,73.8332233,522.8,22.391262135922332,103,31.95145631067961,-178.0,-85.0,350.0,0
1723891521,18.5633183,73.8332233,522.8,22.487378640776697,103,31.95145631067961,-179.0,-84.0,350.0,0
1723891522,18.5633183,73.8332233,522.8,22.5504854368932,103,32.41747572815534,-179.0,-84.0,350.0,0
1723891523,18.5633183,73.8332233,522.8,22.759223300970874,103,32.89320388349515,-179.0,-84.0,350.0,0
1723891524,18.5633183,73.8332233,522.8,22.624271844660196,103,32.89320388349515,-179.0,-84.0,349.0,0
1723891525,18.5633183,73.8332233,522.8,22.47766990291262,103,32.89320388349515,-179.0,-85.0,350.0,0
1723891526,18.5633183,73.8332233,522.8,22.494174757281556,103,32.728155339805824,-179.0,-84.0,350.0,0
1723891527,18.5633183,73.8332233,522.8,22.541747572815535,103,32.728155339805824,-179.0,-85.0,350.0,0
1723891528,18.5633183,73.8332233,522.8,22.877669902912622,103,32.728155339805824,-179.0,-84.0,350.0,0
1723891529,18.5633183,73.8332233,522.8,22.881553398058255,103,32.728155339805824,-179.0,-84.0,350.0,0
1723891530,18.5633183,73.8332233,522.8,22.845631067961165,103,32.728155339805824,-179.0,-84.0,350.0,0
1723891531,18.5633183,73.8332233,522.8,22.915533980582527,103,32.51456310679612,-179.0,-84.0,350.0,0
1723891532,18.5633183,73.8332233,522.8,22.853398058252427,103,32.51456310679612,-179.0,-84.0,350.0,0
1723891533,18.5633183,73.8332233,522.8,22.82621359223301,103,32.13592233009709,-179.0,-84.0,350.0,0
1723891534,18.5633183,73.8332233,522.8,22.707766990291262,103,32.13592233009709,-179.0,-84.0,350.0,0
1723891535,18.5633183,73.8332233,522.8,22.67378640776699,103,31.75728155339806,-179.0,-85.0,350.0,0
1723891536,18.5633183,73.8332233,522.8,22.799029126213593,103,31.776699029126213,-179.0,-84.0,350.0,0
1723891537,18.5633183,73.8332233,522.8,22.84368932038835,103,31.776699029126213,-179.0,-84.0,350.0,0
1723891538,18.5633183,73.8332233,522.8,22.898058252427184,103,31.75728155339806,-179.0,-84.0,350.0,0
1723891539,18.5633183,73.8332233,522.8,22.910679611650487,103,31.75728155339806,-179.0,-85.0,350.0,0
1723891540,18.5633183,73.8332233,522.8,22.861165048543686,103,31.485436893203882,-179.0,-84.0,350.0,0
1723891541,18.5633183,73.8332233,522.8,22.966990291262135,103,31.466019417475728,-179.0,-84.0,350.0,0
1723891542,18.5633183,73.8332233,522.8,22.92718446601942,103,31.446601941747574,-179.0,-84.0,350.0,0
1723891543,18.5633183,73.8332233,522.8,23.009708737864077,103,31.262135922330096,-179.0,-84.0,350.0,0
1723891544,18.5633183,73.8332233,522.8,22.961165048543688,103,31.155339805825243,-179.0,-84.0,350.0,0
1723891545,18.5633183,73.8332233,522.8,22.910679611650487,103,31.155339805825243,-179.0,-84.0,350.0,0
1723891546,18.5633183,73.8332233,522.8,22.847572815533983,103,31.155339805825243,-179.0,-84.0,350.0,0
1723891547,18.5633183,73.8332233,522.8,22.86990291262136,103,31.155339805825243,-179.0,-84.0,350.0,0
1723891548,18.5633183,73.8332233,522.8,22.696116504854366,103,31.155339805825243,-179.0,-84.0,350.0,0
1723891549,18.5633183,73.8332233,522.8,22.90388349514563,103,31.145631067961165,-179.0,-84.0,350.0,0
1723891550,18.5633183,73.8332233,522.8,22.42718446601942,103,31.058252427184467,-179.0,-84.0,349.0,0
1723891551,18.5633183,73.8332233,522.8,22.668932038834953,103,31.058252427184467,-179.0,-84.0,350.0,0
1723891552,18.5633183,73.8332233,522.8,22.721359223300972,103,31.058252427184467,-179.0,-84.0,350.0,0
1723891553,18.5633183,73.8332233,522.8,22.815533980582526,103,31.058252427184467,-179.0,-84.0,349.0,0
1723891554,18.5633183,73.8332233,522.8,22.961165048543688,103,31.067961165048544,-179.0,-84.0,350.0,0
1723891555,18.5633183,73.8332233,522.8,22.950485436893207,103,31.067961165048544,-179.0,-84.0,350.0,0
1723891556,18.5633183,73.8332233,522.8,23.018446601941747,103,32.28155339805825,-179.0,-84.0,350.0,0
1723891557,18.5633183,73.8332233,522.8,22.916504854368934,103,32.28155339805825,-179.0,-84.0,350.0,0
1723891558,18.5633183,73.8332233,522.8,22.94466019417476,103,32.28155339805825,-179.0,-84.0,350.0,0
1723891559,18.5633183,73.8332233,522.8,22.827184466019414,103,32.262135922330096,-179.0,-84.0,350.0,0
1723891560,18.5633183,73.8332233,522.8,22.897087378640776,103,32.24271844660194,-179.0,-84.0,349.0,0
1723891561,18.5633183,73.8332233,522.8,22.778640776699028,103,32.22330097087379,-179.0,-84.0,350.0,0
1723891562,18.5633183,73.8332233,522.8,22.933009708737863,103,32.786407766990294,-179.0,-84.0,350.0,0
1723891563,18.5633183,73.8332233,522.8,22.909708737864076,103,32.786407766990294,-179.0,-84.0,350.0,0
1723891564,18.5633183,73.8332233,522.8,22.919417475728153,103,32.786407766990294,-179.0,-84.0,350.0,0
1723891565,18.5633183,73.8332233,522.8,22.666019417475727,103,32.398058252427184,-179.0,-84.0,350.0,0
1723891566,18.5633183,73.8332233,522.8,22.818446601941748,103,32.398058252427184,-179.0,-84.0,350.0,0
1723891567,18.5633183,73.8332233,522.8,23.06407766990291,103,32.398058252427184,-179.0,-84.0,350.0,0
1723891568,18.5633183,73.8332233,522.8,23.088349514563106,103,32.398058252427184,-179.0,-84.0,350.0,0
1723891569,18.5633183,73.8332233,522.8,23.07864077669903,103,32.398058252427184,-178.0,-84.0,350.0,0
1723891570,18.5633183,73.8332233,522.8,23.05242718446602,103,32.398058252427184,-178.0,-84.0,350.0,0
1723891571,18.5633183,73.8332233,522.8,22.997087378640774,103,32.019417475728154,-178.0,-84.0,350.0,0
1723891572,18.5633183,73.8332233,522.8,23.117475728155338,103,32.019417475728154,-178.0,-84.0,350.0,0
1723891573,18.5633183,73.8332233,522.8,23.15825242718447,103,32.029126213592235,-178.0,-85.0,350.0,0
1723891574,18.5633183,73.8332233,522.8,23.175728155339804,103,32.029126213592235,-179.0,-84.0,350.0,0
1723891575,18.5633183,73.8332233,522.8,23.076699029126214,103,31.398058252427184,-179.0,-84.0,350.0,0
1723891576,18.5633183,73.8332233,522.8,23.30776699029126,103,31.398058252427184,-179.0,-84.0,350.0,0
1723891577,18.5633183,73.8332233,522.8,23.43495145631068,103,31.398058252427184,-179.0,-84.0,350.0,0
1723891578,18.5633183,73.8332233,522.8,23.37403846153846,104,31.10576923076923,-179.0,-84.0,350.0,0
1723891579,18.5633183,73.8332233,522.8,23.36923076923077,104,31.10576923076923,-179.0,-84.0,350.0,0
1723891580,18.5633183,73.8332233,522.8,23.310576923076926,104,30.942307692307693,-179.0,-85.0,350.0,0
1723891581,18.5633183,73.8332233,522.8,23.29423076923077,104,30.942307692307693,-179.0,-85.0,350.0,0
1723891582,18.5633183,73.8332233,522.8,23.25,104,30.942307692307693,-179.0,-85.0,350.0,0
1723891583,18.5633183,73.8332233,522.8,23.02857142857143,105,30.65714285714286,-179.0,-85.0,350.0,0
1723891584,18.5633183,73.8332233,522.8,23.048571428571428,105,30.466666666666665,-179.0,-85.0,350.0,0
1723891585,18.5633183,73.8332233,522.8,23.086666666666666,105,30.466666666666665,-178.0,-85.0,350.0,0
1723891586,18.5633183,73.8332233,522.8,23.031428571428574,105,30.466666666666665,-179.0,-85.0,350.0,0
1723891587,18.5633183,73.8332233,522.8,23.11714285714286,105,30.466666666666665,-179.0,-85.0,350.0,0
1723891588,18.5633183,73.8332233,522.8,23.086666666666666,105,30.466666666666665,-179.0,-85.0,350.0,0
1723891589,18.5633183,73.8332233,522.8,22.942857142857143,105,30.466666666666665,-179.0,-85.0,350.0,0
1723891590,18.5633183,73.8332233,522.8,23.00095238095238,105,30.476190476190474,-179.0,-85.0,350.0,0
1723891591,18.5633183,73.8332233,522.8,23.132380952380952,105,30.476190476190474,-179.0,-85.0,350.0,0
1723891592,18.5633183,73.8332233,522.8,23.085714285714285,105,30.476190476190474,-179.0,-85.0,350.0,0
1723891593,18.5633183,73.8332233,522.8,22.913333333333334,105,30.476190476190474,-179.0,-85.0,350.0,0
1723891594,18.5633183,73.8332233,522.8,22.966666666666665,105,30.476190476190474,-179.0,-85.0,350.0,0
1723891595,18.5633183,73.8332233,522.8,23.071428571428573,105,30.476190476190474,-179.0,-85.0,350.0,0
1723891596,18.5633183,73.8332233,522.8,22.893333333333334,105,30.476190476190474,-179.0,-85.0,350.0,0
1723891597,18.5633183,73.8332233,522.8,23.002857142857145,105,30.476190476190474,-179.0,-85.0,350.0,0
1723891598,18.5633183,73.8332233,522.8,22.912380952380953,105,30.466666666666665,-179.0,-85.0,350.0,0
1723891599,18.5633183,73.8332233,522.8,22.87333333333333,105,30.466666666666665,-179.0,-85.0,350.0,0
1723891600,18.5633183,73.8332233,522.8,22.85333333333333,105,30.476190476190474,-179.0,-85.0,350.0,0
1723891601,18.5633183,73.8332233,522.8,22.941904761904762,105,30.476190476190474,-179.0,-85.0,350.0,0
1723891602,18.5633183,73.8332233,522.8,22.837142857142858,105,30.476190476190474,-179.0,-85.0,350.0,0
1723891603,18.5633183,73.8332233,522.8,23.08285714285714,105,30.466666666666665,-179.0,-85.0,350.0,0
1723891604,18.5633183,73.8332233,522.8,23.050476190476193,105,30.457142857142856,-179.0,-85.0,350.0,0
1723891605,18.5633183,73.8332233,522.8,23.015238095238093,105,31.523809523809526,-179.0,-85.0,350.0,0
1723891606,18.5633183,73.8332233,522.8,23.02,105,31.523809523809526,-179.0,-85.0,350.0,0
1723891607,18.5633183,73.8332233,522.8,23.116190476190475,105,31.523809523809526,-179.0,-85.0,350.0,0
1723891608,18.5633183,73.8332233,522.8,23.09142857142857,105,31.523809523809526,-179.0,-85.0,350.0,0
1723891609,18.5633183,73.8332233,522.8,23.10857142857143,105,31.523809523809526,-179.0,-85.0,350.0,0
1723891610,18.5633183,73.8332233,522.8,23.087619047619047,105,31.523809523809526,-179.0,-85.0,350.0,0
1723891611,18.5633183,73.8332233,522.8,23.080000000000002,105,32.076190476190476,-179.0,-85.0,350.0,0
1723891612,18.5633183,73.8332233,522.8,23.04,105,32.076190476190476,-179.0,-85.0,350.0,0
1723891613,18.5633183,73.8332233,522.8,23.19142857142857,105,32.076190476190476,-179.0,-85.0,350.0,0
1723891614,18.5633183,73.8332233,522.8,23.177142857142858,105,32.076190476190476,-179.0,-85.0,350.0,0
1723891615,18.5633183,73.8332233,522.8,23.067619047619047,105,31.695238095238096,-179.0,-85.0,350.0,0
1723891616,18.5633183,73.8332233,522.8,23.042857142857144,105,31.695238095238096,-179.0,-85.0,350.0,0
1723891617,18.5633183,73.8332233,522.8,22.98190476190476,105,31.695238095238096,-179.0,-85.0,350.0,0
1723891618,18.5633183,73.8332233,522.8,23.26952380952381,105,31.685714285714287,-179.0,-85.0,350.0,0
1723891619,18.5633183,73.8332233,522.8,23.231428571428573,105,31.685714285714287,-179.0,-85.0,350.0,0
1723891620,18.5633183,73.8332233,522.8,23.20384615384615,104,31.807692307692307,-179.0,-85.0,350.0,0
1723891621,18.5633183,73.8332233,522.8,23.099038461538463,104,31.432692307692307,-179.0,-85.0,350.0,0
1723891622,18.5633183,73.8332233,522.8,23.07238095238095,105,31.314285714285713,-179.0,-85.0,350.0,0
1723891623,18.5633183,73.8332233,522.8,23.08942307692308,104,31.432692307692307,-179.0,-85.0,350.0,0
1723891624,18.5633183,73.8332233,522.8,23.05428571428571,105,31.314285714285713,-179.0,-85.0,350.0,0
1723891625,18.5633183,73.8332233,522.8,22.895238095238096,105,30.695238095238096,-179.0,-85.0,350.0,0
1723891626,18.5633183,73.8332233,522.8,22.846666666666668,105,30.695238095238096,-179.0,-85.0,350.0,0
1723891627,18.5633183,73.8332233,522.8,22.933333333333334,105,30.695238095238096,-179.0,-85.0,350.0,0
1723891628,18.5633183,73.8332233,522.8,22.835238095238093,105,30.695238095238096,-179.0,-85.0,350.0,0
1723891629,18.5633183,73.8332233,522.8,22.795238095238094,105,30.695238095238096,-179.0,-85.0,350.0,0
1723891630,18.5633183,73.8332233,522.8,22.850476190476193,105,30.695238095238096,-179.0,-85.0,350.0,0
1723891631,18.5633183,73.8332233,522.8,22.777142857142856,105,31.142857142857142,-179.0,-85.0,350.0,0
1723891632,18.5633183,73.8332233,522.8,23.042857142857144,105,31.142857142857142,-179.0,-85.0,350.0,0
1723891633,18.5633183,73.8332233,522.8,22.964761904761907,105,31.16190476190476,-179.0,-85.0,350.0,0
1723891634,18.5633183,73.8332233,522.8,22.989423076923078,104,32.22115384615385,-179.0,-85.0,350.0,0
1723891635,18.5633183,73.8332233,522.8,22.927884615384617,104,32.20192307692308,-179.0,-85.0,350.0,0
1723891636,18.5633183,73.8332233,522.8,23.00769230769231,104,32.20192307692308,-179.0,-85.0,350.0,0
1723891637,18.5633183,73.8332233,522.8,22.99047619047619,105,32.076190476190476,-179.0,-85.0,350.0,0
1723891638,18.5633183,73.8332233,522.8,23.178095238095235,105,32.076190476190476,-179.0,-85.0,350.0,0
1723891639,18.5633183,73.8332233,522.8,23.024761904761903,105,32.076190476190476,-179.0,-85.0,350.0,0
1723891640,18.5633183,73.8332233,522.8,23.104761904761904,105,32.076190476190476,-179.0,-85.0,350.0,0
1723891641,18.5633183,73.8332233,522.8,23.123809523809523,105,31.904761904761905,-179.0,-84.0,350.0,0
1723891642,18.5633183,73.8332233,522.8,23.040952380952383,105,31.914285714285715,-179.0,-84.0,350.0,0
1723891643,18.5633183,73.8332233,522.8,23.057142857142857,105,31.333333333333332,-179.0,-84.0,350.0,0
1723891644,18.5633183,73.8332233,522.8,23.04952380952381,105,31.333333333333332,-179.0,-84.0,350.0,0
1723891645,18.5633183,73.8332233,522.8,23.08190476190476,105,31.333333333333332,-179.0,-84.0,350.0,0
1723891646,18.5633183,73.8332233,522.8,23.021904761904764,105,31.333333333333332,-179.0,-84.0,350.0,0
1723891647,18.5633183,73.8332233,522.8,23.078095238095237,105,31.314285714285713,-179.0,-84.0,350.0,0
1723891648,18.5633183,73.8332233,522.8,22.897142857142857,105,31.295238095238094,-179.0,-84.0,350.0,0
1723891649,18.5633183,73.8332233,522.8,23.004761904761907,105,31.295238095238094,-179.0,-84.0,350.0,0
1723891650,18.5633183,73.8332233,522.8,23.005714285714284,105,30.942857142857143,-179.0,-84.0,350.0,0
1723891651,18.5633183,73.8332233,522.8,23.00952380952381,105,30.961904761904762,-178.0,-85.0,350.0,0
1723891652,18.5633183,73.8332233,522.8,22.90857142857143,105,30.495238095238093,-178.0,-84.0,350.0,0
1723891653,18.5633183,73.8332233,522.8,22.88095238095238,105,30.495238095238093,-179.0,-85.0,350.0,0
1723891654,18.5633183,73.8332233,522.8,22.9,105,30.476190476190474,-179.0,-85.0,350.0,0
1723891655,18.5633183,73.8332233,522.8,22.885714285714286,105,30.476190476190474,-178.0,-84.0,350.0,0
1723891656,18.5633183,73.8332233,522.8,22.85333333333333,105,30.476190476190474,-179.0,-85.0,350.0,0
1723891657,18.5633183,73.8332233,522.8,22.743809523809524,105,30.476190476190474,-179.0,-85.0,350.0,0
1723891658,18.5633183,73.8332233,522.8,22.706666666666663,105,30.476190476190474,-179.0,-84.0,350.0,0
1723891659,18.5633183,73.8332233,522.8,22.69047619047619,105,30.37142857142857,-179.0,-85.0,350.0,0
1723891660,18.5633183,73.8332233,522.8,22.535849056603777,106,30.169811320754718,-179.0,-84.0,350.0,0
1723891661,18.5633183,73.8332233,522.8,22.53018867924528,106,30.08490566037736,-179.0,-84.0,350.0,0
1723891662,18.5633183,73.8332233,522.8,22.543396226415094,106,30.08490566037736,-179.0,-85.0,350.0,0
1723891663,18.5633183,73.8332233,522.8,22.61320754716981,106,30.08490566037736,-179.0,-85.0,350.0,0
1723891664,18.5633183,73.8332233,522.8,22.69056603773585,106,30.08490566037736,-179.0,-84.0,350.0,0
1723891665,18.5633183,73.8332233,522.8,22.67735849056604,106,30.07547169811321,-179.0,-84.0,350.0,0
1723891666,18.5633183,73.8332233,522.8,22.597169811320757,106,30.08490566037736,-179.0,-84.0,350.0,0
1723891667,18.5633183,73.8332233,522.8,22.775471698113204,106,30.71698113207547,-179.0,-85.0,350.0,0
1723891668,18.5633183,73.8332233,522.8,22.545283018867927,106,30.71698113207547,-179.0,-85.0,350.0,0
1723891669,18.5633183,73.8332233,522.8,22.616981132075473,106,30.71698113207547,-179.0,-84.0,350.0,0
1723891670,18.5633183,73.8332233,522.8,22.703773584905658,106,30.71698113207547,-179.0,-84.0,350.0,0
1723891671,18.5633183,73.8332233,522.8,22.64433962264151,106,31.82075471698113,-179.0,-84.0,350.0,0
1723891672,18.5633183,73.8332233,522.8,22.59245283018868,106,31.82075471698113,-178.0,-85.0,350.0,0
1723891673,18.5633183,73.8332233,522.8,22.68190476190476,105,31.78095238095238,-179.0,-85.0,350.0,0
1723891674,18.5633183,73.8332233,522.8,22.741904761904763,105,31.78095238095238,-179.0,-84.0,350.0,0
1723891675,18.5633183,73.8332233,522.8,22.61714285714286,105,31.78095238095238,-179.0,-85.0,350.0,0
1723891676,18.5633183,73.8332233,522.8,22.762857142857143,105,31.60952380952381,-179.0,-84.0,350.0,0
1723891677,18.5633183,73.8332233,522.8,22.79904761904762,105,31.60952380952381,-179.0,-85.0,350.0,0
1723891678,18.5633183,73.8332233,522.8,22.621904761904762,105,31.60952380952381,-179.0,-85.0,350.0,0
1723891679,18.5633183,73.8332233,522.8,22.585714285714285,105,31.60952380952381,-179.0,-85.0,350.0,0
1723891680,18.5633183,73.8332233,522.8,22.704761904761906,105,31.02857142857143,-179.0,-85.0,350.0,0
1723891681,18.5633183,73.8332233,522.8,22.724761904761905,105,31.02857142857143,-179.0,-85.0,350.0,0
1723891682,18.5633183,73.8332233,522.8,22.70190476190476,105,31.02857142857143,-179.0,-85.0,350.0,0
1723891683,18.5633183,73.8332233,522.8,22.558653846153845,104,31.240384615384617,-179.0,-85.0,350.0,0
1723891684,18.5633183,73.8332233,522.8,22.47142857142857,105,31.02857142857143,-179.0,-84.0,350.0,0
1723891685,18.5633183,73.8332233,522.8,22.69142857142857,105,30.676190476190477,-179.0,-85.0,350.0,0
1723891686,18.5633183,73.8332233,522.8,22.66952380952381,105,30.676190476190477,-179.0,-85.0,350.0,0
1723891687,18.5633183,73.8332233,522.8,22.60095238095238,105,30.676190476190477,-179.0,-85.0,350.0,0
1723891688,18.5633183,73.8332233,522.8,22.63714285714286,105,30.676190476190477,-179.0,-84.0,350.0,0
1723891689,18.5633183,73.8332233,522.8,22.496190476190474,105,30.247619047619047,-179.0,-85.0,350.0,0
1723891690,18.5633183,73.8332233,522.8,22.559047619047618,105,30.257142857142856,-179.0,-85.0,350.0,0
1723891691,18.5633183,73.8332233,522.8,22.452380952380953,105,30.257142857142856,-179.0,-85.0,350.0,0
1723891692,18.5633183,73.8332233,522.8,22.49809523809524,105,30.257142857142856,-179.0,-85.0,350.0,0
1723891693,18.5633183,73.8332233,522.8,22.369523809523812,105,30.257142857142856,-179.0,-85.0,350.0,0
1723891694,18.5633183,73.8332233,522.8,22.403809523809525,105,30.152380952380952,-179.0,-85.0,350.0,0
1723891695,18.5633183,73.8332233,522.8,22.52358490566038,106,30.20754716981132,-179.0,-84.0,350.0,0
1723891696,18.5633183,73.8332233,522.8,22.345283018867924,106,30.18867924528302,-179.0,-84.0,350.0,0
1723891697,18.5633183,73.8332233,522.8,22.349056603773583,106,30.18867924528302,-179.0,-84.0,350.0,0
1723891698,18.5633183,73.8332233,522.8,22.447169811320755,106,30.18867924528302,-179.0,-84.0,350.0,0
1723891699,18.5633183,73.8332233,522.8,22.59433962264151,106,30.10377358490566,-179.0,-84.0,350.0,0
1723891700,18.5633183,73.8332233,522.8,22.53301886792453,106,30.10377358490566,-179.0,-84.0,350.0,0
1723891701,18.5633183,73.8332233,522.8,22.483962264150946,106,30.10377358490566,-179.0,-84.0,350.0,0
1723891702,18.5633183,73.8332233,522.8,22.616981132075473,106,30.11320754716981,-179.0,-84.0,350.0,0
1723891703,18.5633183,73.8332233,522.8,22.662264150943393,106,30.11320754716981,-179.0,-84.0,350.0,0
1723891704,18.5633183,73.8332233,522.8,22.7,106,30.11320754716981,-179.0,-84.0,350.0,0
1723891705,18.5633183,73.8332233,522.8,22.87333333333333,105,30.314285714285713,-179.0,-84.0,350.0,0
1723891706,18.5633183,73.8332233,522.8,22.69811320754717,106,30.11320754716981,-179.0,-84.0,350.0,0
1723891707,18.5633183,73.8332233,522.8,22.88190476190476,105,30.047619047619047,-179.0,-84.0,350.0,0
1723891708,18.5633183,73.8332233,522.8,22.792380952380952,105,30.047619047619047,-179.0,-85.0,350.0,0
1723891709,18.5633183,73.8332233,522.8,22.90192307692308,104,30.25,-179.0,-84.0,350.0,0
1723891710,18.5633183,73.8332233,522.8,22.86923076923077,104,30.25,-179.0,-85.0,350.0,0
1723891711,18.5633183,73.8332233,522.8,22.915238095238095,105,30.047619047619047,-179.0,-85.0,350.0,0
1723891712,18.5633183,73.8332233,522.8,22.90095238095238,105,30.066666666666666,-179.0,-84.0,350.0,0
1723891713,18.5633183,73.8332233,522.8,22.831428571428575,105,30.695238095238096,-179.0,-85.0,350.0,0
1723891714,18.5633183,73.8332233,522.8,22.78952380952381,105,30.685714285714287,-179.0,-84.0,350.0,0
1723891715,18.5633183,73.8332233,522.8,22.759047619047617,105,30.685714285714287,-179.0,-84.0,350.0,0
1723891716,18.5633183,73.8332233,522.8,22.908653846153847,104,30.89423076923077,-179.0,-84.0,350.0,0
1723891717,18.5633183,73.8332233,522.8,22.909615384615385,104,31.451923076923077,-179.0,-84.0,350.0,0
1723891718,18.5633183,73.8332233,522.8,22.845192307692308,104,31.451923076923077,-179.0,-84.0,350.0,0
1723891719,18.5633183,73.8332233,522.8,22.990384615384617,104,32.00961538461539,-179.0,-84.0,350.0,0
1723891720,18.5633183,73.8332233,522.8,22.800970873786408,103,32.14563106796116,-179.0,-84.0,350.0,0
1723891721,18.5633183,73.8332233,522.8,22.874285714285715,105,32.04761904761905,-179.0,-84.0,350.0,0
1723891722,18.5633183,73.8332233,522.8,22.75428571428571,105,31.876190476190477,-179.0,-84.0,350.0,0
1723891723,18.5633183,73.8332233,522.8,22.822857142857142,105,31.876190476190477,-179.0,-84.0,350.0,0
1723891724,18.5633183,73.8332233,522.8,22.89142857142857,105,31.876190476190477,-179.0,-84.0,350.0,0
1723891725,18.5633183,73.8332233,522.8,22.86285714285714,105,31.876190476190477,-179.0,-84.0,350.0,0
1723891726,18.5633183,73.8332233,522.8,22.902857142857144,105,31.876190476190477,-179.0,-84.0,350.0,0
1723891727,18.5633183,73.8332233,522.8,22.868269230769233,104,31.625,-179.0,-84.0,350.0,0
1723891728,18.5633183,73.8332233,522.8,22.859615384615385,104,31.25,-179.0,-84.0,350.0,0
1723891729,18.5633183,73.8332233,522.8,22.88076923076923,104,31.25,-179.0,-84.0,350.0,0
1723891730,18.5633183,73.8332233,522.8,22.515238095238093,105,31.295238095238094,-179.0,-84.0,350.0,0
1723891731,18.5633183,73.8332233,522.8,22.71047619047619,105,30.942857142857143,-179.0,-84.0,350.0,0
1723891732,18.5633183,73.8332233,522.8,22.656190476190478,105,30.942857142857143,-179.0,-84.0,350.0,0
1723891733,18.5633183,73.8332233,522.8,22.761904761904763,105,30.942857142857143,-179.0,-84.0,350.0,0
1723891734,18.5633183,73.8332233,522.8,22.58857142857143,105,30.942857142857143,-179.0,-84.0,350.0,0
1723891735,18.5633183,73.8332233,522.8,22.815238095238094,105,30.923809523809524,-179.0,-85.0,350.0,0
1723891736,18.5633183,73.8332233,522.8,22.74,105,30.61904761904762,-179.0,-84.0,350.0,0
1723891737,18.5633183,73.8332233,522.8,22.846666666666668,105,31.047619047619047,-179.0,-84.0,350.0,0
1723891738,18.5633183,73.8332233,522.8,22.833333333333332,105,31.047619047619047,-179.0,-84.0,350.0,0
1723891739,18.5633183,73.8332233,522.8,22.548571428571428,105,31.047619047619047,-179.0,-84.0,350.0,0
1723891740,18.5633183,73.8332233,522.8,22.473333333333333,105,31.504761904761907,-179.0,-84.0,350.0,0
1723891741,18.5633183,73.8332233,522.8,22.725714285714282,105,31.504761904761907,-179.0,-84.0,350.0,0
1723891742,18.5633183,73.8332233,522.8,22.662857142857142,105,31.504761904761907,-179.0,-84.0,350.0,0
1723891743,18.5633183,73.8332233,522.8,22.664761904761907,105,31.504761904761907,-179.0,-85.0,350.0,0
1723891744,18.5633183,73.8332233,522.8,22.84952380952381,105,31.504761904761907,-179.0,-84.0,350.0,0
1723891745,18.5633183,73.8332233,522.8,23.024761904761903,105,31.97142857142857,-179.0,-84.0,350.0,0
1723891746,18.5633183,73.8332233,522.8,22.91142857142857,105,31.8,-179.0,-84.0,350.0,0
1723891747,18.5633183,73.8332233,522.8,22.939999999999998,105,31.8,-179.0,-84.0,350.0,0
1723891748,18.5633183,73.8332233,522.8,22.902857142857144,105,31.8,-179.0,-85.0,350.0,0
1723891749,18.5633183,73.8332233,522.8,22.71904761904762,105,31.6,-179.0,-84.0,350.0,0
1723891750,18.5633183,73.8332233,522.8,22.619811320754714,106,31.38679245283019,-179.0,-84.0,350.0,0
1723891751,18.5633183,73.8332233,522.8,22.678301886792454,106,31.38679245283019,-179.0,-85.0,349.0,0
1723891752,18.5633183,73.8332233,522.8,22.68867924528302,106,31.38679245283019,-179.0,-85.0,350.0,0
1723891753,18.5633183,73.8332233,522.8,22.64433962264151,106,31.38679245283019,-179.0,-84.0,350.0,0
1723891754,18.5633183,73.8332233,522.8,22.684905660377357,106,31.38679245283019,-179.0,-84.0,350.0,0
1723891755,18.5633183,73.8332233,522.8,22.516981132075472,106,30.669811320754718,-179.0,-84.0,350.0,0
1723891756,18.5633183,73.8332233,522.8,22.618867924528303,106,30.669811320754718,-179.0,-84.0,350.0,0
1723891757,18.5633183,73.8332233,522.8,22.489719626168224,107,30.411214953271028,-179.0,-84.0,350.0,0
1723891758,18.5633183,73.8332233,522.8,22.560747663551403,107,30.149532710280372,-179.0,-84.0,350.0,0
1723891759,18.5633183,73.8332233,522.8,22.505607476635515,107,30.1588785046729,-179.0,-84.0,350.0,0
1723891760,18.5633183,73.8332233,522.8,22.406542056074766,107,30.1588785046729,-179.0,-84.0,350.0,0
1723891761,18.5633183,73.8332233,522.8,22.565420560747665,107,30.1588785046729,-179.0,-84.0,350.0,0
1723891762,18.5633183,73.8332233,522.8,22.588785046728972,107,30.1588785046729,-179.0,-84.0,350.0,0
1723891763,18.5633183,73.8332233,522.8,22.372897196261682,107,30.149532710280372,-179.0,-84.0,350.0,0
1723891764,18.5633183,73.8332233,522.8,22.52523364485981,107,29.869158878504674,-179.0,-84.0,350.0,0
1723891765,18.5633183,73.8332233,522.8,22.365420560747662,107,29.878504672897197,-179.0,-85.0,350.0,0
1723891766,18.5633183,73.8332233,522.8,22.410280373831778,107,29.878504672897197,-179.0,-85.0,350.0,0
1723891767,18.5633183,73.8332233,522.8,22.432710280373833,107,29.794392523364486,-179.0,-84.0,350.0,0
1723891768,18.5633183,73.8332233,522.8,22.68878504672897,107,29.794392523364486,-179.0,-84.0,350.0,0
1723891769,18.5633183,73.8332233,522.8,22.697196261682244,107,29.794392523364486,-179.0,-84.0,350.0,0
1723891770,18.5633183,73.8332233,522.8,22.645794392523364,107,29.794392523364486,-179.0,-84.0,350.0,0
1723891771,18.5633183,73.8332233,522.8,22.675700934579442,107,29.794392523364486,-179.0,-85.0,350.0,0
1723891772,18.5633183,73.8332233,522.8,22.54392523364486,107,29.794392523364486,-179.0,-85.0,350.0,0
1723891773,18.5633183,73.8332233,522.8,22.708411214953273,107,29.794392523364486,-179.0,-84.0,350.0,0
1723891774,18.5633183,73.8332233,522.8,22.588785046728972,107,29.785046728971963,-179.0,-84.0,350.0,0
1723891775,18.5633183,73.8332233,522.8,22.572897196261685,107,29.794392523364486,-179.0,-85.0,350.0,0
1723891776,18.5633183,73.8332233,522.8,22.763551401869158,107,30.981308411214954,-179.0,-84.0,350.0,0
1723891777,18.5633183,73.8332233,522.8,22.64766355140187,107,30.981308411214954,-179.0,-85.0,350.0,0
1723891778,18.5633183,73.8332233,522.8,22.705607476635514,107,30.981308411214954,-179.0,-84.0,350.0,0
1723891779,18.5633183,73.8332233,522.8,22.61214953271028,107,30.97196261682243,-179.0,-85.0,350.0,0
1723891780,18.5633183,73.8332233,522.8,22.557943925233644,107,31.50467289719626,-179.0,-84.0,350.0,0
1723891781,18.5633183,73.8332233,522.8,22.578504672897196,107,31.514018691588785,-179.0,-85.0,349.0,0
1723891782,18.5633183,73.8332233,522.8,22.570093457943926,107,31.514018691588785,-179.0,-84.0,350.0,0
1723891783,18.5633183,73.8332233,522.8,22.515887850467287,107,31.514018691588785,-179.0,-85.0,350.0,0
1723891784,18.5633183,73.8332233,522.8,22.54392523364486,107,31.514018691588785,-179.0,-85.0,350.0,0
1723891785,18.5633183,73.8332233,522.8,22.588785046728972,107,31.514018691588785,-179.0,-84.0,350.0,0
1723891786,18.5633183,73.8332233,522.8,22.585849056603774,106,31.264150943396228,-179.0,-85.0,349.0,0
1723891787,18.5633183,73.8332233,522.8,22.547663551401868,107,31.14018691588785,-179.0,-85.0,350.0,0
1723891788,18.5633183,73.8332233,522.8,22.550467289719627,107,31.14018691588785,-179.0,-85.0,349.0,0
1723891789,18.5633183,73.8332233,522.8,22.45140186915888,107,31.14018691588785,-179.0,-85.0,350.0,0
1723891790,18.5633183,73.8332233,522.8,22.53177570093458,107,30.77570093457944,-179.0,-84.0,350.0,0
1723891791,18.5633183,73.8332233,522.8,22.755140186915888,107,30.766355140186917,-179.0,-85.0,349.0,0
1723891792,18.5633183,73.8332233,522.8,22.522429906542058,107,30.766355140186917,-179.0,-85.0,349.0,0
1723891793,18.5633183,73.8332233,522.8,22.484112149532713,107,30.757009345794394,-179.0,-84.0,349.0,0
1723891794,18.5633183,73.8332233,522.8,22.485981308411215,107,30.747663551401867,-179.0,-84.0,350.0,0
1723891795,18.5633183,73.8332233,522.8,22.437383177570094,107,30.149532710280372,-179.0,-84.0,349.0,0
1723891796,18.5633183,73.8332233,522.8,22.53679245283019,106,30.358490566037737,-179.0,-85.0,349.0,0
1723891797,18.5633183,73.8332233,522.8,22.50467289719626,107,30.130841121495326,-179.0,-85.0,350.0,0
