timestamp,latitude,longitude,altitude,mean_snr,sat_count,mean_elevation,roll,pitch,yaw,is_inclined
1724590229,18.56328,73.833225,528.9,,0,,-132.0,-87.0,38.0,0
1724590230,18.5632785,73.8332445,528.9,20.593023255813954,86,31.976744186046513,-127.0,-87.0,43.0,0
1724590231,18.5632783333,73.8332466667,523.4,21.06860465116279,86,31.976744186046513,-121.0,-87.0,49.0,0
1724590232,18.5632783,73.8332468,523.4,,0,,-117.0,-88.0,53.0,0
1724590233,18.5632784,73.8332467,523.4,21.167441860465118,86,31.976744186046513,-114.0,-88.0,56.0,0
1724590234,18.5632783,73.8332467,523.4,21.745348837209303,86,31.976744186046513,-114.0,-88.0,56.0,0
1724590235,18.5632784,73.8332469,523.4,21.75232558139535,86,31.976744186046513,-112.0,-88.0,58.0,0
1724590236,18.5632783,73.8332467,523.4,22.541379310344826,87,32.44827586206897,-112.0,-88.0,58.0,0
1724590237,18.5632783,73.8332467,523.4,22.79770114942529,87,32.44827586206897,-111.0,-88.0,59.0,0
1724590238,18.5632783,73.8332467,523.4,22.85287356321839,87,32.44827586206897,-111.0,-88.0,59.0,0
1724590239,18.5632783,73.8332467,523.4,23.29887640449438,89,32.60674157303371,-110.0,-88.0,60.0,0
1724590240,18.5632783,73.8332467,523.4,23.188764044943824,89,32.359550561797754,-109.0,-88.0,61.0,0
1724590241,18.5632783,73.8332467,523.4,23.376404494382022,89,32.359550561797754,-109.0,-88.0,61.0,0
1724590242,18.5632783,73.8332467,523.4,23.592134831460672,89,32.359550561797754,-109.0,-88.0,61.0,0
1724590243,18.5632783,73.8332467,523.4,23.467415730337077,89,32.359550561797754,-110.0,-88.0,60.0,0
1724590244,18.5632783,73.8332467,523.4,23.540449438202245,89,32.359550561797754,-110.0,-88.0,61.0,0
1724590245,18.5632783,73.8332467,523.4,23.916853932584267,89,32.359550561797754,-109.0,-88.0,61.0,0
1724590246,18.5632783,73.8332467,523.4,23.930337078651686,89,32.359550561797754,-108.0,-88.0,63.0,0
1724590247,18.5632783,73.8332467,523.4,23.68202247191011,89,32.359550561797754,-106.0,-88.0,64.0,0
1724590248,18.5632783,73.8332467,523.4,23.70449438202247,89,32.06741573033708,-107.0,-88.0,64.0,0
1724590249,18.5632783,73.8332467,523.4,23.97222222222222,90,31.9,-107.0,-88.0,63.0,0
1724590250,18.5632783,73.8332467,523.4,23.755555555555556,90,31.9,-105.0,-88.0,65.0,0
1724590251,18.5632783,73.8332467,523.4,24.534444444444443,90,31.9,-100.0,-88.0,70.0,0
1724590252,18.5632783,73.8332467,523.4,25.16923076923077,91,31.813186813186814,-99.0,-88.0,71.0,0
1724590253,18.5632783,73.8332467,523.4,25.007692307692306,91,31.813186813186814,-101.0,-88.0,69.0,0
1724590254,18.5632783,73.8332467,523.4,25.068817204301077,93,31.43010752688172,-102.0,-88.0,68.0,0
1724590255,18.5632783,73.8332467,523.4,25.398924731182795,93,31.43010752688172,-102.0,-88.0,68.0,0
1724590256,18.5632783,73.8332467,523.4,25.278494623655916,93,31.43010752688172,-102.0,-88.0,68.0,0
1724590257,18.5632783,73.8332467,523.4,25.295698924731184,93,31.311827956989248,-102.0,-88.0,68.0,0
1724590258,18.5632783,73.8332467,523.4,25.053763440860216,93,31.204301075268816,-103.0,-88.0,67.0,0
1724590259,18.5632783,73.8332467,523.4,25.13548387096774,93,31.204301075268816,-103.0,-88.0,67.0,0
1724590260,18.5632783,73.8332467,523.4,25.241935483870968,93,31.204301075268816,-105.0,-88.0,66.0,0
1724590261,18.5632993,73.8332411,515.8,25.165591397849465,93,31.204301075268816,-108.0,-88.0,62.0,0
1724590262,18.5633027,73.8332416,515.6999999999999,25.153763440860217,93,31.204301075268816,-104.0,-88.0,66.0,0
1724590263,18.5633019,73.8332417,515.5,25.08494623655914,93,31.204301075268816,-114.0,-88.0,57.0,0
1724590264,18.5633017,73.8332417,515.5,24.95212765957447,94,30.97872340425532,-117.0,-88.0,53.0,0
1724590265,18.5633017,73.8332417,515.5,25.125531914893617,94,30.97872340425532,-116.0,-88.0,54.0,0
1724590266,18.5633017,73.8332417,515.5,25.465957446808513,94,31.5531914893617,-117.0,-88.0,54.0,0
1724590267,18.5633017,73.8332417,515.5,25.512765957446806,94,32.07446808510638,-119.0,-88.0,51.0,0
1724590268,18.5633017,73.8332417,515.5,25.089583333333334,96,31.677083333333332,-113.0,-88.0,57.0,0
1724590269,18.5633017,73.8332417,515.5,25.344791666666666,96,31.677083333333332,-112.0,-88.0,58.0,0
1724590270,18.5633017,73.8332417,515.5,25.289583333333336,96,31.677083333333332,-112.0,-88.0,58.0,0
1724590271,18.5633017,73.8332417,515.5,25.209374999999998,96,31.677083333333332,-119.0,-88.0,52.0,0
1724590272,18.5633017,73.8332417,515.5,25.26354166666667,96,31.677083333333332,-114.0,-88.0,56.0,0
1724590273,18.5633017,73.8332417,515.5,25.405208333333334,96,31.677083333333332,-109.0,-88.0,62.0,0
1724590274,18.5633017,73.8332417,515.5,25.39270833333333,96,31.677083333333332,-104.0,-88.0,67.0,0
1724590275,18.5633017,73.8332417,515.5,25.307291666666668,96,31.489583333333332,-107.0,-88.0,64.0,0
1724590276,18.5633017,73.8332417,515.5,25.295833333333334,96,31.260416666666668,-106.0,-88.0,64.0,0
1724590277,18.5633017,73.8332417,515.5,25.401041666666668,96,31.260416666666668,-107.0,-88.0,63.0,0
1724590278,18.5633017,73.8332417,515.5,25.666666666666668,96,31.260416666666668,-107.0,-88.0,63.0,0
1724590279,18.5633017,73.8332417,515.5,25.66979166666667,96,31.260416666666668,-106.0,-88.0,64.0,0
1724590280,18.5633017,73.8332417,515.5,25.646874999999998,96,31.260416666666668,-106.0,-88.0,64.0,0
1724590281,18.5633017,73.8332417,515.5,25.714583333333334,96,31.260416666666668,-109.0,-88.0,61.0,0
1724590282,18.5633017,73.8332417,515.5,25.791666666666668,96,31.260416666666668,-108.0,-88.0,62.0,0
1724590283,18.5633017,73.8332417,515.5,25.921875,96,31.260416666666668,-105.0,-88.0,65.0,0
1724590284,18.5633017,73.8332417,515.5,25.8125,96,30.989583333333332,-110.0,-88.0,60.0,0
1724590285,18.5633017,73.8332417,515.5,25.770833333333332,96,30.8125,-107.0,-88.0,63.0,0
1724590286,18.5633017,73.8332417,515.5,25.944791666666664,96,30.8125,-107.0,-88.0,63.0,0
1724590287,18.5633017,73.8332417,515.5,25.95625,96,30.8125,-107.0,-88.0,63.0,0
1724590288,18.5633017,73.8332417,515.5,25.75,96,30.8125,-108.0,-88.0,62.0,0
1724590289,18.5633017,73.8332417,515.5,25.815625,96,30.802083333333332,-107.0,-88.0,63.0,0
1724590290,18.5633017,73.8332417,515.5,25.873958333333334,96,30.802083333333332,-105.0,-88.0,65.0,0
1724590291,18.5633017,73.8332417,515.5,26.058333333333334,96,30.802083333333332,-106.0,-88.0,64.0,0
1724590292,18.5633017,73.8332417,515.5,26.08,95,31.021052631578947,-110.0,-88.0,61.0,0
1724590293,18.5633017,73.8332417,515.5,26.082105263157896,95,30.905263157894737,-109.0,-88.0,61.0,0
1724590294,18.5633017,73.8332417,515.5,26.16315789473684,95,30.789473684210527,-109.0,-88.0,62.0,0
1724590295,18.5633017,73.8332417,515.5,26.03157894736842,95,30.789473684210527,-106.0,-88.0,64.0,0
1724590296,18.5633017,73.8332417,515.5,26.18631578947368,95,30.789473684210527,-109.0,-88.0,62.0,0
1724590297,18.5633017,73.8332417,515.5,26.200000000000003,94,31.01063829787234,-110.0,-88.0,60.0,0
1724590298,18.5633017,73.8332417,515.5,26.123404255319148,94,31.01063829787234,-118.0,-87.0,52.0,0
1724590299,18.5633017,73.8332417,515.5,26.120212765957447,94,31.01063829787234,-143.0,-87.0,28.0,0
1724590300,18.5633017,73.8332417,515.5,26.210638297872343,94,31.01063829787234,-142.0,-84.0,28.0,0
1724590301,18.5633017,73.8332417,515.5,25.919148936170213,94,31.02127659574468,-150.0,-83.0,20.0,0
1724590302,18.5633017,73.8332417,515.5,26.123404255319148,94,30.904255319148938,-147.0,-83.0,23.0,0
1724590303,18.5633017,73.8332417,515.5,25.930526315789475,95,30.589473684210525,-148.0,-83.0,22.0,0
1724590304,18.5633017,73.8332417,515.5,25.717894736842105,95,30.589473684210525,-141.0,-84.0,29.0,0
1724590305,18.5633017,73.8332417,515.5,25.88421052631579,95,30.589473684210525,-143.0,-84.0,27.0,0
1724590306,18.5633017,73.8332417,515.5,25.928723404255322,94,30.5531914893617,-142.0,-84.0,28.0,0
1724590307,18.5633017,73.8332417,515.5,25.799999999999997,94,30.5531914893617,-144.0,-84.0,26.0,0
1724590308,18.5633017,73.8332417,515.5,25.846808510638297,94,30.5531914893617,-141.0,-84.0,28.0,0
1724590309,18.5633017,73.8332417,515.5,25.892553191489363,94,30.5531914893617,-140.0,-84.0,30.0,0
1724590310,18.5633017,73.8332417,515.5,25.932978723404254,94,30.5531914893617,-139.0,-84.0,31.0,0
1724590311,18.5633017,73.8332417,515.5,25.60421052631579,95,30.242105263157896,-139.0,-84.0,31.0,0
1724590312,18.5633017,73.8332417,515.5,25.791578947368418,95,30.242105263157896,-139.0,-84.0,31.0,0
1724590313,18.5633017,73.8332417,515.5,25.635789473684213,95,30.242105263157896,-139.0,-84.0,31.0,0
1724590314,18.5633017,73.8332417,515.5,25.649473684210523,95,30.221052631578946,-138.0,-85.0,31.0,0
1724590315,18.5633017,73.8332417,515.5,25.53684210526316,95,30.91578947368421,-138.0,-85.0,32.0,0
1724590316,18.5633017,73.8332417,515.5,25.771578947368422,95,30.91578947368421,-137.0,-85.0,33.0,0
1724590317,18.5633017,73.8332417,515.5,25.902105263157893,95,30.431578947368422,-136.0,-85.0,34.0,0
1724590318,18.5633017,73.8332417,515.5,25.92,95,30.473684210526315,-136.0,-85.0,34.0,0
1724590319,18.5633017,73.8332417,515.5,25.733684210526313,95,30.473684210526315,-135.0,-85.0,35.0,0
1724590320,18.5633017,73.8332417,515.5,25.778947368421054,95,31.094736842105263,-136.0,-85.0,33.0,0
1724590321,18.5633017,73.8332417,515.5,25.857894736842105,95,31.08421052631579,-136.0,-85.0,34.0,0
1724590322,18.5633017,73.8332417,515.5,25.771578947368422,95,31.08421052631579,-137.0,-85.0,33.0,0
1724590323,18.5633017,73.8332417,515.5,25.753684210526316,95,31.08421052631579,-137.0,-85.0,33.0,0
1724590324,18.5633017,73.8332417,515.5,25.72315789473684,95,30.894736842105264,-136.0,-85.0,34.0,0
1724590325,18.5633017,73.8332417,515.5,25.837894736842106,95,30.894736842105264,-136.0,-85.0,34.0,0
1724590326,18.5633017,73.8332417,515.5,25.766315789473687,95,30.894736842105264,-137.0,-85.0,33.0,0
1724590327,18.5633017,73.8332417,515.5,25.74105263157895,95,30.894736842105264,-137.0,-85.0,33.0,0
1724590328,18.5633017,73.8332417,515.5,25.725263157894737,95,30.894736842105264,-136.0,-85.0,34.0,0
1724590329,18.5633017,73.8332417,515.5,25.74526315789474,95,30.66315789473684,-136.0,-85.0,33.0,0
1724590330,18.5633017,73.8332417,515.5,25.887368421052635,95,30.66315789473684,-136.0,-85.0,34.0,0
1724590331,18.5633017,73.8332417,515.5,25.858947368421052,95,30.66315789473684,-136.0,-85.0,34.0,0
1724590332,18.5633017,73.8332417,515.5,25.59263157894737,95,30.66315789473684,-137.0,-85.0,33.0,0
1724590333,18.5633017,73.8332417,515.5,25.86063829787234,94,30.617021276595743,-137.0,-85.0,33.0,0
1724590334,18.5633017,73.8332417,515.5,25.76063829787234,94,30.617021276595743,-136.0,-85.0,34.0,0
1724590335,18.5633017,73.8332417,515.5,25.710526315789473,95,30.4,-137.0,-85.0,33.0,0
1724590336,18.5633017,73.8332417,515.5,25.771578947368422,95,30.4,-136.0,-85.0,33.0,0
1724590337,18.5633017,73.8332417,515.5,25.82315789473684,95,30.4,-136.0,-85.0,33.0,0
1724590338,18.5633017,73.8332417,515.5,25.71157894736842,95,30.010526315789473,-136.0,-85.0,34.0,0
1724590339,18.5633017,73.8332417,515.5,25.693684210526317,95,30.010526315789473,-136.0,-85.0,34.0,0
1724590340,18.5633017,73.8332417,515.5,25.682105263157897,95,30.010526315789473,-136.0,-85.0,34.0,0
1724590341,18.5633017,73.8332417,515.5,25.842105263157894,95,30.021052631578947,-137.0,-85.0,33.0,0
1724590342,18.5633017,73.8332417,515.5,26.04105263157895,95,28.768421052631577,-138.0,-85.0,32.0,0
1724590343,18.5633017,73.8332417,515.5,26.07894736842105,95,29.905263157894737,-140.0,-85.0,30.0,0
1724590344,18.5633017,73.8332417,515.5,26.098947368421054,95,29.905263157894737,-138.0,-85.0,31.0,0
1724590345,18.5633017,73.8332417,515.5,26.198947368421052,95,29.905263157894737,-137.0,-85.0,32.0,0
1724590346,18.5633017,73.8332417,515.5,26.2,95,29.905263157894737,-138.0,-85.0,32.0,0
1724590347,18.5633017,73.8332417,515.5,26.06421052631579,95,29.905263157894737,-138.0,-85.0,32.0,0
1724590348,18.5633017,73.8332417,515.5,26.085263157894737,95,29.905263157894737,-139.0,-85.0,31.0,0
1724590349,18.5633017,73.8332417,515.5,26.14315789473684,95,29.905263157894737,-138.0,-84.0,32.0,0
1724590350,18.5633017,73.8332417,515.5,26.189473684210526,95,29.905263157894737,-139.0,-85.0,31.0,0
1724590351,18.5633017,73.8332417,515.5,26.237894736842104,95,29.88421052631579,-139.0,-85.0,31.0,0
1724590352,18.5633017,73.8332417,515.5,26.18631578947368,95,29.88421052631579,-137.0,-85.0,33.0,0
1724590353,18.5633017,73.8332417,515.5,26.13684210526316,95,29.88421052631579,-136.0,-85.0,33.0,0
1724590354,18.5633017,73.8332417,515.5,26.231578947368423,95,29.894736842105264,-136.0,-85.0,34.0,0
1724590355,18.5633017,73.8332417,515.5,26.12526315789474,95,29.894736842105264,-136.0,-85.0,34.0,0
1724590356,18.5633017,73.8332417,515.5,26.217894736842105,95,29.873684210526317,-136.0,-85.0,34.0,0
1724590357,18.5633017,73.8332417,515.5,26.11578947368421,95,29.894736842105264,-136.0,-85.0,34.0,0
1724590358,18.5633017,73.8332417,515.5,26.3,95,29.894736842105264,-136.0,-85.0,34.0,0
1724590359,18.5633017,73.8332417,515.5,26.18421052631579,95,29.894736842105264,-136.0,-85.0,34.0,0
1724590360,18.5633017,73.8332417,515.5,26.19263157894737,95,29.8,-136.0,-85.0,34.0,0
1724590361,18.5633017,73.8332417,515.5,26.19789473684211,95,29.821052631578947,-136.0,-85.0,33.0,0
1724590362,18.5633017,73.8332417,515.5,26.201052631578946,95,29.842105263157894,-136.0,-85.0,34.0,0
1724590363,18.5633017,73.8332417,515.5,26.053684210526313,95,29.842105263157894,-136.0,-85.0,34.0,0
1724590364,18.5633017,73.8332417,515.5,26.12,95,29.842105263157894,-136.0,-85.0,34.0,0
1724590365,18.5633017,73.8332417,515.5,26.149473684210523,95,29.842105263157894,-136.0,-85.0,34.0,0
1724590366,18.5633017,73.8332417,515.5,26.177894736842106,95,29.842105263157894,-136.0,-85.0,34.0,0
1724590367,18.5633017,73.8332417,515.5,26.16842105263158,95,29.842105263157894,-136.0,-85.0,34.0,0
1724590368,18.5633017,73.8332417,515.5,26.18842105263158,95,29.842105263157894,-136.0,-85.0,34.0,0
1724590369,18.5633017,73.8332417,515.5,26.093684210526316,95,29.83157894736842,-136.0,-85.0,34.0,0
1724590370,18.5633017,73.8332417,515.5,26.205263157894738,95,29.83157894736842,-135.0,-85.0,34.0,0
1724590371,18.5633017,73.8332417,515.5,26.123157894736842,95,29.83157894736842,-136.0,-85.0,34.0,0
1724590372,18.5633017,73.8332417,515.5,26.14526315789474,95,29.83157894736842,-135.0,-85.0,34.0,0
1724590373,18.5633017,73.8332417,515.5,26.10421052631579,95,29.83157894736842,-136.0,-85.0,34.0,0
1724590374,18.5633017,73.8332417,515.5,26.303157894736845,95,29.83157894736842,-136.0,-85.0,34.0,0
1724590375,18.5633017,73.8332417,515.5,26.317894736842103,95,29.83157894736842,-136.0,-85.0,34.0,0
1724590376,18.5633017,73.8332417,515.5,26.253684210526316,95,29.83157894736842,-137.0,-85.0,33.0,0
1724590377,18.5633017,73.8332417,515.5,26.279999999999998,95,29.83157894736842,-136.0,-85.0,33.0,0
1724590378,18.5633017,73.8332417,515.5,26.240000000000002,95,29.83157894736842,-137.0,-85.0,32.0,0
1724590379,18.5633017,73.8332417,515.5,26.225263157894737,95,29.810526315789474,-137.0,-85.0,33.0,0
1724590380,18.5633017,73.8332417,515.5,26.454736842105262,95,29.83157894736842,-137.0,-85.0,33.0,0
1724590381,18.5633017,73.8332417,515.5,26.418947368421055,95,29.83157894736842,-137.0,-85.0,33.0,0
1724590382,18.5633017,73.8332417,515.5,26.58,95,28.694736842105264,-136.0,-85.0,33.0,0
1724590383,18.5633017,73.8332417,515.5,26.13684210526316,95,29.83157894736842,-136.0,-85.0,34.0,0
1724590384,18.5633017,73.8332417,515.5,26.13684210526316,95,29.821052631578947,-136.0,-85.0,33.0,0
1724590385,18.5633017,73.8332417,515.5,26.462105263157895,95,29.821052631578947,-137.0,-85.0,33.0,0
1724590386,18.5633017,73.8332417,515.5,26.18842105263158,95,29.821052631578947,-141.0,-84.0,29.0,0
1724590387,18.5633017,73.8332417,515.5,26.11578947368421,95,29.821052631578947,-143.0,-84.0,27.0,0
1724590388,18.5633017,73.8332417,515.5,26.040000000000003,95,29.821052631578947,-143.0,-84.0,27.0,0
1724590389,18.5633017,73.8332417,515.5,26.09052631578947,95,29.821052631578947,-141.0,-84.0,29.0,0
1724590390,18.5633017,73.8332417,515.5,26.04315789473684,95,29.821052631578947,-141.0,-84.0,29.0,0
1724590391,18.5633017,73.8332417,515.5,26.17684210526316,95,29.821052631578947,-138.0,-85.0,31.0,0
1724590392,18.5633017,73.8332417,515.5,26.298936170212766,94,28.872340425531913,-142.0,-84.0,28.0,0
1724590393,18.5633017,73.8332417,515.5,26.04842105263158,95,29.810526315789474,-140.0,-84.0,30.0,0
1724590394,18.5633017,73.8332417,515.5,26.148421052631576,95,29.810526315789474,-140.0,-84.0,30.0,0
1724590395,18.5633017,73.8332417,515.5,26.16842105263158,95,29.810526315789474,-139.0,-85.0,31.0,0
1724590396,18.5633017,73.8332417,515.5,26.123157894736842,95,29.810526315789474,-138.0,-85.0,32.0,0
1724590397,18.5633017,73.8332417,515.5,26.190526315789473,95,29.810526315789474,-139.0,-85.0,31.0,0
1724590398,18.5633017,73.8332417,515.5,26.082105263157896,95,29.810526315789474,-139.0,-85.0,31.0,0
1724590399,18.5633017,73.8332417,515.5,26.19157894736842,95,29.789473684210527,-137.0,-85.0,32.0,0
1724590400,18.5633017,73.8332417,515.5,26.040000000000003,95,29.789473684210527,-136.0,-85.0,34.0,0
1724590401,18.5633017,73.8332417,515.5,26.046315789473685,95,29.789473684210527,-136.0,-85.0,34.0,0
1724590402,18.5633017,73.8332417,515.5,26.13894736842105,95,29.789473684210527,-137.0,-85.0,33.0,0
1724590403,18.5633017,73.8332417,515.5,26.06736842105263,95,29.789473684210527,-139.0,-85.0,31.0,0
1724590404,18.5633017,73.8332417,515.5,26.132631578947368,95,29.789473684210527,-138.0,-85.0,31.0,0
1724590405,18.5633017,73.8332417,515.5,26.14421052631579,95,29.789473684210527,-137.0,-85.0,33.0,0
1724590406,18.5633017,73.8332417,515.5,26.225263157894737,95,29.789473684210527,-137.0,-85.0,33.0,0
1724590407,18.5633017,73.8332417,515.5,26.22315789473684,95,29.789473684210527,-137.0,-85.0,33.0,0
1724590408,18.5633017,73.8332417,515.5,26.117894736842103,95,29.757894736842104,-137.0,-85.0,33.0,0
1724590409,18.5633017,73.8332417,515.5,26.18631578947368,95,29.789473684210527,-137.0,-85.0,33.0,0
1724590410,18.5633017,73.8332417,515.5,26.032631578947367,95,29.8,-137.0,-85.0,33.0,0
1724590411,18.5633017,73.8332417,515.5,26.086315789473684,95,29.810526315789474,-137.0,-85.0,33.0,0
1724590412,18.5633017,73.8332417,515.5,26.00421052631579,95,29.810526315789474,-137.0,-85.0,33.0,0
1724590413,18.5633017,73.8332417,515.5,26.16315789473684,95,29.852631578947367,-141.0,-84.0,29.0,0
1724590414,18.5633017,73.8332417,515.5,25.92,95,29.852631578947367,-136.0,-85.0,33.0,0
1724590415,18.5633017,73.8332417,515.5,26.083157894736843,95,29.852631578947367,-137.0,-85.0,33.0,0
1724590416,18.5633017,73.8332417,515.5,26.00842105263158,95,29.852631578947367,-137.0,-85.0,33.0,0
1724590417,18.5633017,73.8332417,515.5,26.034736842105264,95,29.852631578947367,-137.0,-85.0,33.0,0
1724590418,18.5633017,73.8332417,515.5,26.013684210526318,95,29.852631578947367,-137.0,-85.0,33.0,0
1724590419,18.5633017,73.8332417,515.5,25.990526315789474,95,29.83157894736842,-136.0,-85.0,34.0,0
1724590420,18.5633017,73.8332417,515.5,26.03157894736842,95,29.83157894736842,-136.0,-85.0,33.0,0
1724590421,18.5633017,73.8332417,515.5,25.96842105263158,95,29.83157894736842,-137.0,-85.0,33.0,0
1724590422,18.5633017,73.8332417,515.5,25.78842105263158,95,29.83157894736842,-138.0,-85.0,32.0,0
1724590423,18.5633017,73.8332417,515.5,25.821052631578947,95,30.526315789473685,-137.0,-85.0,33.0,0
1724590424,18.5633017,73.8332417,515.5,25.864210526315787,95,30.526315789473685,-137.0,-85.0,33.0,0
1724590425,18.5633017,73.8332417,515.5,25.99473684210526,95,30.50526315789474,-137.0,-85.0,33.0,0
1724590426,18.5633017,73.8332417,515.5,25.9,95,30.50526315789474,-137.0,-85.0,33.0,0
1724590427,18.5633017,73.8332417,515.5,25.946315789473687,95,30.50526315789474,-137.0,-85.0,32.0,0
1724590428,18.5633017,73.8332417,515.5,25.893684210526317,95,30.50526315789474,-139.0,-85.0,30.0,0
1724590429,18.5633017,73.8332417,515.5,25.901063829787233,94,30.72340425531915,-142.0,-84.0,28.0,0
1724590430,18.5633017,73.8332417,515.5,25.97340425531915,94,30.72340425531915,-138.0,-85.0,32.0,0
1724590431,18.5633017,73.8332417,515.5,25.89578947368421,95,30.49473684210526,-138.0,-84.0,32.0,0
1724590432,18.5633017,73.8332417,515.5,25.832631578947368,95,30.48421052631579,-157.0,-82.0,13.0,0
1724590433,18.5633017,73.8332417,515.5,25.762105263157896,95,30.431578947368422,-147.0,-82.0,23.0,0
1724590434,18.5633017,73.8332417,515.5,25.76105263157895,95,30.442105263157895,-148.0,-83.0,22.0,0
1724590435,18.5633017,73.8332417,515.5,25.796842105263156,95,30.442105263157895,-143.0,-84.0,26.0,0
1724590436,18.5633017,73.8332417,515.5,25.902105263157893,95,30.442105263157895,-143.0,-84.0,26.0,0
1724590437,18.5633017,73.8332417,515.5,25.768421052631577,95,30.45263157894737,-141.0,-84.0,29.0,0
1724590438,18.5633017,73.8332417,515.5,25.78842105263158,95,30.45263157894737,-138.0,-85.0,31.0,0
1724590439,18.5633017,73.8332417,515.5,26.029787234042555,94,30.670212765957448,-138.0,-85.0,31.0,0
1724590440,18.5633017,73.8332417,515.5,25.94255319148936,94,30.670212765957448,-138.0,-85.0,31.0,0
1724590441,18.5633017,73.8332417,515.5,26.038297872340426,94,30.670212765957448,-138.0,-85.0,31.0,0
1724590442,18.5633017,73.8332417,515.5,26.086170212765957,94,29.393617021276597,-138.0,-85.0,31.0,0
1724590443,18.5633017,73.8332417,515.5,25.967021276595744,94,30.53191489361702,-138.0,-85.0,32.0,0
1724590444,18.5633017,73.8332417,515.5,25.859574468085107,94,30.53191489361702,-138.0,-85.0,32.0,0
1724590445,18.5633017,73.8332417,515.5,25.761702127659575,94,30.53191489361702,-138.0,-84.0,31.0,0
1724590446,18.5633017,73.8332417,515.5,25.88936170212766,94,30.53191489361702,-138.0,-85.0,31.0,0
1724590447,18.5633017,73.8332417,515.5,25.57894736842105,95,30.263157894736842,-138.0,-85.0,32.0,0
1724590448,18.5633017,73.8332417,515.5,25.53684210526316,95,30.263157894736842,-138.0,-85.0,31.0,0
1724590449,18.5633017,73.8332417,515.5,25.60842105263158,95,30.263157894736842,-138.0,-85.0,32.0,0
1724590450,18.5633017,73.8332417,515.5,25.64,95,30.263157894736842,-138.0,-85.0,32.0,0
1724590451,18.5633017,73.8332417,515.5,25.666315789473686,95,30.147368421052633,-138.0,-85.0,32.0,0
1724590452,18.5633017,73.8332417,515.5,25.52,95,30.147368421052633,-137.0,-85.0,33.0,0
1724590453,18.5633017,73.8332417,515.5,25.89157894736842,95,30.147368421052633,-134.0,-85.0,36.0,0
1724590454,18.5633017,73.8332417,515.5,25.478947368421053,95,30.147368421052633,-138.0,-85.0,32.0,0
1724590455,18.5633017,73.8332417,515.5,25.549473684210525,95,30.147368421052633,-134.0,-86.0,35.0,0
1724590456,18.5633017,73.8332417,515.5,25.48421052631579,95,30.147368421052633,-134.0,-86.0,35.0,0
1724590457,18.5633017,73.8332417,515.5,25.313541666666666,96,29.9375,-135.0,-86.0,35.0,0
1724590458,18.5633017,73.8332417,515.5,25.259375000000002,96,29.9375,-133.0,-86.0,37.0,0
1724590459,18.5633017,73.8332417,515.5,25.305208333333336,96,29.9375,-134.0,-86.0,36.0,0
1724590460,18.5633017,73.8332417,515.5,25.325,96,29.770833333333332,-135.0,-86.0,35.0,0
1724590461,18.5633017,73.8332417,515.5,25.338541666666668,96,29.770833333333332,-136.0,-86.0,33.0,0
1724590462,18.5633017,73.8332417,515.5,25.28125,96,29.78125,-135.0,-86.0,35.0,0
1724590463,18.5633017,73.8332417,515.5,25.160416666666666,96,29.78125,-135.0,-86.0,35.0,0
1724590464,18.5633017,73.8332417,515.5,25.373958333333334,96,29.78125,-134.0,-86.0,35.0,0
1724590465,18.5633017,73.8332417,515.5,24.633333333333336,96,29.78125,-134.0,-86.0,35.0,0
1724590466,18.5633017,73.8332417,515.5,24.67835051546392,97,29.577319587628867,-134.0,-86.0,36.0,0
1724590467,18.5633017,73.8332417,515.5,25.1319587628866,97,29.577319587628867,-134.0,-86.0,36.0,0
1724590468,18.5633017,73.8332417,515.5,25.116494845360826,97,29.577319587628867,-131.0,-86.0,39.0,0
1724590469,18.5633017,73.8332417,515.5,25.20515463917526,97,29.463917525773194,-147.0,-85.0,22.0,0
1724590470,18.5633017,73.8332417,515.5,25.081443298969074,97,29.463917525773194,-143.0,-85.0,27.0,0
1724590471,18.5633017,73.8332417,515.5,25.404123711340205,97,29.463917525773194,-150.0,-80.0,19.0,0
1724590472,18.5633017,73.8332417,515.5,25.290721649484535,97,29.463917525773194,-155.0,-81.0,14.0,0
1724590473,18.5633017,73.8332417,515.5,25.356701030927834,97,29.443298969072163,-132.0,-84.0,37.0,0
1724590474,18.5633017,73.8332417,515.5,25.390721649484536,97,29.422680412371133,-149.0,-82.0,20.0,0
1724590475,18.5633017,73.8332417,515.5,25.377319587628865,97,29.422680412371133,-137.0,-84.0,32.0,0
1724590476,18.5633017,73.8332417,515.5,25.34639175257732,97,29.443298969072163,-136.0,-84.0,33.0,0
1724590477,18.5633017,73.8332417,515.5,25.317708333333332,96,29.65625,-135.0,-85.0,34.0,0
1724590478,18.5633017,73.8332417,515.5,25.47835051546392,97,29.4020618556701,-131.0,-85.0,38.0,0
1724590479,18.5633017,73.8332417,515.5,25.40618556701031,97,29.4020618556701,-134.0,-85.0,35.0,0
1724590480,18.5633017,73.8332417,515.5,25.29484536082474,97,29.4020618556701,-136.0,-85.0,33.0,0
1724590481,18.5633017,73.8332417,515.5,25.5,97,29.4020618556701,-132.0,-85.0,37.0,0
1724590482,18.5633017,73.8332417,515.5,25.213402061855668,97,28.298969072164947,-132.0,-85.0,37.0,0
1724590483,18.5633017,73.8332417,515.5,25.35876288659794,97,29.443298969072163,-134.0,-85.0,35.0,0
1724590484,18.5633017,73.8332417,515.5,25.412371134020617,97,29.443298969072163,-133.0,-85.0,36.0,0
1724590485,18.5633017,73.8332417,515.5,25.412371134020617,97,29.463917525773194,-135.0,-85.0,34.0,0
1724590486,18.5633017,73.8332417,515.5,25.462886597938144,97,29.463917525773194,-133.0,-85.0,36.0,0
1724590487,18.5633017,73.8332417,515.5,25.389690721649487,97,30.051546391752577,-131.0,-85.0,38.0,0
1724590488,18.5633017,73.8332417,515.5,25.391752577319586,97,30.051546391752577,-132.0,-85.0,37.0,0
1724590489,18.5633017,73.8332417,515.5,25.419587628865976,97,30.051546391752577,-133.0,-85.0,36.0,0
1724590490,18.5633017,73.8332417,515.5,25.313402061855673,97,30.051546391752577,-133.0,-85.0,36.0,0
1724590491,18.5633017,73.8332417,515.5,25.398969072164945,97,30.051546391752577,-134.0,-85.0,35.0,0
1724590492,18.5633017,73.8332417,515.5,25.294897959183675,98,29.0,-134.0,-85.0,35.0,0
1724590493,18.5633017,73.8332417,515.5,25.38469387755102,98,30.122448979591837,-134.0,-85.0,35.0,0
1724590494,18.5633017,73.8332417,515.5,25.278571428571432,98,30.163265306122447,-135.0,-85.0,34.0,0
1724590495,18.5633017,73.8332417,515.5,25.317346938775508,98,30.163265306122447,-135.0,-85.0,35.0,0
1724590496,18.5633017,73.8332417,515.5,25.132653061224488,98,30.112244897959183,-134.0,-85.0,35.0,0
1724590497,18.5633017,73.8332417,515.5,25.212244897959184,98,30.112244897959183,-135.0,-85.0,35.0,0
1724590498,18.5633017,73.8332417,515.5,25.153061224489797,98,30.112244897959183,-135.0,-85.0,35.0,0
1724590499,18.5633017,73.8332417,515.5,24.977551020408164,98,30.112244897959183,-134.0,-85.0,35.0,0
1724590500,18.5633017,73.8332417,515.5,24.960204081632654,98,30.112244897959183,-134.0,-85.0,35.0,0
1724590501,18.5633017,73.8332417,515.5,25.081632653061224,98,30.112244897959183,-132.0,-85.0,37.0,0
1724590502,18.5633017,73.8332417,515.5,25.038775510204083,98,30.112244897959183,-132.0,-85.0,37.0,0
1724590503,18.5633017,73.8332417,515.5,25.003061224489798,98,30.112244897959183,-133.0,-85.0,36.0,0
1724590504,18.5633017,73.8332417,515.5,24.970408163265304,98,30.112244897959183,-133.0,-85.0,36.0,0
1724590505,18.5633017,73.8332417,515.5,25.02755102040816,98,30.0,-134.0,-85.0,35.0,0
1724590506,18.5633017,73.8332417,515.5,25.174489795918365,98,30.0,-132.0,-85.0,37.0,0
1724590507,18.5633017,73.8332417,515.5,25.14183673469388,98,30.0,-131.0,-85.0,38.0,0
1724590508,18.5633017,73.8332417,515.5,25.21326530612245,98,30.0,-134.0,-85.0,35.0,0
1724590509,18.5633017,73.8332417,515.5,25.13877551020408,98,30.010204081632654,-134.0,-85.0,35.0,0
1724590510,18.5633017,73.8332417,515.5,25.011224489795918,98,30.010204081632654,-136.0,-85.0,33.0,0
1724590511,18.5633017,73.8332417,515.5,25.114285714285714,98,30.010204081632654,-141.0,-84.0,28.0,0
1724590512,18.5633017,73.8332417,515.5,25.0765306122449,98,30.010204081632654,-150.0,-81.0,19.0,0
1724590513,18.5633017,73.8332417,515.5,25.392857142857142,98,30.010204081632654,-153.0,-82.0,16.0,0
1724590514,18.5633017,73.8332417,515.5,25.33877551020408,98,29.897959183673468,-138.0,-84.0,30.0,0
1724590515,18.5633017,73.8332417,515.5,25.370408163265306,98,29.897959183673468,-139.0,-84.0,29.0,0
1724590516,18.5633017,73.8332417,515.5,25.05918367346939,98,29.897959183673468,-141.0,-83.0,28.0,0
1724590517,18.5633017,73.8332417,515.5,24.952040816326534,98,29.897959183673468,-148.0,-82.0,21.0,0
1724590518,18.5633017,73.8332417,515.5,25.10408163265306,98,29.897959183673468,-147.0,-83.0,22.0,0
1724590519,18.5633017,73.8332417,515.5,24.96938775510204,98,29.897959183673468,-142.0,-83.0,27.0,0
1724590520,18.5633017,73.8332417,515.5,25.056122448979593,98,29.897959183673468,-154.0,-82.0,15.0,0
1724590521,18.5633017,73.8332417,515.5,25.023469387755103,98,29.897959183673468,-144.0,-83.0,25.0,0
1724590522,18.5633017,73.8332417,515.5,24.914285714285715,98,29.897959183673468,-142.0,-84.0,27.0,0
1724590523,18.5633017,73.8332417,515.5,24.921428571428574,98,29.744897959183675,-140.0,-84.0,29.0,0
1724590524,18.5633017,73.8332417,515.5,24.959183673469386,98,29.744897959183675,-140.0,-84.0,29.0,0
1724590525,18.5633017,73.8332417,515.5,24.961224489795917,98,29.744897959183675,-138.0,-84.0,30.0,0
1724590526,18.5633017,73.8332417,515.5,25.066326530612244,98,29.744897959183675,-137.0,-85.0,31.0,0
1724590527,18.5633017,73.8332417,515.5,24.83061224489796,98,29.744897959183675,-136.0,-85.0,33.0,0
1724590528,18.5633017,73.8332417,515.5,24.968367346938777,98,29.744897959183675,-138.0,-85.0,31.0,0
1724590529,18.5633017,73.8332417,515.5,24.898979591836735,98,29.744897959183675,-137.0,-85.0,32.0,0
1724590530,18.5633017,73.8332417,515.5,25.064285714285717,98,29.744897959183675,-137.0,-85.0,31.0,0
1724590531,18.5633017,73.8332417,515.5,25.078571428571426,98,29.73469387755102,-138.0,-84.0,31.0,0
1724590532,18.5633017,73.8332417,515.5,25.128571428571426,98,29.622448979591837,-138.0,-84.0,31.0,0
1724590533,18.5633017,73.8332417,515.5,25.120408163265306,98,29.642857142857142,-137.0,-85.0,32.0,0
1724590534,18.5633017,73.8332417,515.5,24.932653061224492,98,29.642857142857142,-137.0,-85.0,32.0,0
1724590535,18.5633017,73.8332417,515.5,24.942857142857143,98,29.642857142857142,-138.0,-84.0,31.0,0
1724590536,18.5633017,73.8332417,515.5,25.197959183673472,98,29.653061224489797,-143.0,-84.0,26.0,0
1724590537,18.5633017,73.8332417,515.5,25.283673469387757,98,29.6734693877551,-144.0,-84.0,25.0,0
1724590538,18.5633017,73.8332417,515.5,25.3234693877551,98,29.693877551020407,-147.0,-82.0,21.0,0
1724590539,18.5633017,73.8332417,515.5,24.994897959183675,98,29.693877551020407,-143.0,-83.0,26.0,0
1724590540,18.5633017,73.8332417,515.5,25.246938775510202,98,29.693877551020407,-138.0,-84.0,30.0,0
1724590541,18.5633017,73.8332417,515.5,25.135714285714286,98,29.6734693877551,-140.0,-84.0,29.0,0
1724590542,18.5633017,73.8332417,515.5,24.964285714285715,98,28.551020408163264,-141.0,-84.0,27.0,0
1724590543,18.5633017,73.8332417,515.5,25.22244897959184,98,29.6734693877551,-141.0,-84.0,28.0,0
1724590544,18.5633017,73.8332417,515.5,24.921428571428574,98,29.6734693877551,-138.0,-84.0,31.0,0
1724590545,18.5633017,73.8332417,515.5,24.960204081632654,98,29.663265306122447,-141.0,-84.0,27.0,0
1724590546,18.5633017,73.8332417,515.5,24.924489795918365,98,29.663265306122447,-144.0,-83.0,25.0,0
1724590547,18.5633017,73.8332417,515.5,25.041836734693877,98,29.663265306122447,-142.0,-84.0,27.0,0
1724590548,18.5633017,73.8332417,515.5,25.087755102040816,98,29.663265306122447,-142.0,-84.0,27.0,0
1724590549,18.5633017,73.8332417,515.5,25.16122448979592,98,29.663265306122447,-140.0,-84.0,29.0,0
1724590550,18.5633017,73.8332417,515.5,25.018367346938778,98,29.56122448979592,-142.0,-84.0,27.0,0
1724590551,18.5633017,73.8332417,515.5,24.992857142857144,98,29.56122448979592,-144.0,-83.0,25.0,0
1724590552,18.5633017,73.8332417,515.5,25.266326530612243,98,29.56122448979592,-140.0,-84.0,28.0,0
1724590553,18.5633017,73.8332417,515.5,25.274489795918367,98,29.56122448979592,-139.0,-84.0,29.0,0
1724590554,18.5633017,73.8332417,515.5,25.236734693877548,98,29.56122448979592,-141.0,-84.0,28.0,0
1724590555,18.5633017,73.8332417,515.5,25.132653061224488,98,29.540816326530614,-140.0,-84.0,29.0,0
1724590556,18.5633017,73.8332417,515.5,25.29387755102041,98,29.540816326530614,-140.0,-84.0,29.0,0
1724590557,18.5633017,73.8332417,515.5,25.201020408163263,98,29.540816326530614,-139.0,-84.0,29.0,0
1724590558,18.5633017,73.8332417,515.5,25.210204081632654,98,29.540816326530614,-140.0,-84.0,29.0,0
1724590559,18.5633017,73.8332417,515.5,25.242857142857144,98,29.540816326530614,-140.0,-84.0,28.0,0
1724590560,18.5633017,73.8332417,515.5,25.24591836734694,98,29.53061224489796,-141.0,-84.0,28.0,0
1724590561,18.5633017,73.8332417,515.5,25.279591836734696,98,29.53061224489796,-141.0,-84.0,28.0,0
1724590562,18.5633017,73.8332417,515.5,25.20612244897959,98,29.53061224489796,-142.0,-84.0,26.0,0
1724590563,18.5633017,73.8332417,515.5,25.202040816326534,98,29.53061224489796,-141.0,-84.0,27.0,0
1724590564,18.5633017,73.8332417,515.5,24.906122448979595,98,29.53061224489796,-142.0,-84.0,27.0,0
1724590565,18.5633017,73.8332417,515.5,24.964285714285715,98,29.520408163265305,-140.0,-84.0,28.0,0
1724590566,18.5633017,73.8332417,515.5,25.19183673469388,98,29.520408163265305,-139.0,-84.0,29.0,0
1724590567,18.5633017,73.8332417,515.5,25.13061224489796,98,29.520408163265305,-139.0,-84.0,29.0,0
1724590568,18.5633017,73.8332417,515.5,24.946938775510205,98,29.520408163265305,-141.0,-84.0,28.0,0
1724590569,18.5633017,73.8332417,515.5,24.871428571428574,98,29.520408163265305,-140.0,-84.0,28.0,0
1724590570,18.5633017,73.8332417,515.5,24.862244897959183,98,29.520408163265305,-139.0,-84.0,29.0,0
1724590571,18.5633017,73.8332417,515.5,24.856122448979594,98,29.520408163265305,-140.0,-84.0,28.0,0
1724590572,18.5633017,73.8332417,515.5,24.975510204081633,98,29.520408163265305,-139.0,-84.0,30.0,0
1724590573,18.5633017,73.8332417,515.5,25.001020408163264,98,29.520408163265305,-138.0,-84.0,30.0,0
1724590574,18.5633017,73.8332417,515.5,25.158163265306122,98,29.520408163265305,-139.0,-84.0,30.0,0
1724590575,18.5633017,73.8332417,515.5,25.063265306122446,98,29.520408163265305,-139.0,-84.0,30.0,0
1724590576,18.5633017,73.8332417,515.5,24.975510204081633,98,29.520408163265305,-139.0,-84.0,30.0,0
1724590577,18.5633017,73.8332417,515.5,24.755102040816325,98,29.520408163265305,-139.0,-84.0,30.0,0
1724590578,18.5633017,73.8332417,515.5,24.962244897959184,98,29.520408163265305,-139.0,-84.0,30.0,0
1724590579,18.5633017,73.8332417,515.5,24.807142857142857,98,29.520408163265305,-139.0,-84.0,29.0,0
1724590580,18.5633017,73.8332417,515.5,24.814285714285717,98,30.193877551020407,-139.0,-84.0,30.0,0
1724590581,18.5633017,73.8332417,515.5,24.874489795918365,98,30.193877551020407,-138.0,-84.0,31.0,0
1724590582,18.5633017,73.8332417,515.5,24.928571428571427,98,30.193877551020407,-147.0,-83.0,22.0,0
1724590583,18.5633017,73.8332417,515.5,24.982653061224493,98,30.193877551020407,-146.0,-83.0,23.0,0
1724590584,18.5633017,73.8332417,515.5,24.93469387755102,98,30.193877551020407,-141.0,-84.0,27.0,0
1724590585,18.5633017,73.8332417,515.5,24.958163265306123,98,30.193877551020407,-151.0,-82.0,17.0,0
1724590586,18.5633017,73.8332417,515.5,25.322448979591837,98,30.193877551020407,-156.0,-82.0,12.0,0
1724590587,18.5633017,73.8332417,515.5,24.966326530612243,98,30.193877551020407,-161.0,-79.0,7.0,0
1724590588,18.5633017,73.8332417,515.5,25.044897959183675,98,30.193877551020407,-150.0,-82.0,18.0,0
1724590589,18.5633017,73.8332417,515.5,24.94183673469388,98,30.214285714285715,-145.0,-83.0,23.0,0
1724590590,18.5633017,73.8332417,515.5,24.872448979591837,98,30.142857142857142,-143.0,-84.0,25.0,0
1724590591,18.5633017,73.8332417,515.5,25.026530612244898,98,30.142857142857142,-138.0,-84.0,30.0,0
1724590592,18.5633017,73.8332417,515.5,24.96530612244898,98,30.142857142857142,-141.0,-84.0,27.0,0
1724590593,18.5633017,73.8332417,515.5,25.285714285714285,98,30.142857142857142,-142.0,-84.0,26.0,0
1724590594,18.5633017,73.8332417,515.5,25.158163265306122,98,30.132653061224488,-142.0,-84.0,26.0,0
1724590595,18.5633017,73.8332417,515.5,24.988775510204082,98,30.112244897959183,-142.0,-84.0,26.0,0
1724590596,18.5633017,73.8332417,515.5,25.033673469387757,98,30.112244897959183,-141.0,-84.0,27.0,0
1724590597,18.5633017,73.8332417,515.5,25.063265306122446,98,30.112244897959183,-140.0,-84.0,28.0,0
1724590598,18.5633017,73.8332417,515.5,24.953061224489797,98,30.112244897959183,-141.0,-84.0,27.0,0
1724590599,18.5633017,73.8332417,515.5,25.103061224489796,98,30.0,-150.0,-81.0,18.0,0
1724590600,18.5633017,73.8332417,515.5,24.981632653061222,98,30.0,-145.0,-81.0,23.0,0
1724590601,18.5633017,73.8332417,515.5,25.240816326530613,98,29.989795918367346,-169.0,-74.0,349.0,0
1724590602,18.5633017,73.8332417,515.5,26.287755102040816,98,30.397959183673468,-145.0,3.0,13.0,0
1724590603,18.5633017,73.8332417,515.5,22.787499999999998,96,30.760416666666668,-179.0,4.0,13.0,0
1724590604,18.5633017,73.8332417,515.5,18.213186813186812,91,31.615384615384617,-179.0,4.0,12.0,0
1724590605,18.5633017,73.8332417,515.5,13.889999999999999,90,31.766666666666666,-179.0,4.0,12.0,0
1724590606,18.5633017,73.8332417,515.5,12.565555555555557,90,31.844444444444445,-179.0,4.0,12.0,0
1724590607,18.5633017,73.8332417,515.5,12.739999999999998,90,31.966666666666665,-179.0,4.0,12.0,0
1724590608,18.5633017,73.8332417,515.5,12.127272727272727,88,32.17045454545455,-179.0,4.0,12.0,0
1724590609,18.5633017,73.8332417,515.5,12.560227272727273,88,32.18181818181818,-179.0,4.0,12.0,0
1724590610,18.5633017,73.8332417,515.5,12.72272727272727,88,32.19318181818182,-179.0,4.0,12.0,0
1724590611,18.5633017,73.8332417,515.5,11.200000000000001,86,32.94186046511628,-179.0,4.0,12.0,0
1724590612,18.5633017,73.8332417,515.5,12.16235294117647,85,33.28235294117647,-179.0,4.0,12.0,0
1724590613,18.5633017,73.8332417,515.5,12.502325581395349,86,33.22093023255814,-179.0,4.0,12.0,0
1724590614,18.5633017,73.8332417,515.5,12.597674418604653,86,33.22093023255814,-179.0,4.0,12.0,0
1724590615,18.5633017,73.8332417,515.5,12.619767441860464,86,33.22093023255814,-179.0,4.0,12.0,0
1724590616,18.5633017,73.8332417,515.5,12.73103448275862,87,33.02298850574713,-179.0,4.0,12.0,0
1724590617,18.5633017,73.8332417,515.5,12.583908045977012,87,33.02298850574713,-179.0,4.0,12.0,0
1724590618,18.5633017,73.8332417,515.5,11.825287356321839,87,32.71264367816092,-179.0,4.0,12.0,0
1724590619,18.5633017,73.8332417,515.5,13.02183908045977,87,32.689655172413794,-179.0,4.0,12.0,0
1724590620,18.5633017,73.8332417,515.5,13.019540229885058,87,32.701149425287355,-179.0,4.0,12.0,0
1724590621,18.5633017,73.8332417,515.5,13.313793103448276,87,32.55172413793103,-179.0,4.0,12.0,0
1724590622,18.5633017,73.8332417,515.5,13.790804597701149,87,32.55172413793103,-179.0,4.0,12.0,0
1724590623,18.5633017,73.8332417,515.5,13.160919540229886,87,32.55172413793103,-179.0,4.0,12.0,0
1724590624,18.5633017,73.8332417,515.5,13.090697674418605,86,32.627906976744185,-179.0,4.0,12.0,0
1724590625,18.5633017,73.8332417,515.5,12.905813953488373,86,32.627906976744185,-179.0,4.0,12.0,0
1724590626,18.5633017,73.8332417,515.5,12.993103448275862,87,32.55172413793103,-179.0,4.0,12.0,0
1724590627,18.5633017,73.8332417,515.5,13.140229885057472,87,32.55172413793103,-179.0,4.0,12.0,0
1724590628,18.5633017,73.8332417,515.5,12.929885057471266,87,32.42528735632184,-179.0,4.0,12.0,0
1724590629,18.5633017,73.8332417,515.5,12.994252873563218,87,32.42528735632184,-179.0,4.0,12.0,0
1724590630,18.5633017,73.8332417,515.5,12.982558139534884,86,32.395348837209305,-179.0,4.0,12.0,0
1724590631,18.5633017,73.8332417,515.5,13.126744186046512,86,32.395348837209305,-179.0,4.0,12.0,0
1724590632,18.5633017,73.8332417,515.5,13.165116279069768,86,32.395348837209305,-179.0,4.0,12.0,0
1724590633,18.5633017,73.8332417,515.5,13.18720930232558,86,32.395348837209305,-179.0,4.0,12.0,0
1724590634,18.5633017,73.8332417,515.5,13.35,86,32.395348837209305,-179.0,4.0,12.0,0
1724590635,18.5633017,73.8332417,515.5,13.127906976744185,86,32.406976744186046,-179.0,4.0,12.0,0
1724590636,18.5633017,73.8332417,515.5,13.175581395348836,86,32.406976744186046,-179.0,4.0,12.0,0
1724590637,18.5633017,73.8332417,515.5,13.160465116279068,86,32.395348837209305,-179.0,4.0,12.0,0
1724590638,18.5633017,73.8332417,515.5,13.604651162790697,86,32.406976744186046,-179.0,4.0,12.0,0
1724590639,18.5633017,73.8332417,515.5,13.34186046511628,86,32.406976744186046,-179.0,4.0,12.0,0
1724590640,18.5633017,73.8332417,515.5,13.403488372093024,86,32.406976744186046,-179.0,4.0,12.0,0
1724590641,18.5633017,73.8332417,515.5,13.243023255813954,86,32.395348837209305,-179.0,4.0,12.0,0
1724590642,18.5633017,73.8332417,515.5,13.461627906976744,86,32.41860465116279,-179.0,4.0,12.0,0
1724590643,18.5633017,73.8332417,515.5,13.496511627906978,86,32.41860465116279,-179.0,4.0,12.0,0
1724590644,18.5633017,73.8332417,515.5,13.512790697674417,86,32.41860465116279,-179.0,4.0,12.0,0
1724590645,18.5633017,73.8332417,515.5,13.494186046511627,86,32.41860465116279,-179.0,4.0,12.0,0
1724590646,18.5633017,73.8332417,515.5,13.55287356321839,87,32.333333333333336,-179.0,4.0,12.0,0
1724590647,18.5633017,73.8332417,515.5,13.572413793103447,87,32.333333333333336,-179.0,4.0,12.0,0
1724590648,18.5633017,73.8332417,515.5,13.493103448275862,87,32.333333333333336,-179.0,4.0,12.0,0
1724590649,18.5633017,73.8332417,515.5,13.68735632183908,87,32.310344827586206,-179.0,4.0,12.0,0
1724590650,18.5633017,73.8332417,515.5,13.782758620689654,87,32.298850574712645,-179.0,4.0,12.0,0
1724590651,18.5633017,73.8332417,515.5,13.802298850574712,87,32.298850574712645,-179.0,4.0,12.0,0
1724590652,18.5633017,73.8332417,515.5,13.858620689655172,87,32.298850574712645,-179.0,4.0,12.0,0
1724590653,18.5633017,73.8332417,515.5,13.888505747126436,87,32.310344827586206,-179.0,4.0,12.0,0
1724590654,18.5633017,73.8332417,515.5,12.416279069767441,86,32.33720930232558,-179.0,4.0,12.0,0
1724590655,18.5633017,73.8332417,515.5,13.055172413793104,87,32.264367816091955,-179.0,4.0,12.0,0
1724590656,18.5633017,73.8332417,515.5,13.139080459770113,87,32.264367816091955,-179.0,4.0,12.0,0
1724590657,18.5633017,73.8332417,515.5,13.38045977011494,87,32.264367816091955,-179.0,4.0,12.0,0
1724590658,18.5633017,73.8332417,515.5,13.220689655172414,87,32.264367816091955,-179.0,4.0,12.0,0
1724590659,18.5633017,73.8332417,515.5,13.47272727272727,88,32.17045454545455,-179.0,4.0,12.0,0
1724590660,18.5633017,73.8332417,515.5,13.554545454545455,88,32.17045454545455,-179.0,4.0,12.0,0
1724590661,18.5633017,73.8332417,515.5,13.495454545454544,88,32.18181818181818,-179.0,4.0,12.0,0
1724590662,18.5633017,73.8332417,515.5,14.0375,88,32.93181818181818,-179.0,4.0,12.0,0
1724590663,18.5633017,73.8332417,515.5,14.204545454545455,88,32.93181818181818,-179.0,4.0,12.0,0
1724590664,18.5633017,73.8332417,515.5,14.140909090909092,88,32.89772727272727,-179.0,4.0,12.0,0
1724590665,18.5633017,73.8332417,515.5,14.365909090909092,88,32.89772727272727,-179.0,4.0,12.0,0
1724590666,18.5633017,73.8332417,515.5,14.248863636363637,88,33.57954545454545,-179.0,4.0,12.0,0
1724590667,18.5633017,73.8332417,515.5,14.229545454545455,88,33.57954545454545,-179.0,4.0,12.0,0
1724590668,18.5633017,73.8332417,515.5,14.160919540229886,87,33.724137931034484,-179.0,4.0,12.0,0
1724590669,18.5633017,73.8332417,515.5,13.85340909090909,88,33.60227272727273,-179.0,4.0,12.0,0
1724590670,18.5633017,73.8332417,515.5,13.803409090909092,88,33.625,-179.0,4.0,12.0,0
1724590671,18.5633017,73.8332417,515.5,13.8375,88,33.625,-179.0,4.0,12.0,0
1724590672,18.5633017,73.8332417,515.5,13.905681818181819,88,33.42045454545455,-179.0,4.0,12.0,0
1724590673,18.5633017,73.8332417,515.5,13.745454545454544,88,33.40909090909091,-179.0,4.0,12.0,0
1724590674,18.5633017,73.8332417,515.5,13.7375,88,33.40909090909091,-179.0,4.0,12.0,0
1724590675,18.5633017,73.8332417,515.5,14.14659090909091,88,33.15909090909091,-179.0,4.0,12.0,0
1724590676,18.5633017,73.8332417,515.5,13.97471264367816,87,33.241379310344826,-179.0,4.0,12.0,0
1724590677,18.5633017,73.8332417,515.5,14.223863636363637,88,33.15909090909091,-179.0,4.0,12.0,0
1724590678,18.5633017,73.8332417,515.5,14.198863636363637,88,33.15909090909091,-179.0,4.0,12.0,0
1724590679,18.5633017,73.8332417,515.5,14.110227272727274,88,33.15909090909091,-179.0,4.0,12.0,0
1724590680,18.5633017,73.8332417,515.5,13.90227272727273,88,33.15909090909091,-179.0,4.0,11.0,0
1724590681,18.5633017,73.8332417,515.5,14.017045454545455,88,33.15909090909091,-179.0,4.0,12.0,0
1724590682,18.5633017,73.8332417,515.5,13.644318181818182,88,32.86363636363637,-179.0,4.0,12.0,0
1724590683,18.5633017,73.8332417,515.5,13.795454545454545,88,32.86363636363637,-179.0,4.0,12.0,0
1724590684,18.5633017,73.8332417,515.5,13.706818181818182,88,32.86363636363637,-179.0,4.0,12.0,0
1724590685,18.5633017,73.8332417,515.5,13.732954545454545,88,32.57954545454545,-179.0,4.0,12.0,0
1724590686,18.5633017,73.8332417,515.5,13.686363636363637,88,32.57954545454545,-179.0,4.0,12.0,0
1724590687,18.5633017,73.8332417,515.5,13.9375,88,32.57954545454545,-179.0,4.0,12.0,0
1724590688,18.5633017,73.8332417,515.5,13.719318181818181,88,32.57954545454545,-179.0,4.0,12.0,0
1724590689,18.5633017,73.8332417,515.5,13.7,88,32.57954545454545,-179.0,4.0,12.0,0
1724590690,18.5633017,73.8332417,515.5,13.794252873563217,87,32.6551724137931,-179.0,4.0,12.0,0
1724590691,18.5633017,73.8332417,515.5,13.867816091954023,87,32.54022988505747,-179.0,4.0,12.0,0
1724590692,18.5633017,73.8332417,515.5,13.867816091954023,87,32.54022988505747,-179.0,4.0,12.0,0
1724590693,18.5633017,73.8332417,515.5,13.911494252873563,87,32.54022988505747,-179.0,4.0,12.0,0
1724590694,18.5633017,73.8332417,515.5,13.773563218390803,87,33.172413793103445,-179.0,4.0,12.0,0
1724590695,18.5633017,73.8332417,515.5,13.654022988505748,87,33.172413793103445,-179.0,4.0,12.0,0
1724590696,18.5633017,73.8332417,515.5,13.662790697674419,86,33.25581395348837,-179.0,4.0,12.0,0
1724590697,18.5633017,73.8332417,515.5,13.818604651162792,86,33.25581395348837,-179.0,4.0,12.0,0
1724590698,18.5633017,73.8332417,515.5,13.83103448275862,87,33.172413793103445,-179.0,4.0,12.0,0
1724590699,18.5633017,73.8332417,515.5,14.020689655172413,87,33.172413793103445,-179.0,4.0,12.0,0
1724590700,18.5633017,73.8332417,515.5,13.847674418604653,86,33.95348837209303,-179.0,4.0,12.0,0
1724590701,18.5633017,73.8332417,515.5,13.890697674418604,86,33.95348837209303,-179.0,4.0,12.0,0
1724590702,18.5633017,73.8332417,515.5,13.690804597701149,87,33.747126436781606,-179.0,4.0,12.0,0
1724590703,18.5633017,73.8332417,515.5,13.896511627906976,86,33.95348837209303,-179.0,4.0,12.0,0
1724590704,18.5633017,73.8332417,515.5,13.940229885057471,87,33.54022988505747,-179.0,4.0,12.0,0
1724590705,18.5633017,73.8332417,515.5,13.666666666666666,87,33.54022988505747,-179.0,4.0,11.0,0
1724590706,18.5633017,73.8332417,515.5,13.709195402298851,87,33.54022988505747,-179.0,4.0,12.0,0
1724590707,18.5633017,73.8332417,515.5,13.958620689655174,87,33.54022988505747,-179.0,4.0,12.0,0
1724590708,18.5633017,73.8332417,515.5,13.823863636363637,88,33.39772727272727,-179.0,4.0,12.0,0
1724590709,18.5633017,73.8332417,515.5,13.767045454545455,88,33.17045454545455,-179.0,4.0,12.0,0
1724590710,18.5633017,73.8332417,515.5,13.864772727272726,88,33.17045454545455,-179.0,4.0,12.0,0
1724590711,18.5633017,73.8332417,515.5,13.993181818181819,88,33.17045454545455,-179.0,4.0,12.0,0
1724590712,18.5633017,73.8332417,515.5,13.970454545454546,88,33.17045454545455,-179.0,4.0,12.0,0
1724590713,18.5633017,73.8332417,515.5,13.77159090909091,88,33.17045454545455,-179.0,4.0,12.0,0
1724590714,18.5633017,73.8332417,515.5,13.66590909090909,88,32.88636363636363,-179.0,4.0,12.0,0
1724590715,18.5633017,73.8332417,515.5,13.789772727272727,88,32.88636363636363,-179.0,4.0,12.0,0
1724590716,18.5633017,73.8332417,515.5,13.71477272727273,88,32.88636363636363,-179.0,4.0,12.0,0
1724590717,18.5633017,73.8332417,515.5,13.776136363636363,88,32.88636363636363,-179.0,4.0,12.0,0
1724590718,18.5633017,73.8332417,515.5,13.594318181818181,88,32.88636363636363,-179.0,4.0,12.0,0
1724590719,18.5633017,73.8332417,515.5,13.482758620689655,87,32.701149425287355,-179.0,4.0,12.0,0
1724590720,18.5633017,73.8332417,515.5,13.782758620689654,87,32.701149425287355,-179.0,4.0,12.0,0
1724590721,18.5633017,73.8332417,515.5,13.431034482758621,87,32.689655172413794,-179.0,4.0,12.0,0
1724590722,18.5633017,73.8332417,515.5,13.586206896551724,87,32.689655172413794,-179.0,4.0,12.0,0
1724590723,18.5633017,73.8332417,515.5,13.65977011494253,87,32.54022988505747,-179.0,4.0,11.0,0
1724590724,18.5633017,73.8332417,515.5,13.913793103448276,87,32.54022988505747,-179.0,4.0,12.0,0
1724590725,18.5633017,73.8332417,515.5,13.948275862068966,87,32.54022988505747,-179.0,4.0,12.0,0
1724590726,18.5633017,73.8332417,515.5,13.814942528735633,87,32.54022988505747,-179.0,4.0,12.0,0
1724590727,18.5633017,73.8332417,515.5,13.701149425287356,87,32.54022988505747,-179.0,4.0,12.0,0
1724590728,18.5633017,73.8332417,515.5,13.774712643678162,87,32.41379310344828,-179.0,4.0,12.0,0
1724590729,18.5633017,73.8332417,515.5,13.773563218390803,87,32.41379310344828,-179.0,4.0,12.0,0
1724590730,18.5633017,73.8332417,515.5,13.809195402298851,87,32.41379310344828,-179.0,4.0,12.0,0
1724590731,18.5633017,73.8332417,515.5,13.842528735632184,87,32.39080459770115,-179.0,4.0,12.0,0
1724590732,18.5633017,73.8332417,515.5,13.802298850574712,87,32.41379310344828,-179.0,4.0,12.0,0
1724590733,18.5633017,73.8332417,515.5,13.882758620689655,87,32.310344827586206,-179.0,4.0,12.0,0
1724590734,18.5633017,73.8332417,515.5,13.7367816091954,87,32.310344827586206,-179.0,4.0,12.0,0
1724590735,18.5633017,73.8332417,515.5,13.94712643678161,87,32.310344827586206,-179.0,4.0,12.0,0
1724590736,18.5633017,73.8332417,515.5,13.919767441860465,86,32.383720930232556,-179.0,4.0,12.0,0
1724590737,18.5633017,73.8332417,515.5,13.975862068965519,87,32.298850574712645,-179.0,4.0,12.0,0
1724590738,18.5633017,73.8332417,515.5,13.9,87,32.310344827586206,-179.0,4.0,12.0,0
1724590739,18.5633017,73.8332417,515.5,14.290804597701149,87,32.310344827586206,-179.0,4.0,12.0,0
1724590740,18.5633017,73.8332417,515.5,14.23793103448276,87,32.310344827586206,-179.0,4.0,12.0,0
1724590741,18.5633017,73.8332417,515.5,14.34022988505747,87,32.310344827586206,-179.0,4.0,12.0,0
1724590742,18.5633017,73.8332417,515.5,14.42183908045977,87,32.229885057471265,-179.0,4.0,12.0,0
1724590743,18.5633017,73.8332417,515.5,14.34712643678161,87,32.229885057471265,-179.0,4.0,12.0,0
1724590744,18.5633017,73.8332417,515.5,14.255172413793105,87,32.229885057471265,-179.0,4.0,12.0,0
1724590745,18.5633017,73.8332417,515.5,14.370114942528737,87,32.229885057471265,-179.0,4.0,12.0,0
1724590746,18.5633017,73.8332417,515.5,14.46896551724138,87,32.229885057471265,-179.0,4.0,12.0,0
1724590747,18.5633017,73.8332417,515.5,14.631034482758622,87,32.229885057471265,-179.0,4.0,12.0,0
1724590748,18.5633017,73.8332417,515.5,14.66896551724138,87,32.98850574712644,-179.0,4.0,12.0,0
1724590749,18.5633017,73.8332417,515.5,14.596551724137932,87,33.0,-179.0,4.0,12.0,0
1724590750,18.5633017,73.8332417,515.5,14.639080459770113,87,33.0,-179.0,4.0,12.0,0
1724590751,18.5633017,73.8332417,515.5,14.59310344827586,87,33.0,-179.0,4.0,12.0,0
1724590752,18.5633017,73.8332417,515.5,14.785057471264368,87,33.67816091954023,-179.0,4.0,12.0,0
1724590753,18.5633017,73.8332417,515.5,14.774712643678162,87,33.67816091954023,-179.0,4.0,12.0,0
1724590754,18.5633017,73.8332417,515.5,14.681395348837208,86,33.76744186046512,-179.0,4.0,12.0,0
1724590755,18.5633017,73.8332417,515.5,14.813953488372093,86,33.76744186046512,-179.0,4.0,11.0,0
1724590756,18.5633017,73.8332417,515.5,14.773563218390803,87,33.666666666666664,-179.0,4.0,12.0,0
1724590757,18.5633017,73.8332417,515.5,14.729885057471265,87,33.45977011494253,-179.0,4.0,12.0,0
1724590758,18.5633017,73.8332417,515.5,14.819540229885057,87,33.45977011494253,-179.0,4.0,12.0,0
1724590759,18.5633017,73.8332417,515.5,14.75287356321839,87,33.47126436781609,-179.0,4.0,12.0,0
1724590760,18.5633017,73.8332417,515.5,14.903448275862068,87,33.47126436781609,-179.0,4.0,12.0,0
1724590761,18.5633017,73.8332417,515.5,14.87241379310345,87,33.2183908045977,-179.0,4.0,12.0,0
1724590762,18.5633017,73.8332417,515.5,14.611494252873564,87,33.2183908045977,-179.0,4.0,12.0,0
1724590763,18.5633017,73.8332417,515.5,14.705813953488372,86,33.325581395348834,-179.0,4.0,12.0,0
1724590764,18.5633017,73.8332417,515.5,14.773563218390803,87,33.229885057471265,-179.0,4.0,12.0,0
1724590765,18.5633017,73.8332417,515.5,14.791860465116278,86,33.348837209302324,-179.0,4.0,12.0,0
1724590766,18.5633017,73.8332417,515.5,14.736046511627906,86,33.04651162790697,-179.0,4.0,12.0,0
1724590767,18.5633017,73.8332417,515.5,14.824137931034484,87,32.95402298850575,-179.0,4.0,12.0,0
1724590768,18.5633017,73.8332417,515.5,14.826436781609196,87,32.96551724137931,-179.0,4.0,12.0,0
1724590769,18.5633017,73.8332417,515.5,14.820930232558139,86,33.05813953488372,-179.0,4.0,12.0,0
1724590770,18.5633017,73.8332417,515.5,14.843023255813954,86,33.05813953488372,-179.0,4.0,12.0,0
1724590771,18.5633017,73.8332417,515.5,14.923255813953489,86,32.73255813953488,-179.0,4.0,12.0,0
1724590772,18.5633017,73.8332417,515.5,14.910344827586208,87,32.64367816091954,-179.0,4.0,12.0,0
1724590773,18.5633017,73.8332417,515.5,14.796511627906977,86,32.73255813953488,-179.0,4.0,12.0,0
1724590774,18.5633017,73.8332417,515.5,14.903448275862068,87,32.62068965517241,-179.0,4.0,12.0,0
1724590775,18.5633017,73.8332417,515.5,14.982758620689655,87,32.47126436781609,-179.0,4.0,12.0,0
1724590776,18.5633017,73.8332417,515.5,15.03103448275862,87,32.48275862068966,-179.0,4.0,12.0,0
1724590777,18.5633017,73.8332417,515.5,15.037931034482758,87,32.48275862068966,-179.0,4.0,12.0,0
1724590778,18.5633017,73.8332417,515.5,14.903448275862068,87,32.48275862068966,-179.0,4.0,12.0,0
1724590779,18.5633017,73.8332417,515.5,15.037209302325582,86,32.593023255813954,-179.0,4.0,12.0,0
1724590780,18.5633017,73.8332417,515.5,15.006976744186046,86,32.46511627906977,-179.0,4.0,12.0,0
1724590781,18.5633017,73.8332417,515.5,15.002325581395349,86,32.46511627906977,-179.0,4.0,12.0,0
1724590782,18.5633017,73.8332417,515.5,14.879310344827585,87,32.35632183908046,-179.0,4.0,12.0,0
1724590783,18.5633017,73.8332417,515.5,14.81264367816092,87,32.367816091954026,-179.0,4.0,12.0,0
1724590784,18.5633017,73.8332417,515.5,15.044827586206898,87,32.264367816091955,-179.0,4.0,12.0,0
1724590785,18.5633017,73.8332417,515.5,15.227586206896552,87,32.28735632183908,-179.0,4.0,12.0,0
1724590786,18.5633017,73.8332417,515.5,15.201149425287356,87,32.298850574712645,-179.0,4.0,12.0,0
1724590787,18.5633017,73.8332417,515.5,14.644827586206896,87,32.298850574712645,-179.0,4.0,12.0,0
1724590788,18.5633017,73.8332417,515.5,14.72873563218391,87,32.298850574712645,-179.0,4.0,12.0,0
1724590789,18.5633017,73.8332417,515.5,14.82183908045977,87,32.310344827586206,-179.0,4.0,12.0,0
1724590790,18.5633017,73.8332417,515.5,14.987356321839082,87,32.310344827586206,-179.0,4.0,12.0,0
1724590791,18.5633017,73.8332417,515.5,14.864367816091955,87,32.310344827586206,-179.0,4.0,12.0,0
1724590792,18.5633017,73.8332417,515.5,14.970114942528737,87,32.310344827586206,-179.0,4.0,12.0,0
1724590793,18.5633017,73.8332417,515.5,14.967816091954024,87,32.32183908045977,-179.0,4.0,12.0,0
1724590794,18.5633017,73.8332417,515.5,15.065517241379311,87,32.298850574712645,-179.0,4.0,12.0,0
1724590795,18.5633017,73.8332417,515.5,15.066279069767443,86,32.36046511627907,-179.0,4.0,12.0,0
1724590796,18.5633017,73.8332417,515.5,15.148837209302325,86,32.372093023255815,-179.0,4.0,12.0,0
1724590797,18.5633017,73.8332417,515.5,15.065517241379311,87,32.28735632183908,-179.0,4.0,12.0,0
1724590798,18.5633017,73.8332417,515.5,15.017045454545455,88,32.32954545454545,-179.0,4.0,12.0,0
1724590799,18.5633017,73.8332417,515.5,15.125,88,32.32954545454545,-179.0,4.0,12.0,0
1724590800,18.5633017,73.8332417,515.5,14.885227272727274,88,32.32954545454545,-179.0,4.0,12.0,0
1724590801,18.5633017,73.8332417,515.5,15.064772727272727,88,32.34090909090909,-179.0,4.0,12.0,0
1724590802,18.5633017,73.8332417,515.5,15.098863636363637,88,32.34090909090909,-179.0,4.0,12.0,0
1724590803,18.5633017,73.8332417,515.5,14.956321839080461,87,32.42528735632184,-179.0,4.0,12.0,0
1724590804,18.5633017,73.8332417,515.5,14.814117647058824,85,32.23529411764706,-179.0,4.0,12.0,0
1724590805,18.5633017,73.8332417,515.5,14.934117647058825,85,32.23529411764706,-179.0,4.0,12.0,0
1724590806,18.5633017,73.8332417,515.5,15.045977011494253,87,32.42528735632184,-179.0,4.0,12.0,0
1724590807,18.5633017,73.8332417,515.5,15.059302325581394,86,32.5,-179.0,4.0,12.0,0
1724590808,18.5633017,73.8332417,515.5,14.94712643678161,87,32.42528735632184,-179.0,4.0,12.0,0
1724590809,18.5633017,73.8332417,515.5,15.026436781609195,87,32.4367816091954,-179.0,4.0,12.0,0
1724590810,18.5633017,73.8332417,515.5,14.83448275862069,87,32.4367816091954,-179.0,4.0,12.0,0
1724590811,18.5633017,73.8332417,515.5,15.006896551724138,87,32.44827586206897,-179.0,4.0,12.0,0
1724590812,18.5633017,73.8332417,515.5,14.945977011494252,87,32.4367816091954,-179.0,4.0,12.0,0
1724590813,18.5633017,73.8332417,515.5,15.051724137931034,87,32.4367816091954,-179.0,4.0,12.0,0
1724590814,18.5633017,73.8332417,515.5,15.299999999999999,87,33.06896551724138,-179.0,4.0,12.0,0
1724590815,18.5633017,73.8332417,515.5,15.431034482758621,87,33.06896551724138,-179.0,4.0,12.0,0
1724590816,18.5633017,73.8332417,515.5,15.282758620689654,87,33.06896551724138,-179.0,4.0,12.0,0
1724590817,18.5633017,73.8332417,515.5,15.466666666666665,87,33.06896551724138,-179.0,4.0,12.0,0
1724590818,18.5633017,73.8332417,515.5,15.436781609195402,87,33.758620689655174,-179.0,4.0,12.0,0
1724590819,18.5633017,73.8332417,515.5,15.541379310344826,87,33.758620689655174,-179.0,4.0,12.0,0
1724590820,18.5633017,73.8332417,515.5,15.428735632183907,87,33.758620689655174,-179.0,4.0,12.0,0
1724590821,18.5633017,73.8332417,515.5,15.420689655172414,87,33.758620689655174,-179.0,4.0,12.0,0
1724590822,18.5633017,73.8332417,515.5,15.401149425287358,87,33.758620689655174,-179.0,4.0,12.0,0
1724590823,18.5633017,73.8332417,515.5,15.316091954022989,87,33.55172413793103,-179.0,4.0,12.0,0
1724590824,18.5633017,73.8332417,515.5,15.352873563218392,87,33.55172413793103,-179.0,4.0,12.0,0
1724590825,18.5633017,73.8332417,515.5,15.314942528735633,87,33.54022988505747,-179.0,4.0,12.0,0
1724590826,18.5633017,73.8332417,515.5,14.639080459770113,87,33.52873563218391,-179.0,4.0,12.0,0
1724590827,18.5633017,73.8332417,515.5,14.751724137931035,87,33.275862068965516,-179.0,4.0,12.0,0
1724590828,18.5633017,73.8332417,515.5,14.684883720930234,86,33.395348837209305,-179.0,4.0,12.0,0
1724590829,18.5633017,73.8332417,515.5,14.703488372093023,86,33.406976744186046,-179.0,4.0,12.0,0
1724590830,18.5633017,73.8332417,515.5,14.718390804597702,87,33.28735632183908,-179.0,4.0,12.0,0
1724590831,18.5633017,73.8332417,515.5,14.867816091954023,87,33.28735632183908,-179.0,4.0,12.0,0
1724590832,18.5633017,73.8332417,515.5,15.117241379310345,87,32.98850574712644,-179.0,4.0,12.0,0
1724590833,18.5633017,73.8332417,515.5,15.128735632183908,87,33.0,-179.0,4.0,12.0,0
1724590834,18.5633017,73.8332417,515.5,15.194186046511629,86,33.08139534883721,-179.0,4.0,12.0,0
1724590835,18.5633017,73.8332417,515.5,15.002298850574713,87,33.01149425287356,-179.0,4.0,12.0,0
1724590836,18.5633017,73.8332417,515.5,14.860919540229887,87,33.01149425287356,-179.0,4.0,12.0,0
1724590837,18.5633017,73.8332417,515.5,15.090804597701151,87,32.724137931034484,-179.0,4.0,12.0,0
1724590838,18.5633017,73.8332417,515.5,15.098850574712642,87,32.724137931034484,-179.0,4.0,12.0,0
1724590839,18.5633017,73.8332417,515.5,15.049425287356321,87,32.735632183908045,-179.0,4.0,12.0,0
1724590840,18.5633017,73.8332417,515.5,15.071264367816093,87,32.735632183908045,-179.0,4.0,12.0,0
1724590841,18.5633017,73.8332417,515.5,15.33103448275862,87,32.747126436781606,-179.0,4.0,12.0,0
1724590842,18.5633017,73.8332417,515.5,15.251724137931035,87,32.58620689655172,-179.0,4.0,12.0,0
1724590843,18.5633017,73.8332417,515.5,15.144827586206896,87,32.58620689655172,-179.0,4.0,12.0,0
