timestamp,latitude,longitude,altitude,mean_snr,sat_count,mean_elevation,mean_azimuth,roll,pitch,yaw,is_inclined
1724672220,18.5632783,73.8331533,525.4,21.06222222222222,90,31.488888888888887,145.45555555555555,-91.0,-84.0,85.0,0
1724672221,18.5632741,73.8331491,527.4,22.964444444444446,90,31.488888888888887,145.45555555555555,-90.0,-84.0,86.0,0
1724672222,18.5632733,73.8331486,527.4,,0,,,-90.0,-84.0,86.0,0
1724672223,18.5632731,73.8331484,527.4,22.684615384615388,91,31.417582417582416,147.34065934065933,-90.0,-84.0,86.0,0
1724672224,18.5632756,73.8331688,517.6,23.222826086956523,92,31.42391304347826,148.16304347826087,-91.0,-84.0,85.0,0
1724672225,18.5632763,73.8331745,517.6,24.00537634408602,93,31.49462365591398,150.1720430107527,-90.0,-84.0,86.0,0
1724672226,18.5632765,73.833176,517.6,23.689247311827955,93,31.49462365591398,150.1720430107527,-90.0,-84.0,86.0,0
1724672227,18.5632766,73.8331765,517.6,23.865957446808512,94,31.606382978723403,149.0531914893617,-90.0,-84.0,86.0,0
1724672228,18.5632767,73.8331766,517.6,23.74301075268817,93,31.537634408602152,147.05376344086022,-90.0,-84.0,86.0,0
1724672229,18.5632767,73.8331767,517.6,23.981521739130436,92,31.597826086956523,148.0108695652174,-80.0,-84.0,96.0,0
1724672230,18.5632814,73.8331803,518.3,23.428571428571427,91,31.428571428571427,146.4065934065934,-95.0,-84.0,81.0,0
1724672231,18.5632828,73.8331813,518.5,23.30222222222222,90,31.31111111111111,147.53333333333333,-92.0,-84.0,85.0,0
1724672232,18.5632844,73.8331816,518.6,23.504444444444445,90,31.31111111111111,147.53333333333333,-107.0,-84.0,69.0,0
1724672233,18.563287,73.8331828,518.6,24.204444444444444,90,31.31111111111111,147.53333333333333,-87.0,-84.0,89.0,0
1724672234,18.563288,73.8331832,518.9,24.183333333333334,90,31.177777777777777,146.1888888888889,-93.0,-84.0,83.0,0
1724672235,18.5632883,73.8331845,519.1,24.465555555555557,90,31.177777777777777,146.1888888888889,-104.0,-82.0,72.0,0
1724672236,18.5632883,73.8331861,519.0,24.1010989010989,91,31.142857142857142,146.67032967032966,-109.0,-82.0,67.0,0
1724672237,18.5632883,73.8331875,519.0,24.219565217391303,92,31.195652173913043,148.7173913043478,-111.0,-82.0,65.0,0
1724672238,18.5632882,73.8331879,519.3,23.662365591397847,93,30.451612903225808,148.09677419354838,-103.0,-82.0,74.0,0
1724672239,18.5632883,73.8331918,519.6,23.539361702127657,94,29.914893617021278,145.86170212765958,-101.0,-82.0,76.0,0
1724672240,18.5632882,73.8331954,519.6999999999999,23.236842105263158,95,29.694736842105264,145.25263157894736,-100.0,-83.0,76.0,0
1724672241,18.5632881,73.8331988,519.8,23.562105263157896,95,29.694736842105264,145.25263157894736,-91.0,-83.0,86.0,0
1724672242,18.5632882,73.8331998,519.8,23.538947368421052,95,29.694736842105264,145.25263157894736,-92.0,-83.0,84.0,0
1724672243,18.5632881,73.8332001,519.8,23.896842105263158,95,29.694736842105264,145.25263157894736,-92.0,-84.0,85.0,0
1724672244,18.5632883,73.8332002,519.8,23.981052631578944,95,29.694736842105264,145.25263157894736,-97.0,-82.0,79.0,0
1724672245,18.5632884,73.8332098,520.1999999999999,23.753684210526316,95,29.694736842105264,145.25263157894736,-98.0,-84.0,78.0,0
1724672246,18.5632884,73.8332137,520.3,23.966315789473686,95,29.694736842105264,145.25263157894736,-96.0,-83.0,80.0,0
1724672247,18.5632871,73.8332148,520.4,24.72736842105263,95,30.726315789473684,144.42105263157896,-95.0,-83.0,82.0,0
1724672248,18.5632869,73.8332151,520.4,24.689473684210526,95,31.25263157894737,145.8,-95.0,-83.0,82.0,0
1724672249,18.5632867,73.8332152,520.4,25.369473684210526,95,31.25263157894737,145.8,-94.0,-83.0,83.0,0
1724672250,18.5632867,73.8332152,520.4,25.442105263157895,95,31.25263157894737,145.8,-94.0,-83.0,82.0,0
1724672251,18.5632866,73.8332163,521.0,24.886458333333334,96,31.552083333333332,145.5625,-94.0,-83.0,82.0,0
1724672252,18.5632866,73.8332166,520.9,25.756249999999998,96,31.552083333333332,145.5625,-94.0,-83.0,82.0,0
1724672253,18.5632878,73.8332154,521.0,25.963541666666668,96,31.552083333333332,145.5625,-94.0,-83.0,83.0,0
1724672254,18.5632882,73.8332151,521.0,25.148958333333336,96,31.552083333333332,145.5625,-93.0,-83.0,84.0,0
1724672255,18.5632883,73.833215,521.0,25.2625,96,31.552083333333332,145.5625,-87.0,-83.0,90.0,0
1724672256,18.5632883,73.833215,521.0,25.775000000000002,96,31.364583333333332,145.90625,-92.0,-84.0,85.0,0
1724672257,18.5632883,73.833215,521.0,26.049473684210525,95,31.2,144.2421052631579,-88.0,-84.0,89.0,0
1724672258,18.5632883,73.833215,521.0,26.18541666666667,96,31.135416666666668,146.04166666666666,-89.0,-84.0,88.0,0
1724672259,18.5632883,73.833215,521.0,26.003125,96,31.135416666666668,146.04166666666666,-84.0,-84.0,94.0,0
1724672260,18.5632883,73.833215,521.0,26.066666666666666,96,31.135416666666668,146.04166666666666,-91.0,-84.0,86.0,0
1724672261,18.5632883,73.833215,521.0,26.45684210526316,95,31.36842105263158,146.65263157894736,-106.0,-83.0,71.0,0
1724672262,18.5632883,73.833215,521.0,26.542105263157893,95,31.36842105263158,146.66315789473686,-96.0,-83.0,81.0,0
1724672263,18.5632883,73.833215,521.0,25.763829787234044,94,31.29787234042553,144.67021276595744,-100.0,-83.0,77.0,0
1724672264,18.5632883,73.833215,521.0,26.2,96,31.135416666666668,146.0625,-112.0,-82.0,64.0,0
1724672265,18.5632883,73.833215,521.0,25.650000000000002,96,31.135416666666668,146.0625,-84.0,-85.0,92.0,0
1724672266,18.5632883,73.833215,521.0,24.540625000000002,96,30.864583333333332,147.15625,-90.0,-84.0,87.0,0
1724672267,18.5632883,73.833215,521.0,24.15416666666667,96,30.59375,145.54166666666666,-105.0,-83.0,72.0,0
1724672268,18.5632883,73.833215,521.0,24.455789473684213,95,30.652631578947368,143.73684210526315,-118.0,-83.0,59.0,0
1724672269,18.5632883,73.833215,521.0,25.17127659574468,94,30.574468085106382,141.70212765957447,-106.0,-83.0,71.0,0
1724672270,18.5632883,73.833215,521.0,25.19255319148936,94,30.574468085106382,141.70212765957447,-114.0,-82.0,63.0,0
1724672271,18.5632883,73.833215,521.0,25.086170212765957,94,30.574468085106382,141.70212765957447,-108.0,-83.0,68.0,0
1724672272,18.5632883,73.833215,521.0,24.746808510638296,94,30.574468085106382,141.70212765957447,-112.0,-83.0,64.0,0
1724672273,18.5632883,73.833215,521.0,25.211702127659574,94,30.56382978723404,141.70212765957447,-108.0,-83.0,69.0,0
1724672274,18.5632883,73.833215,521.0,25.10851063829787,94,30.574468085106382,141.74468085106383,-89.0,-85.0,88.0,0
1724672275,18.5632883,73.833215,521.0,24.887234042553192,94,30.43617021276596,139.06382978723406,11.0,-87.0,189.0,0
1724672276,18.5632883,73.833215,521.0,25.131914893617022,94,30.319148936170212,138.06382978723406,18.0,-87.0,196.0,0
1724672277,18.5632883,73.833215,521.0,24.92659574468085,94,30.319148936170212,138.06382978723406,21.0,-88.0,199.0,0
1724672278,18.5632883,73.833215,521.0,25.140860215053763,93,30.537634408602152,138.6021505376344,14.0,-88.0,192.0,0
1724672279,18.5632883,73.833215,521.0,25.281720430107526,93,30.537634408602152,138.59139784946237,14.0,-88.0,192.0,0
1724672280,18.5632883,73.833215,521.0,25.105376344086025,93,30.537634408602152,138.59139784946237,13.0,-88.0,191.0,0
1724672281,18.5632883,73.833215,521.0,24.73510638297872,94,30.617021276595743,140.68085106382978,0.0,-88.0,177.0,0
1724672282,18.5632883,73.833215,521.0,25.302150537634407,93,30.387096774193548,138.69892473118279,9.0,-88.0,188.0,0
1724672283,18.5632883,73.833215,521.0,24.96276595744681,94,30.617021276595743,140.68085106382978,-112.0,-88.0,65.0,0
1724672284,18.5632883,73.833215,521.0,25.23510638297872,94,30.52127659574468,139.6595744680851,-118.0,-88.0,60.0,0
1724672285,18.5632883,73.833215,521.0,25.190526315789473,95,30.46315789473684,141.6315789473684,-73.0,-89.0,105.0,0
1724672286,18.5632883,73.833215,521.0,24.538297872340426,94,30.24468085106383,139.63829787234042,-30.0,-88.0,147.0,0
1724672287,18.5632883,73.833215,521.0,24.044210526315787,95,30.473684210526315,141.58947368421053,-51.0,-86.0,126.0,0
1724672288,18.5632883,73.833215,521.0,24.298947368421054,95,30.28421052631579,140.21052631578948,-35.0,-86.0,142.0,0
1724672289,18.5632883,73.833215,521.0,24.197849462365593,93,30.526881720430108,139.83870967741936,-48.0,-85.0,129.0,0
1724672290,18.5632883,73.833215,521.0,23.708602150537637,93,30.526881720430108,139.8494623655914,-48.0,-85.0,129.0,0
1724672291,18.5632883,73.833215,521.0,24.436559139784944,93,30.516129032258064,139.8494623655914,-47.0,-85.0,131.0,0
1724672292,18.5632883,73.833215,521.0,24.938297872340424,94,30.52127659574468,140.72340425531914,-47.0,-85.0,131.0,0
1724672293,18.5632883,73.833215,521.0,24.901063829787233,94,30.52127659574468,140.72340425531914,-46.0,-85.0,131.0,0
1724672294,18.5632883,73.833215,521.0,24.991489361702126,94,30.52127659574468,140.7127659574468,-46.0,-85.0,131.0,0
1724672295,18.5632883,73.833215,521.0,25.137894736842103,95,30.46315789473684,141.58947368421053,-46.0,-85.0,131.0,0
1724672296,18.5632883,73.833215,521.0,25.518947368421056,95,31.157894736842106,143.8,-47.0,-85.0,130.0,0
1724672297,18.5632883,73.833215,521.0,25.880208333333332,96,31.03125,144.53125,-47.0,-85.0,131.0,0
1724672298,18.5632883,73.833215,521.0,26.191752577319587,97,30.5979381443299,141.79381443298968,-47.0,-85.0,131.0,0
1724672299,18.5632883,73.833215,521.0,26.119791666666668,96,30.916666666666668,143.27083333333334,-46.0,-85.0,132.0,0
1724672300,18.5632883,73.833215,521.0,26.005208333333332,96,30.916666666666668,143.27083333333334,-46.0,-85.0,132.0,0
1724672301,18.5632883,73.833215,521.0,25.873958333333334,96,31.53125,145.65625,-46.0,-85.0,132.0,0
1724672302,18.5632883,73.833215,521.0,25.739583333333332,96,31.53125,145.65625,-46.0,-85.0,132.0,0
1724672303,18.5632883,73.833215,521.0,25.644791666666666,96,31.552083333333332,145.67708333333334,-46.0,-85.0,132.0,0
1724672304,18.5632883,73.833215,521.0,25.961458333333336,96,31.572916666666668,145.71875,-46.0,-85.0,132.0,0
1724672305,18.5632883,73.833215,521.0,25.926041666666666,96,31.385416666666668,146.0625,-47.0,-85.0,131.0,0
1724672306,18.5632883,73.833215,521.0,25.883333333333336,96,31.385416666666668,146.0625,-47.0,-85.0,131.0,0
1724672307,18.5632883,73.833215,521.0,25.756249999999998,96,31.385416666666668,146.0625,-47.0,-85.0,131.0,0
1724672308,18.5632883,73.833215,521.0,25.969791666666666,96,31.385416666666668,146.08333333333334,-46.0,-85.0,132.0,0
1724672309,18.5632883,73.833215,521.0,25.73125,96,31.385416666666668,146.08333333333334,-46.0,-85.0,132.0,0
1724672310,18.5632883,73.833215,521.0,26.05,96,31.15625,146.32291666666666,-47.0,-85.0,131.0,0
1724672311,18.5632883,73.833215,521.0,25.96875,96,31.15625,146.32291666666666,-47.0,-85.0,131.0,0
1724672312,18.5632883,73.833215,521.0,25.757291666666664,96,31.15625,146.32291666666666,-46.0,-85.0,132.0,0
1724672313,18.5632883,73.833215,521.0,25.894791666666666,96,31.15625,146.3125,-46.0,-85.0,132.0,0
1724672314,18.5632883,73.833215,521.0,25.989583333333332,96,30.885416666666668,147.40625,-46.0,-85.0,132.0,0
1724672315,18.5632883,73.833215,521.0,26.008333333333336,96,30.885416666666668,147.40625,-46.0,-85.0,132.0,0
1724672316,18.5632883,73.833215,521.0,26.01354166666667,96,30.885416666666668,147.40625,-47.0,-85.0,131.0,0
1724672317,18.5632883,73.833215,521.0,26.098958333333332,96,30.885416666666668,147.40625,-46.0,-85.0,132.0,0
1724672318,18.5632883,73.833215,521.0,26.036458333333332,96,30.885416666666668,147.40625,-47.0,-85.0,131.0,0
1724672319,18.5632883,73.833215,521.0,26.047916666666666,96,30.614583333333332,145.78125,-46.0,-85.0,132.0,0
1724672320,18.5632883,73.833215,521.0,26.196875000000002,96,30.614583333333332,145.78125,-46.0,-85.0,132.0,0
1724672321,18.5632883,73.833215,521.0,26.1375,96,30.614583333333332,145.78125,-46.0,-85.0,132.0,0
1724672322,18.5632883,73.833215,521.0,25.95154639175258,97,30.329896907216494,146.72164948453607,-46.0,-85.0,132.0,0
1724672323,18.5632883,73.833215,521.0,26.117525773195876,97,30.195876288659793,144.1237113402062,-46.0,-85.0,132.0,0
1724672324,18.5632883,73.833215,521.0,25.919587628865976,97,30.195876288659793,144.1237113402062,-46.0,-85.0,132.0,0
1724672325,18.5632883,73.833215,521.0,25.898969072164945,97,30.195876288659793,144.1237113402062,-46.0,-85.0,132.0,0
1724672326,18.5632883,73.833215,521.0,25.89278350515464,97,30.195876288659793,144.10309278350516,-46.0,-85.0,132.0,0
1724672327,18.5632883,73.833215,521.0,25.917525773195877,97,30.195876288659793,144.22680412371133,-46.0,-85.0,132.0,0
1724672328,18.5632883,73.833215,521.0,26.15463917525773,97,29.608247422680414,141.68041237113403,-46.0,-85.0,132.0,0
1724672329,18.5632883,73.833215,521.0,26.07010309278351,97,29.783505154639176,145.04123711340208,-46.0,-85.0,133.0,0
1724672330,18.5632883,73.833215,521.0,25.904123711340205,97,29.783505154639176,145.04123711340208,-46.0,-85.0,132.0,0
1724672331,18.5632883,73.833215,521.0,26.02577319587629,97,29.783505154639176,145.04123711340208,-46.0,-85.0,132.0,0
1724672332,18.5632883,73.833215,521.0,25.744329896907214,97,29.690721649484537,144.04123711340208,-46.0,-85.0,132.0,0
1724672333,18.5632883,73.833215,521.0,25.812244897959182,98,29.653061224489797,145.80612244897958,-47.0,-85.0,132.0,0
1724672334,18.5632883,73.833215,521.0,25.835714285714285,98,29.653061224489797,145.80612244897958,-48.0,-85.0,130.0,0
1724672335,18.5632883,73.833215,521.0,25.88469387755102,98,29.653061224489797,145.80612244897958,-48.0,-85.0,130.0,0
1724672336,18.5632883,73.833215,521.0,25.738775510204082,98,29.653061224489797,145.79591836734693,-56.0,-85.0,122.0,0
1724672337,18.5632883,73.833215,521.0,25.678571428571427,98,29.653061224489797,145.79591836734693,-51.0,-85.0,127.0,0
1724672338,18.5632883,73.833215,521.0,25.816326530612244,98,29.653061224489797,145.79591836734693,-50.0,-85.0,128.0,0
1724672339,18.5632883,73.833215,521.0,26.00408163265306,98,29.653061224489797,145.78571428571428,-48.0,-85.0,130.0,0
1724672340,18.5632883,73.833215,521.0,25.860204081632656,98,29.653061224489797,145.78571428571428,-51.0,-85.0,127.0,0
1724672341,18.5632883,73.833215,521.0,25.66122448979592,98,29.653061224489797,145.78571428571428,-50.0,-85.0,128.0,0
1724672342,18.5632883,73.833215,521.0,25.670408163265304,98,29.653061224489797,145.77551020408163,-51.0,-85.0,128.0,0
1724672343,18.5632883,73.833215,521.0,25.877551020408163,98,29.653061224489797,145.77551020408163,-52.0,-85.0,126.0,0
1724672344,18.5632883,73.833215,521.0,25.80816326530612,98,29.653061224489797,145.77551020408163,-49.0,-85.0,129.0,0
1724672345,18.5632883,73.833215,521.0,25.581632653061224,98,29.653061224489797,145.76530612244898,-52.0,-85.0,126.0,0
1724672346,18.5632883,73.833215,521.0,25.24591836734694,98,29.653061224489797,145.76530612244898,-49.0,-85.0,130.0,0
1724672347,18.5632883,73.833215,521.0,25.368367346938776,98,29.653061224489797,145.76530612244898,-54.0,-85.0,125.0,0
1724672348,18.5632883,73.833215,521.0,25.66122448979592,98,29.653061224489797,145.75510204081633,-49.0,-85.0,129.0,0
1724672349,18.5632883,73.833215,521.0,25.806122448979593,98,29.653061224489797,145.75510204081633,-48.0,-85.0,130.0,0
1724672350,18.5632883,73.833215,521.0,25.8,98,29.653061224489797,145.75510204081633,-48.0,-85.0,130.0,0
1724672351,18.5632883,73.833215,521.0,25.68469387755102,98,29.653061224489797,145.74489795918367,-50.0,-85.0,128.0,0
1724672352,18.5632883,73.833215,521.0,25.666326530612245,98,29.653061224489797,145.74489795918367,-48.0,-85.0,130.0,0
1724672353,18.5632883,73.833215,521.0,25.575510204081635,98,29.653061224489797,145.74489795918367,-48.0,-85.0,130.0,0
1724672354,18.5632883,73.833215,521.0,25.674226804123712,97,29.350515463917525,145.97938144329896,-48.0,-85.0,130.0,0
1724672355,18.5632883,73.833215,521.0,25.87216494845361,97,29.350515463917525,145.96907216494844,-48.0,-85.0,130.0,0
1724672356,18.5632883,73.833215,521.0,25.7,97,29.350515463917525,145.96907216494844,-47.0,-85.0,131.0,0
1724672357,18.5632883,73.833215,521.0,25.75154639175258,97,29.350515463917525,145.96907216494844,-48.0,-85.0,130.0,0
1724672358,18.5632883,73.833215,521.0,25.970103092783503,97,29.350515463917525,145.95876288659792,-48.0,-85.0,130.0,0
1724672359,18.5632883,73.833215,521.0,26.054081632653062,98,29.346938775510203,145.57142857142858,-48.0,-85.0,130.0,0
1724672360,18.5632883,73.833215,521.0,25.79484536082474,97,29.350515463917525,145.95876288659792,-48.0,-85.0,130.0,0
1724672361,18.5632883,73.833215,521.0,25.906122448979595,98,29.653061224489797,145.70408163265307,-48.0,-85.0,130.0,0
1724672362,18.5632883,73.833215,521.0,25.88041237113402,97,29.38144329896907,145.91752577319588,-48.0,-85.0,130.0,0
1724672363,18.5632883,73.833215,521.0,25.804081632653062,98,30.387755102040817,147.8673469387755,-48.0,-85.0,130.0,0
1724672364,18.5632883,73.833215,521.0,25.585714285714285,98,30.989795918367346,150.1734693877551,-48.0,-85.0,130.0,0
1724672365,18.5632883,73.833215,521.0,25.818367346938775,98,30.989795918367346,150.1734693877551,-48.0,-85.0,130.0,0
1724672366,18.5632883,73.833215,521.0,25.91122448979592,98,31.0,150.18367346938774,-48.0,-85.0,130.0,0
1724672367,18.5632883,73.833215,521.0,25.936734693877554,98,31.010204081632654,150.1734693877551,-47.0,-85.0,131.0,0
1724672368,18.5632883,73.833215,521.0,25.789795918367346,98,31.010204081632654,150.16326530612244,-47.0,-85.0,131.0,0
1724672369,18.5632883,73.833215,521.0,26.067010309278352,97,31.31958762886598,150.22680412371133,-47.0,-85.0,131.0,0
1724672370,18.5632883,73.833215,521.0,26.036082474226806,97,31.31958762886598,150.22680412371133,-48.0,-85.0,130.0,0
1724672371,18.5632883,73.833215,521.0,25.969072164948454,97,31.31958762886598,150.2164948453608,-47.0,-85.0,131.0,0
1724672372,18.5632883,73.833215,521.0,25.991752577319584,97,31.1340206185567,150.55670103092783,-48.0,-85.0,130.0,0
1724672373,18.5632883,73.833215,521.0,25.96701030927835,97,30.90721649484536,150.79381443298968,-48.0,-85.0,130.0,0
1724672374,18.5632883,73.833215,521.0,26.15567010309278,97,30.90721649484536,150.7835051546392,-48.0,-85.0,131.0,0
1724672375,18.5632883,73.833215,521.0,26.239175257731958,97,30.917525773195877,150.76288659793815,-48.0,-85.0,130.0,0
1724672376,18.5632883,73.833215,521.0,26.1340206185567,97,30.917525773195877,150.76288659793815,-47.0,-85.0,131.0,0
1724672377,18.5632883,73.833215,521.0,26.00103092783505,97,30.917525773195877,150.76288659793815,-48.0,-85.0,130.0,0
1724672378,18.5632883,73.833215,521.0,26.11443298969072,97,30.917525773195877,150.75257731958763,-47.0,-85.0,131.0,0
1724672379,18.5632883,73.833215,521.0,26.062886597938142,97,30.917525773195877,150.75257731958763,-47.0,-85.0,130.0,0
1724672380,18.5632883,73.833215,521.0,26.211340206185568,97,30.90721649484536,150.7422680412371,-47.0,-85.0,131.0,0
1724672381,18.5632883,73.833215,521.0,26.186597938144327,97,30.63917525773196,151.81443298969072,-48.0,-85.0,130.0,0
1724672382,18.5632883,73.833215,521.0,26.489583333333332,96,30.604166666666668,150.14583333333334,-48.0,-85.0,130.0,0
1724672383,18.5632883,73.833215,521.0,26.614583333333332,96,30.604166666666668,150.14583333333334,-48.0,-85.0,130.0,0
1724672384,18.5632883,73.833215,521.0,26.40927835051546,97,30.371134020618555,150.20618556701032,-48.0,-85.0,130.0,0
1724672385,18.5632883,73.833215,521.0,26.703092783505152,97,30.371134020618555,150.15463917525773,-47.0,-85.0,131.0,0
1724672386,18.5632883,73.833215,521.0,26.476288659793813,97,30.38144329896907,150.1340206185567,-47.0,-85.0,131.0,0
1724672387,18.5632883,73.833215,521.0,26.644329896907216,97,30.371134020618555,150.1443298969072,-47.0,-85.0,131.0,0
1724672388,18.5632883,73.833215,521.0,26.534020618556703,97,30.371134020618555,150.1340206185567,-47.0,-85.0,131.0,0
1724672389,18.5632883,73.833215,521.0,26.445360824742266,97,30.371134020618555,150.1340206185567,-47.0,-85.0,131.0,0
1724672390,18.5632883,73.833215,521.0,26.826804123711337,97,30.216494845360824,147.5463917525773,-47.0,-85.0,131.0,0
1724672391,18.5632883,73.833215,521.0,26.7680412371134,97,30.783505154639176,148.76288659793815,-47.0,-85.0,131.0,0
1724672392,18.5632883,73.833215,521.0,26.721649484536083,97,30.783505154639176,148.75257731958763,-47.0,-85.0,131.0,0
1724672393,18.5632883,73.833215,521.0,26.657731958762888,97,30.783505154639176,148.7319587628866,-47.0,-85.0,131.0,0
1724672394,18.5632883,73.833215,521.0,26.665979381443297,97,30.783505154639176,148.7319587628866,-48.0,-85.0,130.0,0
1724672395,18.5632883,73.833215,521.0,26.5979381443299,97,30.783505154639176,148.7422680412371,-48.0,-85.0,130.0,0
1724672396,18.5632883,73.833215,521.0,26.751041666666666,96,31.010416666666668,148.66666666666666,-47.0,-85.0,131.0,0
1724672397,18.5632883,73.833215,521.0,26.755670103092786,97,30.783505154639176,148.7319587628866,-47.0,-85.0,131.0,0
1724672398,18.5632883,73.833215,521.0,26.692783505154637,97,30.783505154639176,148.7319587628866,-47.0,-85.0,131.0,0
1724672399,18.5632883,73.833215,521.0,26.781443298969073,97,30.783505154639176,148.7319587628866,-47.0,-85.0,131.0,0
1724672400,18.5632883,73.833215,521.0,26.816494845360822,97,31.1340206185567,150.37113402061857,-47.0,-85.0,131.0,0
1724672401,18.5632883,73.833215,521.0,26.72577319587629,97,31.11340206185567,150.39175257731958,-47.0,-85.0,131.0,0
1724672402,18.5632883,73.833215,521.0,26.803092783505157,97,31.11340206185567,150.39175257731958,-47.0,-85.0,131.0,0
1724672403,18.5632883,73.833215,521.0,26.715463917525774,97,31.11340206185567,150.41237113402062,-47.0,-85.0,131.0,0
1724672404,18.5632883,73.833215,521.0,26.638144329896907,97,31.11340206185567,150.4020618556701,-47.0,-85.0,131.0,0
1724672405,18.5632883,73.833215,521.0,26.624742268041235,97,30.938144329896907,147.27835051546393,-47.0,-85.0,131.0,0
1724672406,18.5632883,73.833215,521.0,26.781443298969073,97,30.917525773195877,147.30927835051546,-48.0,-85.0,130.0,0
1724672407,18.5632883,73.833215,521.0,26.65979381443299,97,30.917525773195877,147.30927835051546,-48.0,-85.0,130.0,0
1724672408,18.5632883,73.833215,521.0,26.63917525773196,97,30.917525773195877,147.30927835051546,-49.0,-85.0,129.0,0
1724672409,18.5632883,73.833215,521.0,26.647422680412372,97,30.422680412371133,148.62886597938143,-48.0,-85.0,130.0,0
1724672410,18.5632883,73.833215,521.0,26.605154639175257,97,30.422680412371133,148.62886597938143,-47.0,-85.0,131.0,0
1724672411,18.5632883,73.833215,521.0,26.735051546391755,97,30.422680412371133,148.60824742268042,-48.0,-85.0,130.0,0
1724672412,18.5632883,73.833215,521.0,26.78041237113402,97,30.422680412371133,148.60824742268042,-60.0,-85.0,118.0,0
1724672413,18.5632883,73.833215,521.0,26.7340206185567,97,30.432989690721648,148.58762886597938,-60.0,-85.0,118.0,0
1724672414,18.5632883,73.833215,521.0,26.74536082474227,97,30.432989690721648,148.57731958762886,-68.0,-85.0,111.0,0
1724672415,18.5632883,73.833215,521.0,26.827835051546394,97,30.432989690721648,148.57731958762886,-55.0,-85.0,123.0,0
1724672416,18.5632883,73.833215,521.0,26.815463917525772,97,30.432989690721648,148.57731958762886,-56.0,-85.0,122.0,0
1724672417,18.5632883,73.833215,521.0,26.658762886597938,97,30.432989690721648,148.57731958762886,-55.0,-85.0,123.0,0
1724672418,18.5632883,73.833215,521.0,26.760824742268042,97,30.432989690721648,148.57731958762886,-51.0,-85.0,127.0,0
1724672419,18.5632883,73.833215,521.0,26.737113402061855,97,30.030927835051546,144.37113402061857,-55.0,-85.0,123.0,0
1724672420,18.5632883,73.833215,521.0,26.7680412371134,97,30.030927835051546,144.37113402061857,-60.0,-85.0,118.0,0
1724672421,18.5632883,73.833215,521.0,26.868750000000002,96,30.072916666666668,142.45833333333334,-59.0,-85.0,119.0,0
1724672422,18.5632883,73.833215,521.0,26.914583333333336,96,30.072916666666668,142.45833333333334,-55.0,-85.0,123.0,0
1724672423,18.5632883,73.833215,521.0,26.67835051546392,97,30.030927835051546,144.36082474226805,-52.0,-85.0,126.0,0
1724672424,18.5632883,73.833215,521.0,26.702061855670102,97,30.030927835051546,144.36082474226805,-53.0,-85.0,126.0,0
1724672425,18.5632883,73.833215,521.0,26.598969072164948,97,30.030927835051546,144.36082474226805,-52.0,-85.0,126.0,0
1724672426,18.5632883,73.833215,521.0,26.77216494845361,97,30.030927835051546,144.36082474226805,-51.0,-85.0,127.0,0
1724672427,18.5632883,73.833215,521.0,26.72474226804124,97,30.030927835051546,144.36082474226805,-51.0,-85.0,127.0,0
1724672428,18.5632883,73.833215,521.0,26.729896907216496,97,30.051546391752577,144.36082474226805,-57.0,-85.0,122.0,0
1724672429,18.5632883,73.833215,521.0,26.622680412371135,97,29.84536082474227,142.4020618556701,-67.0,-85.0,112.0,0
1724672430,18.5632883,73.833215,521.0,26.524742268041237,97,29.84536082474227,142.4020618556701,-51.0,-85.0,127.0,0
1724672431,18.5632883,73.833215,521.0,26.88041237113402,97,29.84536082474227,142.4020618556701,-55.0,-85.0,123.0,0
1724672432,18.5632883,73.833215,521.0,26.84020618556701,97,29.84536082474227,142.39175257731958,-53.0,-85.0,125.0,0
1724672433,18.5632883,73.833215,521.0,26.79175257731959,97,29.84536082474227,146.09278350515464,-53.0,-85.0,125.0,0
1724672434,18.5632883,73.833215,521.0,26.534020618556703,97,29.84536082474227,146.09278350515464,-53.0,-85.0,125.0,0
1724672435,18.5632883,73.833215,521.0,26.59278350515464,97,29.84536082474227,146.09278350515464,-52.0,-85.0,126.0,0
1724672436,18.5632883,73.833215,521.0,26.5020618556701,97,29.84536082474227,146.09278350515464,-54.0,-85.0,124.0,0
1724672437,18.5632883,73.833215,521.0,26.60618556701031,97,29.84536082474227,146.09278350515464,-53.0,-85.0,125.0,0
1724672438,18.5632883,73.833215,521.0,26.690721649484537,97,29.84536082474227,146.10309278350516,-54.0,-85.0,124.0,0
1724672439,18.5632883,73.833215,521.0,26.664948453608247,97,29.855670103092784,146.1237113402062,-52.0,-85.0,126.0,0
1724672440,18.5632883,73.833215,521.0,26.68247422680412,97,29.876288659793815,146.1340206185567,-52.0,-85.0,126.0,0
1724672441,18.5632883,73.833215,521.0,26.696907216494843,97,29.876288659793815,146.1340206185567,-52.0,-85.0,126.0,0
1724672442,18.5632883,73.833215,521.0,26.560824742268043,97,29.876288659793815,146.1340206185567,-53.0,-85.0,125.0,0
1724672443,18.5632883,73.833215,521.0,26.530927835051546,97,29.896907216494846,146.1340206185567,-52.0,-85.0,126.0,0
1724672444,18.5632883,73.833215,521.0,26.638144329896907,97,29.896907216494846,146.1340206185567,-52.0,-85.0,126.0,0
1724672445,18.5632883,73.833215,521.0,26.583505154639173,97,29.896907216494846,146.1237113402062,-52.0,-85.0,126.0,0
1724672446,18.5632883,73.833215,521.0,26.510309278350515,97,29.896907216494846,146.1237113402062,-52.0,-85.0,126.0,0
1724672447,18.5632883,73.833215,521.0,26.47835051546392,97,31.185567010309278,150.62886597938143,-52.0,-85.0,126.0,0
1724672448,18.5632883,73.833215,521.0,26.52061855670103,97,31.185567010309278,150.62886597938143,-52.0,-85.0,126.0,0
1724672449,18.5632883,73.833215,521.0,26.644329896907216,97,31.185567010309278,150.61855670103094,-52.0,-85.0,126.0,0
1724672450,18.5632883,73.833215,521.0,26.495876288659794,97,31.20618556701031,150.8041237113402,-52.0,-85.0,126.0,0
1724672451,18.5632883,73.833215,521.0,26.602061855670105,97,31.20618556701031,150.8041237113402,-52.0,-85.0,126.0,0
1724672452,18.5632883,73.833215,521.0,26.616494845360826,97,31.20618556701031,150.8041237113402,-52.0,-85.0,126.0,0
1724672453,18.5632883,73.833215,521.0,26.599999999999998,97,31.20618556701031,150.8041237113402,-52.0,-85.0,126.0,0
1724672454,18.5632883,73.833215,521.0,26.62680412371134,97,31.195876288659793,150.7835051546392,-52.0,-85.0,126.0,0
1724672455,18.5632883,73.833215,521.0,26.54845360824742,97,31.195876288659793,150.76288659793815,-53.0,-85.0,125.0,0
1724672456,18.5632883,73.833215,521.0,26.50721649484536,97,30.783505154639176,151.340206185567,-52.0,-85.0,126.0,0
1724672457,18.5632883,73.833215,521.0,26.47319587628866,97,30.79381443298969,151.340206185567,-52.0,-85.0,126.0,0
1724672458,18.5632883,73.833215,521.0,26.489583333333332,96,30.479166666666668,151.65625,-58.0,-85.0,120.0,0
1724672459,18.5632883,73.833215,521.0,26.444791666666664,96,30.479166666666668,151.65625,-55.0,-85.0,123.0,0
1724672460,18.5632883,73.833215,521.0,26.467708333333334,96,30.479166666666668,151.65625,-55.0,-85.0,123.0,0
1724672461,18.5632883,73.833215,521.0,26.443749999999998,96,30.479166666666668,151.65625,-54.0,-85.0,124.0,0
1724672462,18.5632883,73.833215,521.0,26.37708333333333,96,30.479166666666668,151.65625,-54.0,-85.0,124.0,0
1724672463,18.5632883,73.833215,521.0,26.525000000000002,96,30.479166666666668,151.64583333333334,-52.0,-85.0,126.0,0
1724672464,18.5632883,73.833215,521.0,26.421649484536083,97,30.79381443298969,151.340206185567,-54.0,-85.0,124.0,0
1724672465,18.5632883,73.833215,521.0,26.398969072164945,97,30.2680412371134,150.81443298969072,-52.0,-85.0,126.0,0
1724672466,18.5632883,73.833215,521.0,26.38556701030928,97,30.257731958762886,150.81443298969072,-53.0,-85.0,125.0,0
1724672467,18.5632883,73.833215,521.0,26.14123711340206,97,30.257731958762886,150.82474226804123,-52.0,-85.0,125.0,0
1724672468,18.5632883,73.833215,521.0,26.48556701030928,97,30.257731958762886,150.82474226804123,-53.0,-85.0,125.0,0
1724672469,18.5632883,73.833215,521.0,26.463917525773194,97,30.257731958762886,150.82474226804123,-52.0,-85.0,126.0,0
1724672470,18.5632883,73.833215,521.0,26.13854166666667,96,30.5625,149.69791666666666,-52.0,-85.0,126.0,0
1724672471,18.5632883,73.833215,521.0,26.16875,96,30.552083333333332,149.69791666666666,-53.0,-85.0,125.0,0
1724672472,18.5632883,73.833215,521.0,26.211458333333336,96,30.552083333333332,149.69791666666666,-54.0,-85.0,124.0,0
1724672473,18.5632883,73.833215,521.0,26.07604166666667,96,30.5625,149.69791666666666,-54.0,-85.0,124.0,0
1724672474,18.5632883,73.833215,521.0,26.133333333333336,96,30.3125,146.09375,-54.0,-85.0,124.0,0
1724672475,18.5632883,73.833215,521.0,26.038541666666664,96,30.3125,146.09375,-52.0,-85.0,126.0,0
1724672476,18.5632883,73.833215,521.0,26.030208333333334,96,30.302083333333332,146.10416666666666,-52.0,-85.0,126.0,0
1724672477,18.5632883,73.833215,521.0,26.133333333333336,96,30.28125,146.11458333333334,-52.0,-85.0,126.0,0
1724672478,18.5632883,73.833215,521.0,26.027083333333334,96,30.28125,146.11458333333334,-53.0,-85.0,125.0,0
1724672479,18.5632883,73.833215,521.0,26.153125,96,30.302083333333332,146.11458333333334,-53.0,-85.0,125.0,0
1724672480,18.5632883,73.833215,521.0,26.084374999999998,96,30.302083333333332,146.17708333333334,-52.0,-85.0,126.0,0
1724672481,18.5632883,73.833215,521.0,26.203125,96,30.3125,146.17708333333334,-52.0,-85.0,126.0,0
1724672482,18.5632883,73.833215,521.0,26.09583333333333,96,30.3125,146.17708333333334,-52.0,-85.0,126.0,0
1724672483,18.5632883,73.833215,521.0,26.177083333333332,96,30.21875,145.16666666666666,-52.0,-85.0,126.0,0
1724672484,18.5632883,73.833215,521.0,26.123958333333334,96,30.239583333333332,145.1875,-52.0,-85.0,126.0,0
1724672485,18.5632883,73.833215,521.0,26.567708333333332,96,30.239583333333332,145.1875,-52.0,-85.0,126.0,0
1724672486,18.5632883,73.833215,521.0,26.460416666666664,96,30.239583333333332,145.1875,-52.0,-85.0,126.0,0
1724672487,18.5632883,73.833215,521.0,26.604166666666668,96,30.239583333333332,145.1875,-50.0,-85.0,128.0,0
1724672488,18.5632883,73.833215,521.0,26.484375,96,30.239583333333332,145.17708333333334,-53.0,-85.0,125.0,0
1724672489,18.5632883,73.833215,521.0,26.410416666666666,96,30.260416666666668,145.17708333333334,-51.0,-85.0,127.0,0
1724672490,18.5632883,73.833215,521.0,26.360416666666666,96,30.260416666666668,145.17708333333334,-61.0,-85.0,118.0,0
1724672491,18.5632883,73.833215,521.0,26.427083333333332,96,30.260416666666668,145.17708333333334,-61.0,-85.0,118.0,0
1724672492,18.5632883,73.833215,521.0,26.37708333333333,96,30.260416666666668,145.17708333333334,-58.0,-85.0,120.0,0
1724672493,18.5632883,73.833215,521.0,26.460416666666664,96,30.260416666666668,145.16666666666666,-55.0,-85.0,123.0,0
1724672494,18.5632883,73.833215,521.0,26.422916666666666,96,30.135416666666668,141.5,-53.0,-85.0,125.0,0
1724672495,18.5632883,73.833215,521.0,26.4375,96,30.21875,145.15625,-52.0,-85.0,126.0,0
1724672496,18.5632883,73.833215,521.0,26.425,96,30.21875,145.15625,-52.0,-85.0,126.0,0
1724672497,18.5632883,73.833215,521.0,26.359375,96,30.229166666666668,145.17708333333334,-52.0,-85.0,126.0,0
1724672498,18.5632883,73.833215,521.0,26.253125,96,30.25,145.17708333333334,-53.0,-85.0,125.0,0
1724672499,18.5632883,73.833215,521.0,26.128125,96,30.25,145.16666666666666,-53.0,-85.0,125.0,0
1724672500,18.5632883,73.833215,521.0,26.371875,96,30.25,145.16666666666666,-53.0,-85.0,125.0,0
1724672501,18.5632883,73.833215,521.0,26.375,96,30.25,145.16666666666666,-52.0,-85.0,126.0,0
1724672502,18.5632883,73.833215,521.0,26.321875000000002,96,30.25,145.14583333333334,-52.0,-85.0,126.0,0
1724672503,18.5632883,73.833215,521.0,26.433333333333334,96,30.270833333333332,145.32291666666666,-52.0,-85.0,126.0,0
1724672504,18.5632883,73.833215,521.0,26.496875,96,30.270833333333332,145.32291666666666,-53.0,-85.0,125.0,0
1724672505,18.5632883,73.833215,521.0,26.420833333333334,96,30.28125,145.32291666666666,-52.0,-85.0,126.0,0
1724672506,18.5632883,73.833215,521.0,26.415625000000002,96,30.28125,145.32291666666666,-52.0,-85.0,126.0,0
1724672507,18.5632883,73.833215,521.0,26.256249999999998,96,30.28125,145.32291666666666,-52.0,-85.0,126.0,0
1724672508,18.5632883,73.833215,521.0,26.440625,96,30.28125,145.3125,-53.0,-85.0,125.0,0
1724672509,18.5632883,73.833215,521.0,26.421875,96,30.28125,145.3125,-54.0,-85.0,124.0,0
1724672510,18.5632883,73.833215,521.0,26.325,96,30.96875,147.5,-52.0,-85.0,126.0,0
1724672511,18.5632883,73.833215,521.0,26.369791666666668,96,30.96875,147.5,-52.0,-85.0,126.0,0
1724672512,18.5632883,73.833215,521.0,26.365624999999998,96,30.96875,147.48958333333334,-52.0,-85.0,126.0,0
1724672513,18.5632883,73.833215,521.0,26.316666666666666,96,30.979166666666668,147.48958333333334,-53.0,-85.0,125.0,0
1724672514,18.5632883,73.833215,521.0,26.292708333333334,96,31.583333333333332,149.85416666666666,-52.0,-85.0,125.0,0
1724672515,18.5632883,73.833215,521.0,26.105208333333334,96,31.583333333333332,149.85416666666666,-52.0,-85.0,126.0,0
1724672516,18.5632883,73.833215,521.0,26.338541666666668,96,31.583333333333332,149.84375,-52.0,-85.0,126.0,0
1724672517,18.5632883,73.833215,521.0,26.077083333333334,96,31.583333333333332,149.84375,-52.0,-85.0,126.0,0
1724672518,18.5632883,73.833215,521.0,26.10729166666667,96,31.583333333333332,149.84375,-52.0,-85.0,126.0,0
1724672519,18.5632883,73.833215,521.0,26.366666666666664,96,31.395833333333332,150.1875,-53.0,-85.0,125.0,0
1724672520,18.5632883,73.833215,521.0,26.151041666666668,96,31.395833333333332,150.1875,-52.0,-85.0,126.0,0
1724672521,18.5632883,73.833215,521.0,26.22083333333333,96,31.40625,150.17708333333334,-52.0,-85.0,126.0,0
1724672522,18.5632883,73.833215,521.0,26.186458333333334,96,31.40625,150.17708333333334,-52.0,-85.0,126.0,0
1724672523,18.5632883,73.833215,521.0,26.238541666666666,96,31.177083333333332,150.41666666666666,-53.0,-85.0,125.0,0
1724672524,18.5632883,73.833215,521.0,26.195833333333336,96,31.177083333333332,150.41666666666666,-52.0,-85.0,126.0,0
1724672525,18.5632883,73.833215,521.0,26.37708333333333,96,31.177083333333332,150.40625,-52.0,-85.0,126.0,0
1724672526,18.5632883,73.833215,521.0,26.38854166666667,96,31.177083333333332,150.40625,-52.0,-85.0,126.0,0
1724672527,18.5632883,73.833215,521.0,26.230208333333334,96,31.177083333333332,150.40625,-52.0,-85.0,126.0,0
1724672528,18.5632883,73.833215,521.0,26.45,96,30.90625,151.48958333333334,-52.0,-85.0,126.0,0
1724672529,18.5632883,73.833215,521.0,26.3,96,30.90625,151.48958333333334,-52.0,-85.0,126.0,0
1724672530,18.5632883,73.833215,521.0,26.349999999999998,96,30.916666666666668,151.47916666666666,-52.0,-85.0,126.0,0
1724672531,18.5632883,73.833215,521.0,26.264583333333334,96,30.916666666666668,151.47916666666666,-52.0,-85.0,126.0,0
1724672532,18.5632883,73.833215,521.0,26.307291666666668,96,30.645833333333332,149.84375,-52.0,-85.0,126.0,0
1724672533,18.5632883,73.833215,521.0,26.375,96,30.645833333333332,149.84375,-52.0,-85.0,126.0,0
1724672534,18.5632883,73.833215,521.0,26.416666666666668,96,30.645833333333332,149.84375,-52.0,-85.0,126.0,0
1724672535,18.5632883,73.833215,521.0,26.233333333333334,96,30.645833333333332,149.84375,-52.0,-85.0,126.0,0
1724672536,18.5632883,73.833215,521.0,26.295833333333334,96,30.645833333333332,149.83333333333334,-53.0,-85.0,125.0,0
1724672537,18.5632883,73.833215,521.0,26.304166666666664,96,30.5,147.19791666666666,-52.0,-85.0,126.0,0
1724672538,18.5632883,73.833215,521.0,26.373958333333334,96,30.520833333333332,147.17708333333334,-53.0,-85.0,126.0,0
1724672539,18.5632883,73.833215,521.0,26.328125,96,30.53125,147.1875,-52.0,-85.0,125.0,0
1724672540,18.5632883,73.833215,521.0,26.36145833333333,96,30.53125,147.1875,-53.0,-85.0,125.0,0
1724672541,18.5632883,73.833215,521.0,26.304166666666664,96,31.104166666666668,148.39583333333334,-52.0,-85.0,126.0,0
1724672542,18.5632883,73.833215,521.0,26.347916666666666,96,31.104166666666668,148.40625,-52.0,-85.0,126.0,0
1724672543,18.5632883,73.833215,521.0,26.311458333333334,96,31.114583333333332,148.38541666666666,-53.0,-85.0,125.0,0
1724672544,18.5632883,73.833215,521.0,26.14123711340206,97,30.804123711340207,149.93814432989691,-53.0,-85.0,125.0,0
1724672545,18.5632883,73.833215,521.0,26.055670103092783,97,30.804123711340207,149.93814432989691,-52.0,-85.0,126.0,0
1724672546,18.5632883,73.833215,521.0,26.168041237113403,97,31.31958762886598,151.27835051546393,-52.0,-85.0,126.0,0
1724672547,18.5632883,73.833215,521.0,26.14020618556701,97,31.31958762886598,151.27835051546393,-52.0,-85.0,126.0,0
1724672548,18.5632883,73.833215,521.0,26.050515463917527,97,31.31958762886598,151.27835051546393,-52.0,-85.0,126.0,0
1724672549,18.5632883,73.833215,521.0,26.06494845360825,97,31.329896907216494,151.27835051546393,-52.0,-85.0,126.0,0
1724672550,18.5632883,73.833215,521.0,26.013402061855672,97,31.329896907216494,151.2680412371134,-52.0,-85.0,126.0,0
1724672551,18.5632883,73.833215,521.0,26.07113402061856,97,31.15463917525773,151.58762886597938,-52.0,-85.0,126.0,0
1724672552,18.5632883,73.833215,521.0,26.050515463917527,97,31.15463917525773,151.58762886597938,-52.0,-85.0,126.0,0
1724672553,18.5632883,73.833215,521.0,26.07010309278351,97,31.15463917525773,151.57731958762886,-55.0,-85.0,123.0,0
1724672554,18.5632883,73.833215,521.0,25.896907216494846,97,31.15463917525773,151.57731958762886,-55.0,-85.0,123.0,0
1724672555,18.5632883,73.833215,521.0,26.079381443298967,97,30.927835051546392,151.81443298969072,-50.0,-85.0,128.0,0
1724672556,18.5632883,73.833215,521.0,26.164948453608247,97,30.917525773195877,151.8041237113402,-56.0,-85.0,122.0,0
1724672557,18.5632883,73.833215,521.0,26.10618556701031,97,30.917525773195877,151.79381443298968,-68.0,-85.0,110.0,0
1724672558,18.5632883,73.833215,521.0,26.11855670103093,97,30.917525773195877,151.79381443298968,-52.0,-85.0,126.0,0
1724672559,18.5632883,73.833215,521.0,26.084536082474227,97,30.917525773195877,151.79381443298968,-56.0,-85.0,122.0,0
1724672560,18.5632883,73.833215,521.0,26.010309278350515,97,30.65979381443299,152.8659793814433,-58.0,-85.0,120.0,0
1724672561,18.5632883,73.833215,521.0,26.016494845360825,97,30.63917525773196,152.82474226804123,-54.0,-85.0,124.0,0
1724672562,18.5632883,73.833215,521.0,25.95154639175258,97,30.63917525773196,152.8041237113402,-60.0,-85.0,118.0,0
1724672563,18.5632883,73.833215,521.0,25.95154639175258,97,30.63917525773196,152.79381443298968,-67.0,-85.0,111.0,0
1724672564,18.5632883,73.833215,521.0,25.95876288659794,97,30.371134020618555,151.18556701030928,-62.0,-85.0,116.0,0
1724672565,18.5632883,73.833215,521.0,25.911340206185567,97,30.371134020618555,151.18556701030928,-66.0,-85.0,113.0,0
1724672566,18.5632883,73.833215,521.0,26.190721649484537,97,30.36082474226804,151.18556701030928,-63.0,-85.0,115.0,0
1724672567,18.5632883,73.833215,521.0,26.213402061855668,97,30.34020618556701,151.20618556701032,-65.0,-85.0,114.0,0
1724672568,18.5632883,73.833215,521.0,26.212371134020618,97,30.34020618556701,151.20618556701032,-62.0,-85.0,116.0,0
1724672569,18.5632883,73.833215,521.0,26.104123711340204,97,30.22680412371134,148.60824742268042,-58.0,-85.0,120.0,0
1724672570,18.5632883,73.833215,521.0,26.215463917525774,97,30.22680412371134,148.5979381443299,-59.0,-85.0,119.0,0
1724672571,18.5632883,73.833215,521.0,26.04742268041237,97,30.22680412371134,148.5979381443299,-57.0,-85.0,121.0,0
1724672572,18.5632883,73.833215,521.0,26.218556701030927,97,30.061855670103093,145.18556701030928,-56.0,-85.0,122.0,0
1724672573,18.5632883,73.833215,521.0,26.11855670103093,97,30.123711340206185,147.61855670103094,-55.0,-85.0,123.0,0
1724672574,18.5632883,73.833215,521.0,26.16701030927835,97,30.11340206185567,147.62886597938143,-53.0,-85.0,125.0,0
1724672575,18.5632883,73.833215,521.0,26.218556701030927,97,30.11340206185567,147.62886597938143,-53.0,-85.0,124.0,0
1724672576,18.5632883,73.833215,521.0,26.223711340206183,97,30.1340206185567,147.57731958762886,-53.0,-85.0,125.0,0
1724672577,18.5632883,73.833215,521.0,26.20618556701031,97,30.1340206185567,147.61855670103094,-53.0,-85.0,125.0,0
1724672578,18.5632883,73.833215,521.0,26.21958762886598,97,30.04123711340206,146.62886597938143,-53.0,-85.0,125.0,0
1724672579,18.5632883,73.833215,521.0,26.15463917525773,97,30.02061855670103,146.63917525773195,-54.0,-85.0,124.0,0
1724672580,18.5632883,73.833215,521.0,26.11443298969072,97,30.02061855670103,146.63917525773195,-53.0,-85.0,125.0,0
1724672581,18.5632883,73.833215,521.0,26.277319587628867,97,30.02061855670103,146.64948453608247,-53.0,-85.0,125.0,0
1724672582,18.5632883,73.833215,521.0,26.077319587628867,97,30.04123711340206,146.659793814433,-53.0,-85.0,125.0,0
1724672583,18.5632883,73.833215,521.0,26.23298969072165,97,30.04123711340206,146.659793814433,-53.0,-85.0,125.0,0
1724672584,18.5632883,73.833215,521.0,26.211340206185568,97,30.04123711340206,146.659793814433,-54.0,-85.0,124.0,0
1724672585,18.5632883,73.833215,521.0,26.284536082474226,97,30.04123711340206,146.64948453608247,-59.0,-85.0,119.0,0
1724672586,18.5632883,73.833215,521.0,26.282291666666666,96,30.072916666666668,144.76041666666666,-59.0,-85.0,119.0,0
1724672587,18.5632883,73.833215,521.0,26.39375,96,30.072916666666668,144.75,-67.0,-85.0,111.0,0
1724672588,18.5632883,73.833215,521.0,26.253125,96,30.072916666666668,144.73958333333334,-56.0,-85.0,122.0,0
1724672589,18.5632883,73.833215,521.0,26.207291666666666,96,30.0625,144.71875,-54.0,-85.0,124.0,0
1724672590,18.5632883,73.833215,521.0,26.376842105263158,95,30.305263157894736,145.25263157894736,-54.0,-85.0,124.0,0
1724672591,18.5632883,73.833215,521.0,26.318947368421053,95,31.0,147.46315789473684,-51.0,-85.0,127.0,0
1724672592,18.5632883,73.833215,521.0,26.472631578947368,95,31.0,147.45263157894738,-53.0,-85.0,125.0,0
1724672593,18.5632883,73.833215,521.0,26.450526315789475,95,31.0,147.45263157894738,-53.0,-85.0,125.0,0
1724672594,18.5632883,73.833215,521.0,26.469473684210524,95,31.0,147.45263157894738,-53.0,-85.0,125.0,0
1724672595,18.5632883,73.833215,521.0,26.381052631578946,95,31.0,147.44210526315788,-53.0,-85.0,125.0,0
1724672596,18.5632883,73.833215,521.0,26.583157894736843,95,31.0,147.44210526315788,-53.0,-85.0,125.0,0
1724672597,18.5632883,73.833215,521.0,26.528125,96,31.364583333333332,149.25,-53.0,-85.0,125.0,0
1724672598,18.5632883,73.833215,521.0,26.390625,96,31.364583333333332,149.23958333333334,-53.0,-85.0,125.0,0
1724672599,18.5632883,73.833215,521.0,26.381249999999998,96,31.364583333333332,149.22916666666666,-53.0,-85.0,125.0,0
1724672600,18.5632883,73.833215,521.0,26.37708333333333,96,31.177083333333332,149.57291666666666,-53.0,-85.0,125.0,0
1724672601,18.5632883,73.833215,521.0,26.539583333333336,96,31.177083333333332,149.5625,-53.0,-85.0,125.0,0
1724672602,18.5632883,73.833215,521.0,26.295833333333334,96,31.177083333333332,149.5625,-53.0,-85.0,125.0,0
1724672603,18.5632883,73.833215,521.0,26.243750000000002,96,31.177083333333332,149.5625,-53.0,-85.0,125.0,0
1724672604,18.5632883,73.833215,521.0,26.572916666666668,96,31.197916666666668,149.55208333333334,-53.0,-85.0,125.0,0
1724672605,18.5632883,73.833215,521.0,26.353125000000002,96,31.197916666666668,149.55208333333334,-53.0,-85.0,125.0,0
1724672606,18.5632883,73.833215,521.0,26.474999999999998,96,30.96875,149.79166666666666,-53.0,-85.0,125.0,0
1724672607,18.5632883,73.833215,521.0,26.43541666666667,96,30.96875,149.78125,-55.0,-85.0,123.0,0
1724672608,18.5632883,73.833215,521.0,26.506249999999998,96,30.958333333333332,149.78125,-55.0,-85.0,123.0,0
1724672609,18.5632883,73.833215,521.0,26.45104166666667,96,30.6875,150.875,-54.0,-85.0,124.0,0
1724672610,18.5632883,73.833215,521.0,26.320833333333336,96,30.6875,150.875,-57.0,-85.0,122.0,0
1724672611,18.5632883,73.833215,521.0,26.431250000000002,96,30.6875,150.86458333333334,-59.0,-85.0,119.0,0
1724672612,18.5632883,73.833215,521.0,26.385416666666668,96,30.6875,150.86458333333334,-55.0,-85.0,123.0,0
1724672613,18.5632883,73.833215,521.0,26.342708333333334,96,30.6875,150.86458333333334,-59.0,-85.0,119.0,0
1724672614,18.5632883,73.833215,521.0,26.409375,96,30.677083333333332,150.875,-55.0,-85.0,123.0,0
1724672615,18.5632883,73.833215,521.0,26.369791666666668,96,30.40625,149.27083333333334,-57.0,-85.0,121.0,0
1724672616,18.5632883,73.833215,521.0,26.50208333333333,96,30.416666666666668,149.28125,-55.0,-85.0,123.0,0
1724672617,18.5632883,73.833215,521.0,26.415625000000002,96,30.416666666666668,149.27083333333334,-60.0,-85.0,119.0,0
1724672618,18.5632883,73.833215,521.0,26.32604166666667,96,30.28125,146.64583333333334,-55.0,-85.0,124.0,0
1724672619,18.5632883,73.833215,521.0,26.3625,96,30.291666666666668,146.65625,-55.0,-85.0,123.0,0
1724672620,18.5632883,73.833215,521.0,26.43958333333333,96,30.291666666666668,146.64583333333334,-53.0,-85.0,125.0,0
1724672621,18.5632883,73.833215,521.0,26.80736842105263,95,30.178947368421053,146.4842105263158,-53.0,-85.0,125.0,0
1724672622,18.5632883,73.833215,521.0,26.458333333333332,96,30.291666666666668,146.64583333333334,-53.0,-85.0,125.0,0
1724672623,18.5632883,73.833215,521.0,26.480208333333334,96,30.302083333333332,146.64583333333334,-53.0,-85.0,125.0,0
1724672624,18.5632883,73.833215,521.0,26.467708333333334,96,30.1875,145.65625,-53.0,-85.0,125.0,0
1724672625,18.5632883,73.833215,521.0,26.483333333333334,96,30.166666666666668,145.65625,-53.0,-85.0,125.0,0
1724672626,18.5632883,73.833215,521.0,26.386458333333334,96,30.166666666666668,146.16666666666666,-53.0,-85.0,125.0,0
1724672627,18.5632883,73.833215,521.0,26.346875,96,30.072916666666668,145.15625,-53.0,-85.0,125.0,0
1724672628,18.5632883,73.833215,521.0,26.297916666666666,96,30.072916666666668,145.15625,-53.0,-85.0,125.0,0
1724672629,18.5632883,73.833215,521.0,26.193749999999998,96,30.072916666666668,145.15625,-53.0,-85.0,125.0,0
1724672630,18.5632883,73.833215,521.0,26.21666666666667,96,30.072916666666668,145.13541666666666,-53.0,-85.0,125.0,0
1724672631,18.5632883,73.833215,521.0,26.23645833333333,96,30.0625,145.11458333333334,-53.0,-85.0,125.0,0
1724672632,18.5632883,73.833215,521.0,26.625,96,30.0625,145.11458333333334,-53.0,-85.0,125.0,0
1724672633,18.5632883,73.833215,521.0,26.715625,96,30.0625,145.11458333333334,-53.0,-85.0,125.0,0
1724672634,18.5632883,73.833215,521.0,26.555208333333336,96,30.0625,145.10416666666666,-53.0,-85.0,125.0,0
1724672635,18.5632883,73.833215,521.0,26.400000000000002,96,30.0625,145.10416666666666,-53.0,-85.0,125.0,0
1724672636,18.5632883,73.833215,521.0,26.506249999999998,96,30.0625,145.10416666666666,-53.0,-85.0,125.0,0
1724672637,18.5632883,73.833215,521.0,26.558333333333334,96,30.0625,145.09375,-53.0,-85.0,125.0,0
1724672638,18.5632883,73.833215,521.0,26.510416666666668,96,30.0625,145.09375,-53.0,-85.0,125.0,0
1724672639,18.5632883,73.833215,521.0,26.665625000000002,96,30.0625,145.09375,-53.0,-85.0,125.0,0
1724672640,18.5632883,73.833215,521.0,26.712500000000002,96,30.0625,145.09375,-53.0,-85.0,125.0,0
1724672641,18.5632883,73.833215,521.0,26.698958333333334,96,30.072916666666668,145.07291666666666,-53.0,-85.0,125.0,0
1724672642,18.5632883,73.833215,521.0,26.707291666666666,96,30.0625,145.08333333333334,-54.0,-85.0,124.0,0
1724672643,18.5632883,73.833215,521.0,26.559375,96,30.0625,145.08333333333334,-57.0,-85.0,121.0,0
1724672644,18.5632883,73.833215,521.0,26.680208333333336,96,30.072916666666668,145.07291666666666,-60.0,-85.0,118.0,0
1724672645,18.5632883,73.833215,521.0,26.65833333333333,96,30.072916666666668,145.07291666666666,-56.0,-85.0,122.0,0
1724672646,18.5632883,73.833215,521.0,26.636458333333334,96,30.072916666666668,145.07291666666666,-54.0,-85.0,124.0,0
1724672647,18.5632883,73.833215,521.0,26.64270833333333,96,30.072916666666668,145.08333333333334,-53.0,-85.0,125.0,0
1724672648,18.5632883,73.833215,521.0,26.56458333333333,96,30.072916666666668,145.07291666666666,-53.0,-85.0,125.0,0
1724672649,18.5632883,73.833215,521.0,26.556250000000002,96,30.072916666666668,145.07291666666666,-53.0,-85.0,125.0,0
1724672650,18.5632883,73.833215,521.0,26.522916666666664,96,30.072916666666668,145.07291666666666,-54.0,-85.0,124.0,0
1724672651,18.5632883,73.833215,521.0,26.573958333333334,96,30.072916666666668,145.07291666666666,-53.0,-85.0,125.0,0
1724672652,18.5632883,73.833215,521.0,26.555208333333336,96,30.072916666666668,145.07291666666666,-53.0,-85.0,125.0,0
1724672653,18.5632883,73.833215,521.0,26.536458333333332,96,30.052083333333332,145.11458333333334,-53.0,-85.0,125.0,0
1724672654,18.5632883,73.833215,521.0,26.465625,96,30.052083333333332,145.11458333333334,-53.0,-85.0,125.0,0
1724672655,18.5632883,73.833215,521.0,26.464583333333334,96,30.0625,145.125,-53.0,-85.0,125.0,0
1724672656,18.5632883,73.833215,521.0,26.504166666666666,96,30.083333333333332,145.15625,-53.0,-85.0,125.0,0
1724672657,18.5632883,73.833215,521.0,26.402083333333334,96,30.083333333333332,145.15625,-53.0,-85.0,125.0,0
1724672658,18.5632883,73.833215,521.0,26.358333333333334,96,30.770833333333332,147.34375,-53.0,-85.0,125.0,0
1724672659,18.5632883,73.833215,521.0,26.469791666666666,96,30.770833333333332,147.34375,-53.0,-85.0,125.0,0
1724672660,18.5632883,73.833215,521.0,26.429166666666664,96,31.40625,149.69791666666666,-53.0,-85.0,125.0,0
1724672661,18.5632883,73.833215,521.0,26.46666666666667,96,31.40625,149.69791666666666,-53.0,-85.0,125.0,0
1724672662,18.5632883,73.833215,521.0,26.291666666666668,96,31.40625,149.69791666666666,-53.0,-85.0,125.0,0
1724672663,18.5632883,73.833215,521.0,26.334374999999998,96,31.40625,149.69791666666666,-53.0,-85.0,125.0,0
1724672664,18.5632883,73.833215,521.0,26.20824742268041,97,31.371134020618555,151.53608247422682,-53.0,-85.0,125.0,0
1724672665,18.5632883,73.833215,521.0,26.29484536082474,97,31.38144329896907,151.53608247422682,-53.0,-85.0,125.0,0
1724672666,18.5632883,73.833215,521.0,26.290721649484535,97,31.38144329896907,151.53608247422682,-54.0,-85.0,124.0,0
1724672667,18.5632883,73.833215,521.0,26.152577319587632,97,31.195876288659793,151.8762886597938,-54.0,-85.0,125.0,0
1724672668,18.5632883,73.833215,521.0,26.17835051546392,97,31.195876288659793,151.8659793814433,-53.0,-85.0,125.0,0
1724672669,18.5632883,73.833215,521.0,26.28041237113402,97,30.969072164948454,152.09278350515464,-53.0,-85.0,125.0,0
1724672670,18.5632883,73.833215,521.0,26.350515463917525,97,30.948453608247423,152.09278350515464,-53.0,-85.0,125.0,0
1724672671,18.5632883,73.833215,521.0,26.336082474226803,97,30.948453608247423,152.09278350515464,-53.0,-85.0,125.0,0
1724672672,18.5632883,73.833215,521.0,26.304123711340207,97,30.927835051546392,152.10309278350516,-53.0,-85.0,125.0,0
1724672673,18.5632883,73.833215,521.0,26.237113402061855,97,30.927835051546392,152.10309278350516,-53.0,-85.0,125.0,0
1724672674,18.5632883,73.833215,521.0,26.311340206185566,97,30.927835051546392,152.08247422680412,-53.0,-85.0,125.0,0
1724672675,18.5632883,73.833215,521.0,26.138144329896907,97,30.927835051546392,152.08247422680412,-53.0,-85.0,125.0,0
1724672676,18.5632883,73.833215,521.0,26.185567010309278,97,30.65979381443299,153.15463917525773,-53.0,-85.0,125.0,0
1724672677,18.5632883,73.833215,521.0,26.12680412371134,97,30.65979381443299,153.15463917525773,-53.0,-85.0,125.0,0
1724672678,18.5632883,73.833215,521.0,26.055670103092783,97,30.371134020618555,151.5257731958763,-53.0,-85.0,125.0,0
1724672679,18.5632883,73.833215,521.0,26.05360824742268,97,30.371134020618555,151.7319587628866,-53.0,-85.0,125.0,0
1724672680,18.5632883,73.833215,521.0,26.115463917525773,97,30.371134020618555,151.7319587628866,-53.0,-85.0,125.0,0
1724672681,18.5632883,73.833215,521.0,26.072164948453608,97,30.371134020618555,151.72164948453607,-53.0,-85.0,125.0,0
1724672682,18.5632883,73.833215,521.0,26.09175257731959,97,30.371134020618555,151.72164948453607,-53.0,-85.0,125.0,0
1724672683,18.5632883,73.833215,521.0,26.061855670103093,97,30.371134020618555,151.72164948453607,-53.0,-85.0,125.0,0
1724672684,18.5632883,73.833215,521.0,26.34639175257732,97,30.371134020618555,151.72164948453607,-53.0,-85.0,125.0,0
1724672685,18.5632883,73.833215,521.0,26.314432989690722,97,30.22680412371134,149.11340206185568,-53.0,-85.0,125.0,0
1724672686,18.5632883,73.833215,521.0,26.537113402061856,97,30.22680412371134,149.11340206185568,-53.0,-85.0,125.0,0
1724672687,18.5632883,73.833215,521.0,26.370103092783506,97,30.22680412371134,149.11340206185568,-53.0,-85.0,125.0,0
1724672688,18.5632883,73.833215,521.0,26.442268041237114,97,30.79381443298969,150.30927835051546,-53.0,-85.0,125.0,0
1724672689,18.5632883,73.833215,521.0,26.49896907216495,97,30.79381443298969,150.30927835051546,-53.0,-85.0,125.0,0
1724672690,18.5632883,73.833215,521.0,26.543298969072165,97,30.79381443298969,150.29896907216494,-53.0,-85.0,125.0,0
1724672691,18.5632883,73.833215,521.0,26.420618556701033,97,30.79381443298969,150.29896907216494,-53.0,-85.0,125.0,0
1724672692,18.5632883,73.833215,521.0,26.369072164948456,97,30.79381443298969,150.29896907216494,-54.0,-85.0,124.0,0
1724672693,18.5632883,73.833215,521.0,26.442268041237114,97,30.79381443298969,150.29896907216494,-55.0,-85.0,123.0,0
1724672694,18.5632883,73.833215,521.0,26.5,97,31.309278350515463,151.64948453608247,-53.0,-85.0,125.0,0
1724672695,18.5632883,73.833215,521.0,26.420618556701033,97,31.309278350515463,151.63917525773195,-54.0,-85.0,124.0,0
1724672696,18.5632883,73.833215,521.0,26.52577319587629,97,31.309278350515463,151.63917525773195,-53.0,-85.0,125.0,0
1724672697,18.5632883,73.833215,521.0,26.38762886597938,97,31.123711340206185,151.97938144329896,-53.0,-85.0,125.0,0
1724672698,18.5632883,73.833215,521.0,26.461855670103095,97,31.123711340206185,151.97938144329896,-53.0,-85.0,125.0,0
1724672699,18.5632883,73.833215,521.0,26.378350515463914,97,31.123711340206185,151.98969072164948,-53.0,-85.0,125.0,0
1724672700,18.5632883,73.833215,521.0,26.404123711340205,97,31.123711340206185,151.97938144329896,-53.0,-85.0,125.0,0
1724672701,18.5632883,73.833215,521.0,26.850515463917525,97,31.123711340206185,151.97938144329896,-53.0,-85.0,125.0,0
1724672702,18.5632883,73.833215,521.0,26.70515463917526,97,31.123711340206185,151.97938144329896,-53.0,-85.0,125.0,0
1724672703,18.5632883,73.833215,521.0,26.66082474226804,97,31.123711340206185,151.97938144329896,-53.0,-85.0,125.0,0
1724672704,18.5632883,73.833215,521.0,26.737113402061855,97,31.123711340206185,151.97938144329896,-53.0,-85.0,125.0,0
1724672705,18.5632883,73.833215,521.0,26.784536082474226,97,31.123711340206185,151.96907216494844,-53.0,-85.0,125.0,0
1724672706,18.5632883,73.833215,521.0,26.771134020618558,97,31.010309278350515,152.04123711340208,-53.0,-85.0,125.0,0
1724672707,18.5632883,73.833215,521.0,26.65463917525773,97,31.010309278350515,152.04123711340208,-54.0,-85.0,124.0,0
1724672708,18.5632883,73.833215,521.0,26.625773195876288,97,31.010309278350515,152.04123711340208,-53.0,-85.0,125.0,0
1724672709,18.5632883,73.833215,521.0,26.829896907216494,97,31.010309278350515,152.04123711340208,-54.0,-85.0,124.0,0
1724672710,18.5632883,73.833215,521.0,26.710309278350515,97,31.010309278350515,152.03092783505156,-53.0,-85.0,125.0,0
1724672711,18.5632883,73.833215,521.0,26.401030927835052,97,31.010309278350515,152.03092783505156,-53.0,-85.0,125.0,0
1724672712,18.5632883,73.833215,521.0,26.439175257731957,97,31.0,152.03092783505156,-53.0,-85.0,125.0,0
1724672713,18.5632883,73.833215,521.0,26.42989690721649,97,31.0,152.01030927835052,-54.0,-85.0,124.0,0
1724672714,18.5632883,73.833215,521.0,26.48144329896907,97,31.02061855670103,151.98969072164948,-54.0,-85.0,124.0,0
1724672715,18.5632883,73.833215,521.0,26.38762886597938,97,30.88659793814433,153.02061855670104,-55.0,-85.0,123.0,0
1724672716,18.5632883,73.833215,521.0,26.4020618556701,97,30.88659793814433,153.01030927835052,-54.0,-85.0,124.0,0
1724672717,18.5632883,73.833215,521.0,26.41340206185567,97,30.88659793814433,153.01030927835052,-55.0,-85.0,123.0,0
1724672718,18.5632883,73.833215,521.0,26.417525773195877,97,30.896907216494846,153.02061855670104,-53.0,-85.0,125.0,0
1724672719,18.5632883,73.833215,521.0,26.43505154639175,97,30.896907216494846,153.01030927835052,-53.0,-85.0,125.0,0
1724672720,18.5632883,73.833215,521.0,26.287628865979382,97,30.896907216494846,153.02061855670104,-53.0,-85.0,125.0,0
1724672721,18.5632883,73.833215,521.0,26.315463917525772,97,30.896907216494846,153.02061855670104,-53.0,-85.0,125.0,0
1724672722,18.5632883,73.833215,521.0,26.40721649484536,97,30.896907216494846,153.01030927835052,-53.0,-85.0,125.0,0
1724672723,18.5632883,73.833215,521.0,26.382474226804124,97,30.896907216494846,153.01030927835052,-53.0,-85.0,125.0,0
1724672724,18.5632883,73.833215,521.0,26.4020618556701,97,30.783505154639176,150.39175257731958,-53.0,-85.0,125.0,0
1724672725,18.5632883,73.833215,521.0,26.516494845360825,97,30.783505154639176,150.39175257731958,-53.0,-85.0,125.0,0
1724672726,18.5632883,73.833215,521.0,26.557731958762886,97,30.783505154639176,150.39175257731958,-53.0,-85.0,125.0,0
1724672727,18.5632883,73.833215,521.0,26.511340206185565,97,30.79381443298969,150.37113402061857,-53.0,-85.0,125.0,0
1724672728,18.5632883,73.833215,521.0,26.54845360824742,97,30.79381443298969,150.36082474226805,-53.0,-85.0,125.0,0
1724672729,18.5632883,73.833215,521.0,26.629896907216494,97,30.79381443298969,150.36082474226805,-53.0,-85.0,125.0,0
1724672730,18.5632883,73.833215,521.0,26.58659793814433,97,30.79381443298969,150.36082474226805,-53.0,-85.0,125.0,0
1724672731,18.5632883,73.833215,521.0,26.51958762886598,97,30.79381443298969,150.36082474226805,-53.0,-85.0,125.0,0
1724672732,18.5632883,73.833215,521.0,26.622680412371135,97,30.783505154639176,150.35051546391753,-54.0,-85.0,125.0,0
1724672733,18.5632883,73.833215,521.0,26.50515463917526,97,30.762886597938145,150.37113402061857,-56.0,-85.0,122.0,0
1724672734,18.5632883,73.833215,521.0,26.599999999999998,97,30.762886597938145,150.36082474226805,-58.0,-85.0,120.0,0
1724672735,18.5632883,73.833215,521.0,26.47835051546392,97,30.75257731958763,150.36082474226805,-58.0,-85.0,120.0,0
1724672736,18.5632883,73.833215,521.0,26.524742268041237,97,30.75257731958763,150.36082474226805,-54.0,-85.0,125.0,0
1724672737,18.5632883,73.833215,521.0,26.671134020618556,97,30.7319587628866,150.31958762886597,-53.0,-85.0,125.0,0
1724672738,18.5632883,73.833215,521.0,26.609278350515464,97,30.7319587628866,150.29896907216494,-53.0,-85.0,125.0,0
1724672739,18.5632883,73.833215,521.0,26.568041237113402,97,30.721649484536083,150.30927835051546,-53.0,-85.0,125.0,0
1724672740,18.5632883,73.833215,521.0,26.673195876288663,97,30.721649484536083,150.30927835051546,-53.0,-85.0,125.0,0
1724672741,18.5632883,73.833215,521.0,26.602061855670105,97,30.721649484536083,150.29896907216494,-53.0,-85.0,125.0,0
1724672742,18.5632883,73.833215,521.0,26.581443298969074,97,30.711340206185568,150.30927835051546,-53.0,-85.0,125.0,0
1724672743,18.5632883,73.833215,521.0,26.51855670103093,97,30.61855670103093,149.340206185567,-53.0,-85.0,125.0,0
1724672744,18.5632883,73.833215,521.0,26.65463917525773,97,30.61855670103093,149.340206185567,-53.0,-85.0,125.0,0
1724672745,18.5632883,73.833215,521.0,26.630927835051544,97,30.61855670103093,149.340206185567,-53.0,-85.0,125.0,0
1724672746,18.5632883,73.833215,521.0,26.65567010309278,97,30.61855670103093,149.340206185567,-53.0,-85.0,125.0,0
1724672747,18.5632883,73.833215,521.0,26.531958762886596,97,30.61855670103093,149.35051546391753,-53.0,-85.0,125.0,0
1724672748,18.5632883,73.833215,521.0,26.529896907216497,97,30.61855670103093,149.340206185567,-53.0,-85.0,125.0,0
