timestamp,latitude,longitude,altitude,mean_snr,sat_count,mean_elevation,mean_azimuth,roll,pitch,yaw,is_inclined
1725099300,18.5634083,73.8331,500.6,20.135955056179775,89,32.26966292134831,142.87640449438203,77.0,-88.0,251.0,0
1725099301,18.5634054,73.8330956,500.29999999999995,22.875280898876404,89,32.26966292134831,142.87640449438203,86.0,-88.0,260.0,0
1725099303,18.563405,73.8330949,500.29999999999995,23.017977528089887,89,32.26966292134831,142.87640449438203,82.0,-88.0,256.0,0
1725099304,18.563405,73.8330948,500.29999999999995,22.953846153846158,91,32.26373626373626,142.65934065934067,81.0,-88.0,255.0,0
1725099305,18.5634051,73.8330949,500.29999999999995,22.900000000000002,91,32.26373626373626,142.65934065934067,82.0,-88.0,255.0,0
1725099306,18.5634051,73.8330947,500.29999999999995,23.373626373626372,91,32.26373626373626,142.65934065934067,81.0,-88.0,255.0,0
1725099307,18.563405,73.8330949,500.29999999999995,23.31758241758242,91,32.26373626373626,142.65934065934067,83.0,-88.0,257.0,0
1725099308,18.563405,73.833095,500.29999999999995,23.525000000000002,92,32.130434782608695,144.59782608695653,83.0,-88.0,257.0,0
1725099309,18.563405,73.833095,500.29999999999995,23.434782608695652,92,31.92391304347826,144.95652173913044,81.0,-88.0,255.0,0
1725099310,18.563405,73.833095,500.29999999999995,24.11413043478261,92,31.26086956521739,146.6304347826087,84.0,-88.0,258.0,0
1725099311,18.563405,73.833095,500.29999999999995,24.42043010752688,93,31.096774193548388,145.752688172043,80.0,-88.0,254.0,0
1725099312,18.563405,73.833095,500.29999999999995,24.289361702127657,94,30.914893617021278,146.77659574468086,82.0,-88.0,256.0,0
1725099313,18.563405,73.833095,500.29999999999995,24.293617021276596,94,30.914893617021278,146.77659574468086,83.0,-88.0,257.0,0
1725099314,18.563405,73.833095,500.29999999999995,24.336170212765957,94,30.914893617021278,146.77659574468086,80.0,-88.0,254.0,0
1725099315,18.563405,73.833095,500.29999999999995,24.328125,96,31.197916666666668,146.59375,83.0,-88.0,257.0,0
1725099316,18.563405,73.833095,500.29999999999995,24.380208333333332,96,31.197916666666668,146.59375,81.0,-88.0,255.0,0
1725099317,18.563405,73.833095,500.29999999999995,24.264583333333334,96,31.197916666666668,146.59375,84.0,-88.0,258.0,0
1725099318,18.563405,73.833095,500.29999999999995,24.209374999999998,96,30.895833333333332,144.0625,83.0,-88.0,257.0,0
1725099319,18.563405,73.833095,500.29999999999995,24.353125000000002,96,30.895833333333332,144.0625,83.0,-88.0,257.0,0
1725099320,18.563405,73.833095,500.29999999999995,24.297916666666666,96,31.114583333333332,141.89583333333334,82.0,-88.0,256.0,0
1725099321,18.563405,73.833095,500.29999999999995,24.367708333333336,96,31.114583333333332,141.89583333333334,81.0,-88.0,255.0,0
1725099322,18.563405,73.833095,500.29999999999995,24.302083333333332,96,31.114583333333332,141.89583333333334,81.0,-88.0,255.0,0
1725099323,18.563405,73.833095,500.29999999999995,24.3875,96,31.114583333333332,141.89583333333334,83.0,-88.0,257.0,0
1725099324,18.563405,73.833095,500.29999999999995,24.321875000000002,96,31.114583333333332,141.89583333333334,79.0,-88.0,253.0,0
1725099325,18.563405,73.833095,500.29999999999995,24.167708333333334,96,31.114583333333332,141.89583333333334,77.0,-88.0,251.0,0
1725099326,18.563405,73.833095,500.29999999999995,24.116666666666664,96,31.114583333333332,141.89583333333334,80.0,-88.0,254.0,0
1725099327,18.563405,73.833095,500.29999999999995,24.363541666666666,96,31.53125,144.26041666666666,81.0,-88.0,255.0,0
1725099328,18.563405,73.833095,500.29999999999995,24.180208333333336,96,31.53125,144.26041666666666,83.0,-88.0,257.0,0
1725099329,18.563405,73.833095,500.29999999999995,24.215463917525774,97,31.762886597938145,146.8762886597938,83.0,-88.0,257.0,0
1725099330,18.563405,73.833095,500.29999999999995,24.260824742268042,97,31.762886597938145,146.8762886597938,83.0,-88.0,257.0,0
1725099331,18.563405,73.833095,500.29999999999995,24.27216494845361,97,31.762886597938145,146.8762886597938,83.0,-88.0,257.0,0
1725099332,18.5634022,73.8331764,512.5,24.057731958762886,97,31.762886597938145,146.8762886597938,82.0,-88.0,256.0,0
1725099333,18.5634018,73.8331893,512.8,24.18144329896907,97,31.762886597938145,146.8762886597938,83.0,-88.0,257.0,0
1725099334,18.5634017,73.8331913,512.9,24.38659793814433,97,31.762886597938145,146.8762886597938,84.0,-88.0,258.0,0
1725099335,18.5634017,73.8331916,512.9,24.271134020618558,97,31.762886597938145,146.8762886597938,83.0,-88.0,257.0,0
1725099336,18.5634017,73.8331917,512.9,24.27216494845361,97,31.536082474226806,147.11340206185568,83.0,-88.0,257.0,0
1725099337,18.5634017,73.8331917,512.9,24.24845360824742,97,31.536082474226806,147.11340206185568,83.0,-88.0,258.0,0
1725099338,18.5634017,73.8331917,512.9,24.260824742268042,97,30.835051546391753,145.97938144329896,95.0,-88.0,269.0,0
1725099339,18.5634017,73.8331917,512.9,24.21958762886598,97,30.835051546391753,145.97938144329896,80.0,-88.0,254.0,0
1725099340,18.5634017,73.8331917,512.9,24.52577319587629,97,30.835051546391753,145.97938144329896,78.0,-88.0,252.0,0
1725099341,18.5634017,73.8331917,512.9,24.56907216494845,97,30.835051546391753,145.97938144329896,91.0,-88.0,265.0,0
1725099342,18.5634017,73.8331917,512.9,24.63505154639175,97,30.835051546391753,145.97938144329896,83.0,-88.0,257.0,0
1725099343,18.5634017,73.8331917,512.9,24.615463917525773,97,30.835051546391753,145.97938144329896,84.0,-88.0,258.0,0
1725099344,18.5634017,73.8331917,512.9,24.70618556701031,97,30.835051546391753,145.97938144329896,84.0,-88.0,258.0,0
1725099345,18.5634017,73.8331917,512.9,24.651546391752575,97,30.567010309278352,144.37113402061857,87.0,-88.0,261.0,0
1725099346,18.5634017,73.8331917,512.9,24.441237113402064,97,30.567010309278352,144.38144329896906,80.0,-88.0,254.0,0
1725099347,18.5634017,73.8331917,512.9,24.256701030927836,97,30.175257731958762,141.69072164948454,100.0,-88.0,274.0,0
1725099348,18.5634017,73.8331917,512.9,24.241237113402065,97,30.185567010309278,141.69072164948454,98.0,-88.0,271.0,0
1725099349,18.5634017,73.8331917,512.9,24.440206185567007,97,30.185567010309278,141.69072164948454,75.0,-88.0,249.0,0
1725099350,18.5634017,73.8331917,512.9,24.465979381443297,97,30.185567010309278,141.69072164948454,79.0,-88.0,253.0,0
1725099351,18.5634017,73.8331917,512.9,24.517525773195874,97,30.185567010309278,141.69072164948454,93.0,-88.0,267.0,0
1725099352,18.5634017,73.8331917,512.9,24.630208333333332,96,30.291666666666668,139.82291666666666,89.0,-88.0,264.0,0
1725099353,18.5634017,73.8331917,512.9,24.458333333333332,96,30.291666666666668,139.82291666666666,87.0,-88.0,261.0,0
1725099354,18.5634017,73.8331917,512.9,24.552083333333332,96,30.291666666666668,139.82291666666666,101.0,-88.0,275.0,0
1725099355,18.5634017,73.8331917,512.9,24.357731958762884,97,30.072164948453608,140.72164948453607,82.0,-88.0,255.0,0
1725099356,18.5634017,73.8331917,512.9,24.520833333333332,96,30.114583333333332,138.77083333333334,78.0,-88.0,251.0,0
1725099357,18.5634017,73.8331917,512.9,24.586458333333336,96,30.104166666666668,138.75,87.0,-88.0,261.0,0
1725099358,18.5634017,73.8331917,512.9,24.234375,96,30.114583333333332,138.75,94.0,-88.0,268.0,0
1725099359,18.5634017,73.8331917,512.9,24.057291666666668,96,30.802083333333332,140.9375,77.0,-88.0,251.0,0
1725099360,18.5634017,73.8331917,512.9,24.038541666666664,96,30.802083333333332,140.9375,78.0,-88.0,252.0,0
1725099361,18.5634017,73.8331917,512.9,24.332291666666666,96,31.416666666666668,143.30208333333334,86.0,-88.0,260.0,0
1725099362,18.5634017,73.8331917,512.9,24.3125,96,31.416666666666668,143.29166666666666,83.0,-88.0,257.0,0
1725099363,18.5634017,73.8331917,512.9,24.15416666666667,96,31.427083333333332,143.28125,80.0,-88.0,255.0,0
1725099364,18.5634017,73.8331917,512.9,24.15833333333333,96,31.427083333333332,143.28125,80.0,-88.0,255.0,0
1725099365,18.5634017,73.8331917,512.9,24.496875,96,32.03125,144.64583333333334,82.0,-88.0,257.0,0
1725099366,18.5634017,73.8331917,512.9,24.41979166666667,96,32.03125,144.64583333333334,82.0,-88.0,256.0,0
1725099367,18.5634017,73.8331917,512.9,24.49791666666667,96,32.03125,144.64583333333334,83.0,-88.0,258.0,0
1725099368,18.5634017,73.8331917,512.9,24.405208333333334,96,31.84375,144.98958333333334,82.0,-88.0,257.0,0
1725099369,18.5634017,73.8331917,512.9,24.319791666666664,96,31.833333333333332,144.97916666666666,107.0,-88.0,282.0,0
1725099370,18.5634017,73.8331917,512.9,24.504166666666666,96,31.604166666666668,145.21875,74.0,-89.0,248.0,0
1725099371,18.5634017,73.8331917,512.9,24.536458333333332,96,31.604166666666668,145.21875,101.0,-88.0,276.0,0
1725099372,18.5634017,73.8331917,512.9,24.764583333333334,96,31.604166666666668,145.21875,90.0,-88.0,264.0,0
1725099373,18.5634017,73.8331917,512.9,24.72061855670103,97,31.536082474226806,147.10309278350516,72.0,-88.0,246.0,0
1725099374,18.5634017,73.8331917,512.9,24.580412371134024,97,31.1340206185567,148.4536082474227,88.0,-88.0,263.0,0
1725099375,18.5634017,73.8331917,512.9,24.714432989690724,97,31.1340206185567,148.4536082474227,88.0,-88.0,262.0,0
1725099376,18.5634017,73.8331917,512.9,24.6319587628866,97,31.1340206185567,148.4536082474227,78.0,-88.0,252.0,0
1725099377,18.5634017,73.8331917,512.9,24.403092783505155,97,30.835051546391753,145.94845360824743,79.0,-88.0,254.0,0
1725099378,18.5634017,73.8331917,512.9,24.559793814432993,97,30.835051546391753,145.93814432989691,90.0,-88.0,265.0,0
1725099379,18.5634017,73.8331917,512.9,23.20520833333333,96,30.885416666666668,145.83333333333334,85.0,-88.0,260.0,0
1725099380,18.5634017,73.8331917,512.9,23.596875,96,30.875,145.82291666666666,78.0,-88.0,253.0,0
1725099381,18.5634017,73.8331917,512.9,23.839583333333334,96,30.875,145.82291666666666,92.0,-88.0,266.0,0
1725099382,18.5634017,73.8331917,512.9,23.716842105263158,95,31.063157894736843,144.32631578947368,86.0,-88.0,261.0,0
1725099383,18.5634017,73.8331917,512.9,23.693749999999998,96,30.677083333333332,143.11458333333334,75.0,-88.0,250.0,0
1725099384,18.5634017,73.8331917,512.9,23.557291666666668,96,30.697916666666668,143.10416666666666,79.0,-88.0,253.0,0
1725099385,18.5634017,73.8331917,512.9,23.813541666666666,96,30.6875,143.10416666666666,85.0,-88.0,259.0,0
1725099386,18.5634017,73.8331917,512.9,23.79375,96,30.510416666666668,143.09375,84.0,-88.0,258.0,0
1725099387,18.5634017,73.8331917,512.9,23.83125,96,30.510416666666668,143.10416666666666,83.0,-88.0,258.0,0
1725099388,18.5634017,73.8331917,512.9,23.745833333333334,96,30.395833333333332,142.125,84.0,-88.0,258.0,0
1725099389,18.5634017,73.8331917,512.9,23.317708333333332,96,30.395833333333332,142.125,83.0,-88.0,257.0,0
1725099390,18.5634017,73.8331917,512.9,23.436458333333334,96,30.395833333333332,142.14583333333334,81.0,-88.0,255.0,0
1725099391,18.5634017,73.8331917,512.9,23.601041666666664,96,30.395833333333332,142.14583333333334,82.0,-88.0,256.0,0
1725099392,18.5634017,73.8331917,512.9,23.525000000000002,96,30.395833333333332,142.14583333333334,78.0,-88.0,252.0,0
1725099393,18.5634017,73.8331917,512.9,23.490624999999998,96,30.416666666666668,142.14583333333334,82.0,-88.0,256.0,0
1725099394,18.5634017,73.8331917,512.9,23.446875000000002,96,30.4375,142.14583333333334,83.0,-88.0,257.0,0
1725099395,18.5634017,73.8331917,512.9,23.760416666666668,96,30.416666666666668,142.125,85.0,-88.0,260.0,0
1725099396,18.5634017,73.8331917,512.9,23.57604166666667,96,30.416666666666668,142.125,79.0,-88.0,253.0,0
1725099397,18.5634017,73.8331917,512.9,23.931250000000002,96,30.416666666666668,142.125,79.0,-88.0,254.0,0
1725099398,18.5634017,73.8331917,512.9,23.947916666666668,96,30.416666666666668,142.125,84.0,-88.0,258.0,0
1725099399,18.5634017,73.8331917,512.9,23.422916666666666,96,30.416666666666668,142.125,82.0,-88.0,256.0,0
1725099400,18.5634017,73.8331917,512.9,24.014583333333334,96,30.427083333333332,142.11458333333334,80.0,-88.0,254.0,0
1725099401,18.5634017,73.8331917,512.9,23.901041666666668,96,30.427083333333332,142.11458333333334,78.0,-88.0,252.0,0
1725099402,18.5634017,73.8331917,512.9,23.907291666666666,96,30.427083333333332,142.13541666666666,83.0,-88.0,258.0,0
1725099403,18.5634017,73.8331917,512.9,24.131249999999998,96,30.416666666666668,142.125,84.0,-88.0,258.0,0
1725099404,18.5634017,73.8331917,512.9,24.102083333333336,96,30.416666666666668,142.125,84.0,-88.0,258.0,0
1725099405,18.5634017,73.8331917,512.9,23.729166666666668,96,30.416666666666668,142.125,82.0,-88.0,257.0,0
1725099406,18.5634017,73.8331917,512.9,24.349999999999998,96,30.416666666666668,142.125,83.0,-88.0,258.0,0
1725099407,18.5634017,73.8331917,512.9,24.097916666666666,96,31.083333333333332,144.3125,82.0,-88.0,257.0,0
1725099408,18.5634017,73.8331917,512.9,24.295833333333334,96,31.0625,144.3125,84.0,-88.0,258.0,0
1725099409,18.5634017,73.8331917,512.9,24.256249999999998,96,31.677083333333332,146.66666666666666,83.0,-88.0,258.0,0
1725099410,18.5634017,73.8331917,512.9,24.248958333333334,96,32.28125,148.03125,84.0,-88.0,258.0,0
1725099411,18.5634017,73.8331917,512.9,23.871875,96,32.28125,148.05208333333334,82.0,-88.0,257.0,0
1725099412,18.5634017,73.8331917,512.9,24.145833333333332,96,32.28125,148.05208333333334,83.0,-88.0,257.0,0
1725099413,18.5634017,73.8331917,512.9,24.193749999999998,96,32.28125,148.05208333333334,83.0,-88.0,257.0,0
1725099414,18.5634017,73.8331917,512.9,24.273958333333336,96,32.28125,148.05208333333334,83.0,-88.0,258.0,0
1725099415,18.5634017,73.8331917,512.9,24.422916666666666,96,32.28125,148.05208333333334,83.0,-88.0,258.0,0
1725099416,18.5634017,73.8331917,512.9,24.412499999999998,96,32.09375,148.39583333333334,84.0,-88.0,258.0,0
1725099417,18.5634017,73.8331917,512.9,24.046875,96,32.09375,148.39583333333334,83.0,-88.0,258.0,0
1725099418,18.5634017,73.8331917,512.9,24.575,96,31.864583333333332,148.63541666666666,82.0,-88.0,257.0,0
1725099419,18.5634017,73.8331917,512.9,24.463541666666668,96,31.458333333333332,150.0,83.0,-88.0,258.0,0
1725099420,18.5634017,73.8331917,512.9,24.461458333333336,96,31.458333333333332,150.0,83.0,-88.0,257.0,0
1725099421,18.5634017,73.8331917,512.9,24.41979166666667,96,31.458333333333332,150.0,83.0,-88.0,257.0,0
1725099422,18.5634017,73.8331917,512.9,24.309375,96,31.458333333333332,150.0,81.0,-88.0,256.0,0
1725099423,18.5634017,73.8331917,512.9,24.182291666666668,96,31.458333333333332,150.0,82.0,-88.0,256.0,0
1725099424,18.5634017,73.8331917,512.9,24.646874999999998,96,31.458333333333332,150.0,82.0,-88.0,256.0,0
1725099425,18.5634017,73.8331917,512.9,24.756249999999998,96,31.15625,147.46875,82.0,-88.0,257.0,0
1725099426,18.5634017,73.8331917,512.9,24.790625000000002,96,31.15625,147.46875,85.0,-88.0,259.0,0
1725099427,18.5634017,73.8331917,512.9,24.83125,96,30.895833333333332,145.85416666666666,84.0,-88.0,258.0,0
1725099428,18.5634017,73.8331917,512.9,24.495833333333334,96,31.385416666666668,145.3125,82.0,-88.0,257.0,0
1725099429,18.5634017,73.8331917,512.9,24.664583333333336,96,31.385416666666668,145.3125,82.0,-88.0,257.0,0
1725099430,18.5634017,73.8331917,512.9,24.697916666666668,96,31.385416666666668,145.3125,82.0,-88.0,256.0,0
1725099431,18.5634017,73.8331917,512.9,24.477083333333336,96,31.385416666666668,145.3125,83.0,-88.0,258.0,0
1725099432,18.5634017,73.8331917,512.9,24.540625000000002,96,31.385416666666668,145.3125,84.0,-88.0,259.0,0
1725099433,18.5634017,73.8331917,512.9,24.519791666666666,96,31.385416666666668,145.3125,83.0,-88.0,257.0,0
1725099434,18.5634017,73.8331917,512.9,24.558333333333334,96,31.802083333333332,147.67708333333334,83.0,-88.0,258.0,0
1725099435,18.5634017,73.8331917,512.9,24.587500000000002,96,31.802083333333332,147.67708333333334,82.0,-88.0,257.0,0
1725099436,18.5634017,73.8331917,512.9,24.677083333333332,96,32.291666666666664,148.0625,84.0,-88.0,258.0,0
1725099437,18.5634017,73.8331917,512.9,24.741666666666664,96,32.104166666666664,148.40625,83.0,-88.0,258.0,0
1725099438,18.5634017,73.8331917,512.9,24.409375,96,32.104166666666664,148.40625,84.0,-88.0,259.0,0
1725099439,18.5634017,73.8331917,512.9,24.534375,96,32.104166666666664,148.40625,83.0,-88.0,258.0,0
1725099440,18.5634017,73.8331917,512.9,24.619791666666668,96,32.104166666666664,148.40625,83.0,-88.0,258.0,0
1725099441,18.5634017,73.8331917,512.9,24.568749999999998,96,32.104166666666664,148.40625,83.0,-88.0,258.0,0
1725099442,18.5634017,73.8331917,512.9,24.493750000000002,96,32.104166666666664,148.40625,80.0,-88.0,254.0,0
1725099443,18.5634017,73.8331917,512.9,24.51770833333333,96,32.104166666666664,148.40625,82.0,-88.0,256.0,0
1725099444,18.5634017,73.8331917,512.9,24.491666666666664,96,31.875,148.64583333333334,84.0,-88.0,259.0,0
1725099445,18.5634017,73.8331917,512.9,24.584374999999998,96,31.46875,150.01041666666666,82.0,-88.0,257.0,0
1725099446,18.5634017,73.8331917,512.9,24.528125,96,31.166666666666668,147.47916666666666,83.0,-88.0,258.0,0
1725099447,18.5634017,73.8331917,512.9,24.503125,96,31.166666666666668,147.47916666666666,84.0,-88.0,258.0,0
1725099448,18.5634017,73.8331917,512.9,24.651041666666668,96,31.166666666666668,147.45833333333334,82.0,-88.0,257.0,0
1725099449,18.5634017,73.8331917,512.9,24.553124999999998,96,31.208333333333332,147.45833333333334,83.0,-88.0,257.0,0
1725099450,18.5634017,73.8331917,512.9,24.56458333333333,96,31.208333333333332,147.47916666666666,83.0,-88.0,258.0,0
1725099451,18.5634017,73.8331917,512.9,24.639583333333334,96,31.208333333333332,147.47916666666666,83.0,-88.0,258.0,0
1725099452,18.5634017,73.8331917,512.9,24.545263157894738,95,31.25263157894737,145.57894736842104,83.0,-88.0,257.0,0
1725099453,18.5634017,73.8331917,512.9,24.62,95,31.25263157894737,145.57894736842104,84.0,-88.0,258.0,0
1725099454,18.5634017,73.8331917,512.9,24.482474226804126,97,31.02061855670103,147.28865979381445,84.0,-88.0,258.0,0
1725099455,18.5634017,73.8331917,512.9,24.563917525773196,97,30.628865979381445,144.58762886597938,85.0,-88.0,259.0,0
1725099456,18.5634017,73.8331917,512.9,24.516494845360825,97,30.608247422680414,144.60824742268042,79.0,-88.0,253.0,0
1725099457,18.5634017,73.8331917,512.9,24.52577319587629,97,30.608247422680414,144.60824742268042,81.0,-88.0,256.0,0
1725099458,18.5634017,73.8331917,512.9,24.384536082474227,97,30.608247422680414,144.60824742268042,88.0,-88.0,263.0,0
1725099459,18.5634017,73.8331917,512.9,24.461855670103095,97,30.608247422680414,144.60824742268042,94.0,-88.0,269.0,0
1725099460,18.5634017,73.8331917,512.9,24.405154639175258,97,30.608247422680414,144.60824742268042,89.0,-88.0,263.0,0
1725099461,18.5634017,73.8331917,512.9,24.27319587628866,97,30.608247422680414,144.60824742268042,75.0,-88.0,249.0,0
1725099462,18.5634017,73.8331917,512.9,24.491752577319584,97,30.61855670103093,144.5979381443299,84.0,-88.0,258.0,0
1725099463,18.5634017,73.8331917,512.9,24.584536082474227,97,30.50515463917526,143.62886597938143,92.0,-88.0,267.0,0
1725099464,18.5634017,73.8331917,512.9,24.513402061855672,97,30.50515463917526,143.62886597938143,74.0,-88.0,248.0,0
1725099465,18.5634017,73.8331917,512.9,24.454639175257732,97,30.50515463917526,143.62886597938143,77.0,-88.0,251.0,0
1725099466,18.5634017,73.8331917,512.9,24.5979381443299,97,30.50515463917526,143.62886597938143,87.0,-88.0,262.0,0
1725099467,18.5634017,73.8331917,512.9,24.491752577319584,97,30.49484536082474,143.61855670103094,76.0,-88.0,250.0,0
1725099468,18.5634017,73.8331917,512.9,24.50515463917526,97,31.175257731958762,145.7835051546392,79.0,-88.0,254.0,0
1725099469,18.5634017,73.8331917,512.9,24.464948453608248,97,31.175257731958762,145.7835051546392,84.0,-88.0,258.0,0
1725099470,18.5634017,73.8331917,512.9,24.53298969072165,97,31.783505154639176,148.1237113402062,82.0,-88.0,257.0,0
1725099471,18.5634017,73.8331917,512.9,24.37319587628866,97,31.783505154639176,148.1237113402062,81.0,-88.0,256.0,0
1725099472,18.5634017,73.8331917,512.9,24.423711340206186,97,31.783505154639176,148.08247422680412,82.0,-88.0,256.0,0
1725099473,18.5634017,73.8331917,512.9,24.486597938144328,97,31.783505154639176,148.0721649484536,82.0,-88.0,257.0,0
1725099474,18.5634017,73.8331917,512.9,24.4340206185567,97,31.77319587628866,148.08247422680412,83.0,-88.0,258.0,0
1725099475,18.5634017,73.8331917,512.9,24.403092783505155,97,32.371134020618555,149.43298969072166,80.0,-88.0,255.0,0
1725099476,18.5634017,73.8331917,512.9,24.42886597938144,97,32.371134020618555,149.43298969072166,81.0,-88.0,255.0,0
1725099477,18.5634017,73.8331917,512.9,24.5020618556701,97,32.36082474226804,149.44329896907217,81.0,-88.0,256.0,0
1725099478,18.5634017,73.8331917,512.9,24.730927835051546,97,32.175257731958766,149.82474226804123,82.0,-88.0,256.0,0
1725099479,18.5634017,73.8331917,512.9,24.52783505154639,97,31.948453608247423,150.06185567010309,82.0,-88.0,256.0,0
1725099480,18.5634017,73.8331917,512.9,24.516494845360825,97,31.948453608247423,150.06185567010309,84.0,-88.0,258.0,0
1725099481,18.5634017,73.8331917,512.9,24.508247422680416,97,31.948453608247423,150.06185567010309,82.0,-88.0,257.0,0
1725099482,18.5634017,73.8331917,512.9,24.476288659793813,97,31.948453608247423,150.0721649484536,81.0,-88.0,256.0,0
1725099483,18.5634017,73.8331917,512.9,24.582474226804123,97,31.948453608247423,150.0721649484536,85.0,-88.0,259.0,0
1725099484,18.5634017,73.8331917,512.9,24.37938144329897,97,31.948453608247423,150.0721649484536,85.0,-88.0,259.0,0
1725099485,18.5634017,73.8331917,512.9,24.421649484536083,97,31.54639175257732,151.42268041237114,82.0,-88.0,256.0,0
1725099486,18.5634017,73.8331917,512.9,24.397938144329895,97,31.54639175257732,151.42268041237114,83.0,-88.0,257.0,0
1725099487,18.5634017,73.8331917,512.9,24.48041237113402,97,31.54639175257732,151.42268041237114,83.0,-88.0,257.0,0
1725099488,18.5634017,73.8331917,512.9,24.35876288659794,97,30.97938144329897,147.30927835051546,84.0,-88.0,259.0,0
1725099489,18.5634017,73.8331917,512.9,24.262886597938145,97,30.97938144329897,147.31958762886597,83.0,-88.0,258.0,0
1725099490,18.5634017,73.8331917,512.9,24.2340206185567,97,30.97938144329897,147.31958762886597,83.0,-88.0,258.0,0
1725099491,18.5634017,73.8331917,512.9,24.15567010309278,97,30.989690721649485,147.3298969072165,83.0,-88.0,257.0,0
1725099492,18.5634017,73.8331917,512.9,24.11958762886598,97,30.65979381443299,145.96907216494844,84.0,-88.0,258.0,0
1725099493,18.5634017,73.8331917,512.9,24.080412371134024,97,30.989690721649485,147.35051546391753,82.0,-88.0,257.0,0
1725099494,18.5634017,73.8331917,512.9,24.087628865979383,97,30.79381443298969,144.64948453608247,83.0,-88.0,257.0,0
1725099495,18.5634017,73.8331917,512.9,24.621649484536086,97,30.79381443298969,144.60824742268042,82.0,-88.0,256.0,0
1725099496,18.5634017,73.8331917,512.9,24.264948453608245,97,30.804123711340207,144.5979381443299,83.0,-88.0,258.0,0
1725099497,18.5634017,73.8331917,512.9,24.264948453608245,97,30.47422680412371,143.58762886597938,83.0,-88.0,258.0,0
1725099498,18.5634017,73.8331917,512.9,24.211340206185568,97,30.47422680412371,143.58762886597938,83.0,-88.0,258.0,0
1725099499,18.5634017,73.8331917,512.9,24.405154639175258,97,30.47422680412371,143.58762886597938,83.0,-88.0,258.0,0
1725099500,18.5634017,73.8331917,512.9,24.50515463917526,97,30.47422680412371,143.58762886597938,83.0,-88.0,258.0,0
1725099501,18.5634017,73.8331917,512.9,24.45625,96,30.510416666666668,141.66666666666666,84.0,-88.0,258.0,0
1725099502,18.5634017,73.8331917,512.9,24.5125,96,30.510416666666668,141.66666666666666,84.0,-88.0,258.0,0
1725099503,18.5634017,73.8331917,512.9,24.446875000000002,96,30.510416666666668,141.66666666666666,83.0,-88.0,257.0,0
1725099504,18.5634017,73.8331917,512.9,24.296875,96,30.510416666666668,141.6875,84.0,-88.0,258.0,0
1725099505,18.5634017,73.8331917,512.9,24.332291666666666,96,30.510416666666668,141.6875,83.0,-88.0,257.0,0
1725099506,18.5634017,73.8331917,512.9,24.43958333333333,96,30.510416666666668,141.64583333333334,83.0,-88.0,258.0,0
1725099507,18.5634017,73.8331917,512.9,24.313541666666666,96,30.510416666666668,141.64583333333334,84.0,-88.0,258.0,0
1725099508,18.5634017,73.8331917,512.9,24.118750000000002,96,30.510416666666668,141.64583333333334,83.0,-88.0,257.0,0
1725099509,18.5634017,73.8331917,512.9,24.426041666666666,96,30.510416666666668,141.64583333333334,81.0,-88.0,256.0,0
1725099510,18.5634017,73.8331917,512.9,24.428124999999998,96,30.510416666666668,141.64583333333334,85.0,-88.0,259.0,0
1725099511,18.5634017,73.8331917,512.9,24.315625,96,30.510416666666668,141.64583333333334,84.0,-88.0,258.0,0
1725099512,18.5634017,73.8331917,512.9,24.66979166666667,96,30.510416666666668,141.63541666666666,82.0,-88.0,256.0,0
1725099513,18.5634017,73.8331917,512.9,24.371875,96,30.510416666666668,141.63541666666666,83.0,-88.0,257.0,0
1725099514,18.5634017,73.8331917,512.9,24.27916666666667,96,30.510416666666668,141.63541666666666,84.0,-88.0,258.0,0
1725099515,18.5634017,73.8331917,512.9,24.34166666666667,96,30.510416666666668,141.63541666666666,82.0,-88.0,257.0,0
1725099516,18.5634017,73.8331917,512.9,24.182291666666668,96,31.208333333333332,143.82291666666666,83.0,-88.0,257.0,0
1725099517,18.5634017,73.8331917,512.9,24.119791666666668,96,31.208333333333332,143.82291666666666,82.0,-88.0,257.0,0
1725099518,18.5634017,73.8331917,512.9,24.054166666666664,96,31.1875,143.80208333333334,83.0,-88.0,257.0,0
1725099519,18.5634017,73.8331917,512.9,24.108333333333334,96,31.802083333333332,146.16666666666666,83.0,-88.0,258.0,0
1725099520,18.5634017,73.8331917,512.9,24.073958333333334,96,31.802083333333332,146.16666666666666,82.0,-88.0,257.0,0
1725099521,18.5634017,73.8331917,512.9,24.166666666666668,96,31.802083333333332,146.16666666666666,83.0,-88.0,257.0,0
1725099522,18.5634017,73.8331917,512.9,24.089583333333334,96,31.802083333333332,146.1875,84.0,-88.0,258.0,0
1725099523,18.5634017,73.8331917,512.9,24.178124999999998,96,32.416666666666664,147.5625,83.0,-88.0,257.0,0
1725099524,18.5634017,73.8331917,512.9,24.18541666666667,96,32.416666666666664,147.57291666666666,82.0,-88.0,256.0,0
1725099525,18.5634017,73.8331917,512.9,24.115624999999998,96,32.416666666666664,147.57291666666666,82.0,-88.0,256.0,0
1725099526,18.5634017,73.8331917,512.9,24.03333333333333,96,32.229166666666664,147.91666666666666,81.0,-88.0,256.0,0
1725099527,18.5634017,73.8331917,512.9,24.023958333333336,96,32.229166666666664,147.91666666666666,82.0,-88.0,257.0,0
1725099528,18.5634017,73.8331917,512.9,23.979166666666668,96,32.0,148.15625,84.0,-88.0,258.0,0
1725099529,18.5634017,73.8331917,512.9,24.04375,96,32.0,148.15625,83.0,-88.0,257.0,0
1725099530,18.5634017,73.8331917,512.9,24.10729166666667,96,32.0,148.15625,84.0,-88.0,258.0,0
1725099531,18.5634017,73.8331917,512.9,24.07604166666667,96,32.0,148.15625,83.0,-88.0,257.0,0
1725099532,18.5634017,73.8331917,512.9,24.287499999999998,96,31.583333333333332,149.51041666666666,83.0,-88.0,257.0,0
1725099533,18.5634017,73.8331917,512.9,24.248958333333334,96,31.583333333333332,149.47916666666666,82.0,-88.0,257.0,0
1725099534,18.5634017,73.8331917,512.9,24.197916666666668,96,31.604166666666668,149.47916666666666,82.0,-88.0,256.0,0
1725099535,18.5634017,73.8331917,512.9,23.954639175257732,97,31.0,147.49484536082474,80.0,-88.0,255.0,0
1725099536,18.5634017,73.8331917,512.9,24.20721649484536,97,31.0,147.49484536082474,90.0,-88.0,264.0,0
1725099537,18.5634017,73.8331917,512.9,23.891752577319586,97,30.7319587628866,145.88659793814432,81.0,-88.0,255.0,0
1725099538,18.5634017,73.8331917,512.9,23.852577319587628,97,30.721649484536083,145.8762886597938,77.0,-88.0,251.0,0
1725099539,18.5634017,73.8331917,512.9,23.875257731958765,97,30.721649484536083,145.8659793814433,98.0,-88.0,273.0,0
1725099540,18.5634017,73.8331917,512.9,23.735051546391755,97,30.721649484536083,145.8659793814433,87.0,-88.0,261.0,0
1725099541,18.5634017,73.8331917,512.9,23.74639175257732,97,31.20618556701031,145.3298969072165,79.0,-88.0,253.0,0
1725099542,18.5634017,73.8331917,512.9,23.915463917525773,97,30.876288659793815,143.94845360824743,90.0,-89.0,264.0,0
1725099543,18.5634017,73.8331917,512.9,23.81958762886598,97,31.20618556701031,145.3298969072165,86.0,-88.0,260.0,0
1725099544,18.5634017,73.8331917,512.9,24.00721649484536,97,31.20618556701031,145.3298969072165,93.0,-88.0,267.0,0
1725099545,18.5634017,73.8331917,512.9,23.890721649484536,97,31.608247422680414,147.659793814433,88.0,-88.0,262.0,0
1725099546,18.5634017,73.8331917,512.9,23.61340206185567,97,32.09278350515464,148.04123711340208,79.0,-88.0,254.0,0
1725099547,18.5634017,73.8331917,512.9,23.78041237113402,97,32.09278350515464,148.04123711340208,82.0,-88.0,256.0,0
1725099548,18.5634017,73.8331917,512.9,23.51958762886598,97,32.09278350515464,148.04123711340208,85.0,-88.0,260.0,0
1725099549,18.5634017,73.8331917,512.9,23.918556701030926,97,32.09278350515464,148.04123711340208,84.0,-88.0,258.0,0
1725099550,18.5634017,73.8331917,512.9,23.27319587628866,97,32.09278350515464,148.04123711340208,78.0,-88.0,253.0,0
1725099551,18.5634017,73.8331917,512.9,23.395876288659796,97,31.896907216494846,148.38144329896906,81.0,-88.0,256.0,0
1725099552,18.5634017,73.8331917,512.9,23.72061855670103,97,31.90721649484536,148.38144329896906,83.0,-88.0,257.0,0
1725099553,18.5634017,73.8331917,512.9,23.652577319587632,97,31.896907216494846,148.39175257731958,83.0,-88.0,257.0,0
1725099554,18.5634017,73.8331917,512.9,23.741237113402065,97,31.65979381443299,148.62886597938143,87.0,-88.0,262.0,0
1725099555,18.5634017,73.8331917,512.9,24.01443298969072,97,31.2680412371134,149.97938144329896,79.0,-88.0,254.0,0
1725099556,18.5634017,73.8331917,512.9,23.757731958762886,97,31.2680412371134,149.96907216494844,83.0,-88.0,257.0,0
1725099557,18.5634017,73.8331917,512.9,23.78041237113402,97,31.2680412371134,149.96907216494844,85.0,-88.0,259.0,0
1725099558,18.5634017,73.8331917,512.9,23.98144329896907,97,31.2680412371134,149.97938144329896,86.0,-88.0,260.0,0
1725099559,18.5634017,73.8331917,512.9,23.983505154639175,97,31.278350515463917,149.98969072164948,82.0,-88.0,257.0,0
1725099560,18.5634017,73.8331917,512.9,24.057731958762886,97,31.298969072164947,149.96907216494844,85.0,-88.0,260.0,0
1725099561,18.5634017,73.8331917,512.9,23.970103092783503,97,31.0,147.46391752577318,88.0,-88.0,263.0,0
1725099562,18.5634017,73.8331917,512.9,23.802061855670104,97,31.02061855670103,147.44329896907217,82.0,-88.0,256.0,0
1725099563,18.5634017,73.8331917,512.9,24.011340206185565,97,31.010309278350515,147.4536082474227,85.0,-88.0,260.0,0
1725099564,18.5634017,73.8331917,512.9,23.949484536082473,97,30.54639175257732,143.1443298969072,84.0,-88.0,258.0,0
1725099565,18.5634017,73.8331917,512.9,23.92989690721649,97,30.54639175257732,143.1443298969072,77.0,-88.0,252.0,0
1725099566,18.5634017,73.8331917,512.9,24.02164948453608,97,30.54639175257732,143.18556701030928,69.0,-88.0,244.0,0
1725099567,18.5634017,73.8331917,512.9,24.186597938144327,97,30.54639175257732,143.18556701030928,97.0,-88.0,271.0,0
1725099568,18.5634017,73.8331917,512.9,24.12783505154639,97,30.54639175257732,143.18556701030928,86.0,-88.0,261.0,0
1725099569,18.5634017,73.8331917,512.9,24.12783505154639,97,30.587628865979383,143.18556701030928,70.0,-88.0,244.0,0
1725099570,18.5634017,73.8331917,512.9,24.095876288659795,97,30.412371134020617,143.20618556701032,78.0,-88.0,252.0,0
1725099571,18.5634017,73.8331917,512.9,24.051546391752577,97,30.391752577319586,143.18556701030928,84.0,-88.0,259.0,0
1725099572,18.5634017,73.8331917,512.9,24.083505154639173,97,30.391752577319586,143.18556701030928,81.0,-88.0,255.0,0
1725099573,18.5634017,73.8331917,512.9,23.996907216494844,97,30.391752577319586,143.18556701030928,87.0,-88.0,262.0,0
1725099574,18.5634017,73.8331917,512.9,24.2319587628866,97,30.278350515463917,142.2164948453608,83.0,-88.0,257.0,0
1725099575,18.5634017,73.8331917,512.9,24.162886597938147,97,30.278350515463917,142.2164948453608,80.0,-88.0,254.0,0
1725099576,18.5634017,73.8331917,512.9,24.067010309278352,97,30.278350515463917,142.2164948453608,79.0,-88.0,253.0,0
1725099577,18.5634017,73.8331917,512.9,23.950515463917522,97,30.278350515463917,142.2164948453608,87.0,-88.0,261.0,0
1725099578,18.5634017,73.8331917,512.9,24.144329896907216,97,30.298969072164947,142.23711340206185,83.0,-88.0,257.0,0
1725099579,18.5634017,73.8331917,512.9,24.109278350515464,97,30.298969072164947,142.22680412371133,83.0,-88.0,257.0,0
1725099580,18.5634017,73.8331917,512.9,23.6734693877551,98,30.93877551020408,146.26530612244898,81.0,-88.0,255.0,0
1725099581,18.5634017,73.8331917,512.9,23.55,98,30.93877551020408,146.26530612244898,81.0,-88.0,255.0,0
1725099582,18.5634017,73.8331917,512.9,23.59381443298969,97,31.391752577319586,145.7422680412371,82.0,-88.0,256.0,0
1725099583,18.5634017,73.8331917,512.9,23.273469387755103,98,32.11224489795919,149.9387755102041,83.0,-88.0,257.0,0
1725099584,18.5634017,73.8331917,512.9,23.563265306122446,98,32.11224489795919,149.9591836734694,84.0,-88.0,258.0,0
1725099585,18.5634017,73.8331917,512.9,23.835714285714285,98,32.11224489795919,149.9591836734694,83.0,-88.0,258.0,0
1725099586,18.5634017,73.8331917,512.9,23.81530612244898,98,32.11224489795919,149.9591836734694,82.0,-88.0,256.0,0
1725099587,18.5634017,73.8331917,512.9,23.835714285714285,98,32.13265306122449,150.0,81.0,-88.0,255.0,0
1725099588,18.5634017,73.8331917,512.9,23.731632653061222,98,32.13265306122449,149.9591836734694,82.0,-88.0,256.0,0
1725099589,18.5634017,73.8331917,512.9,23.90714285714286,98,31.948979591836736,150.29591836734693,83.0,-88.0,257.0,0
1725099590,18.5634017,73.8331917,512.9,23.953061224489797,98,31.948979591836736,150.29591836734693,83.0,-88.0,258.0,0
1725099591,18.5634017,73.8331917,512.9,23.978571428571428,98,31.724489795918366,150.53061224489795,85.0,-88.0,259.0,0
1725099592,18.5634017,73.8331917,512.9,23.9234693877551,98,31.020408163265305,150.5,84.0,-88.0,258.0,0
1725099593,18.5634017,73.8331917,512.9,23.79591836734694,98,31.3265306122449,151.8673469387755,77.0,-88.0,252.0,0
1725099594,18.5634017,73.8331917,512.9,24.211224489795917,98,31.3265306122449,151.8673469387755,89.0,-88.0,263.0,0
1725099595,18.5634017,73.8331917,512.9,24.248979591836736,98,31.3265306122449,151.8673469387755,84.0,-88.0,259.0,0
1725099596,18.5634017,73.8331917,512.9,24.15714285714286,98,31.3265306122449,151.8673469387755,89.0,-88.0,263.0,0
1725099597,18.5634017,73.8331917,512.9,24.018367346938778,98,31.3265306122449,151.8673469387755,81.0,-88.0,256.0,0
1725099598,18.5634017,73.8331917,512.9,24.216326530612243,98,31.03061224489796,149.3877551020408,78.0,-88.0,253.0,0
1725099599,18.5634017,73.8331917,512.9,23.779591836734696,98,31.03061224489796,149.3877551020408,83.0,-88.0,258.0,0
1725099600,18.5634017,73.8331917,512.9,23.78061224489796,98,30.76530612244898,147.79591836734693,82.0,-88.0,257.0,0
1725099601,18.5634017,73.8331917,512.9,23.881632653061224,98,30.571428571428573,145.12244897959184,80.0,-88.0,255.0,0
1725099602,18.5634017,73.8331917,512.9,23.832653061224487,98,30.571428571428573,145.12244897959184,83.0,-88.0,257.0,0
1725099603,18.5634017,73.8331917,512.9,23.806122448979593,98,30.571428571428573,145.1326530612245,84.0,-88.0,259.0,0
1725099604,18.5634017,73.8331917,512.9,23.63469387755102,98,30.571428571428573,145.1326530612245,84.0,-88.0,258.0,0
1725099605,18.5634017,73.8331917,512.9,23.832653061224487,98,30.571428571428573,145.1326530612245,81.0,-88.0,255.0,0
1725099606,18.5634017,73.8331917,512.9,24.06122448979592,98,30.571428571428573,145.1326530612245,80.0,-88.0,255.0,0
1725099607,18.5634017,73.8331917,512.9,24.13061224489796,98,30.377551020408163,145.1326530612245,84.0,-88.0,259.0,0
1725099608,18.5634017,73.8331917,512.9,24.038775510204083,98,30.377551020408163,145.1326530612245,86.0,-88.0,260.0,0
1725099609,18.5634017,73.8331917,512.9,23.964285714285715,98,30.377551020408163,145.1326530612245,84.0,-88.0,258.0,0
1725099610,18.5634017,73.8331917,512.9,24.180612244897958,98,30.26530612244898,144.1734693877551,84.0,-88.0,258.0,0
1725099611,18.5634017,73.8331917,512.9,24.086734693877553,98,30.26530612244898,144.1734693877551,81.0,-88.0,256.0,0
1725099612,18.5634017,73.8331917,512.9,24.067346938775508,98,30.26530612244898,144.1734693877551,81.0,-88.0,255.0,0
1725099613,18.5634017,73.8331917,512.9,24.13877551020408,98,30.26530612244898,144.1734693877551,82.0,-88.0,257.0,0
1725099614,18.5634017,73.8331917,512.9,23.946938775510205,98,30.26530612244898,144.1734693877551,82.0,-88.0,257.0,0
1725099615,18.5634017,73.8331917,512.9,23.6765306122449,98,30.26530612244898,144.1734693877551,82.0,-88.0,257.0,0
1725099616,18.5634017,73.8331917,512.9,23.896938775510204,98,30.26530612244898,144.1734693877551,82.0,-88.0,256.0,0
1725099617,18.5634017,73.8331917,512.9,24.018367346938778,98,30.26530612244898,144.1734693877551,83.0,-88.0,258.0,0
1725099618,18.5634017,73.8331917,512.9,23.77755102040816,98,30.26530612244898,144.1734693877551,82.0,-88.0,256.0,0
1725099619,18.5634017,73.8331917,512.9,24.314285714285717,98,30.26530612244898,144.1734693877551,81.0,-88.0,256.0,0
1725099620,18.5634017,73.8331917,512.9,24.0765306122449,98,30.26530612244898,144.1734693877551,82.0,-88.0,257.0,0
1725099621,18.5634017,73.8331917,512.9,24.327551020408162,98,30.26530612244898,144.1734693877551,81.0,-88.0,256.0,0
1725099622,18.5634017,73.8331917,512.9,24.346938775510203,98,30.26530612244898,144.1734693877551,82.0,-88.0,257.0,0
1725099623,18.5634017,73.8331917,512.9,24.22244897959184,98,30.26530612244898,144.1734693877551,81.0,-88.0,255.0,0
1725099624,18.5634017,73.8331917,512.9,24.15714285714286,98,30.26530612244898,144.1530612244898,82.0,-88.0,256.0,0
1725099625,18.5634017,73.8331917,512.9,24.3,98,30.285714285714285,144.1530612244898,82.0,-88.0,257.0,0
1725099626,18.5634017,73.8331917,512.9,24.16530612244898,98,30.96938775510204,146.30612244897958,81.0,-88.0,256.0,0
1725099627,18.5634017,73.8331917,512.9,24.113265306122447,98,30.96938775510204,146.30612244897958,82.0,-88.0,257.0,0
1725099628,18.5634017,73.8331917,512.9,24.1234693877551,98,31.571428571428573,148.62244897959184,81.0,-88.0,256.0,0
1725099629,18.5634017,73.8331917,512.9,24.009183673469387,98,31.571428571428573,148.62244897959184,82.0,-88.0,257.0,0
1725099630,18.5634017,73.8331917,512.9,24.063917525773196,97,31.608247422680414,146.77319587628867,82.0,-88.0,256.0,0
1725099631,18.5634017,73.8331917,512.9,24.38556701030928,97,31.608247422680414,146.77319587628867,81.0,-88.0,256.0,0
1725099632,18.5634017,73.8331917,512.9,24.38659793814433,97,31.587628865979383,146.79381443298968,82.0,-88.0,256.0,0
1725099633,18.5634017,73.8331917,512.9,24.483505154639175,97,32.18556701030928,148.1443298969072,81.0,-88.0,256.0,0
1725099634,18.5634017,73.8331917,512.9,24.47835051546392,97,32.18556701030928,148.1443298969072,82.0,-88.0,256.0,0
1725099635,18.5634017,73.8331917,512.9,24.469072164948454,97,32.0,148.48453608247422,81.0,-88.0,255.0,0
1725099636,18.5634017,73.8331917,512.9,24.3659793814433,97,32.0,148.48453608247422,83.0,-88.0,257.0,0
1725099637,18.5634017,73.8331917,512.9,24.38556701030928,97,31.77319587628866,148.72164948453607,82.0,-88.0,257.0,0
1725099638,18.5634017,73.8331917,512.9,24.426804123711342,97,31.783505154639176,148.71134020618555,84.0,-88.0,258.0,0
1725099639,18.5634017,73.8331917,512.9,24.462886597938144,97,31.783505154639176,148.71134020618555,79.0,-88.0,254.0,0
1725099640,18.5634017,73.8331917,512.9,24.264948453608245,97,31.783505154639176,148.71134020618555,80.0,-88.0,254.0,0
1725099641,18.5634017,73.8331917,512.9,24.303092783505157,97,31.783505154639176,148.71134020618555,81.0,-88.0,255.0,0
1725099642,18.5634017,73.8331917,512.9,24.34536082474227,97,31.47422680412371,147.3298969072165,83.0,-88.0,257.0,0
1725099643,18.5634017,73.8331917,512.9,24.148453608247422,97,31.38144329896907,150.04123711340208,83.0,-88.0,257.0,0
1725099644,18.5634017,73.8331917,512.9,24.138144329896907,97,31.38144329896907,150.04123711340208,84.0,-88.0,258.0,0
1725099645,18.5634017,73.8331917,512.9,24.25360824742268,97,31.082474226804123,147.53608247422682,81.0,-88.0,256.0,0
1725099646,18.5634017,73.8331917,512.9,24.282474226804126,97,31.082474226804123,147.53608247422682,82.0,-88.0,256.0,0
1725099647,18.5634017,73.8331917,512.9,24.256701030927836,97,30.814432989690722,145.9278350515464,84.0,-88.0,258.0,0
1725099648,18.5634017,73.8331917,512.9,24.171134020618556,97,30.835051546391753,145.88659793814432,81.0,-88.0,255.0,0
1725099649,18.5634017,73.8331917,512.9,24.390721649484536,97,30.835051546391753,145.8762886597938,82.0,-88.0,256.0,0
1725099650,18.5634017,73.8331917,512.9,24.28041237113402,97,30.824742268041238,145.8762886597938,84.0,-88.0,258.0,0
1725099651,18.5634017,73.8331917,512.9,24.277319587628867,97,30.824742268041238,145.8762886597938,82.0,-88.0,257.0,0
1725099652,18.5634017,73.8331917,512.9,24.156701030927834,97,30.824742268041238,145.8762886597938,81.0,-88.0,256.0,0
1725099653,18.5634017,73.8331917,512.9,24.310309278350516,97,31.288659793814432,145.35051546391753,87.0,-88.0,262.0,0
1725099654,18.5634017,73.8331917,512.9,24.209278350515465,97,31.68041237113402,147.71134020618555,69.0,-88.0,243.0,0
1725099655,18.5634017,73.8331917,512.9,24.24639175257732,97,31.68041237113402,147.71134020618555,88.0,-88.0,262.0,0
1725099656,18.5634017,73.8331917,512.9,24.27525773195876,97,31.701030927835053,147.69072164948454,88.0,-88.0,262.0,0
1725099657,18.5634017,73.8331917,512.9,24.22474226804124,97,32.18556701030928,148.0721649484536,80.0,-88.0,254.0,0
1725099658,18.5634017,73.8331917,512.9,24.40824742268041,97,32.18556701030928,148.0721649484536,78.0,-88.0,252.0,0
1725099659,18.5634017,73.8331917,512.9,24.47422680412371,97,32.18556701030928,148.0721649484536,83.0,-88.0,258.0,0
1725099660,18.5634017,73.8331917,512.9,24.50515463917526,97,32.18556701030928,148.0721649484536,83.0,-88.0,258.0,0
1725099661,18.5634017,73.8331917,512.9,24.459793814432988,97,32.18556701030928,148.0721649484536,82.0,-88.0,256.0,0
1725099662,18.5634017,73.8331917,512.9,24.464948453608248,97,32.0,148.41237113402062,82.0,-88.0,256.0,0
1725099663,18.5634017,73.8331917,512.9,24.35876288659794,97,31.77319587628866,148.64948453608247,84.0,-88.0,258.0,0
1725099664,18.5634017,73.8331917,512.9,24.375257731958765,97,31.77319587628866,148.64948453608247,74.0,-88.0,248.0,0
1725099665,18.5634017,73.8331917,512.9,24.33917525773196,97,31.783505154639176,148.6701030927835,73.0,-88.0,248.0,0
1725099666,18.5634017,73.8331917,512.9,24.285567010309276,97,31.783505154639176,148.6701030927835,92.0,-88.0,267.0,0
1725099667,18.5634017,73.8331917,512.9,24.30103092783505,97,31.38144329896907,150.03092783505156,78.0,-88.0,253.0,0
1725099668,18.5634017,73.8331917,512.9,24.38762886597938,97,31.38144329896907,150.03092783505156,81.0,-88.0,256.0,0
1725099669,18.5634017,73.8331917,512.9,24.45257731958763,97,31.38144329896907,150.03092783505156,82.0,-88.0,257.0,0
1725099670,18.5634017,73.8331917,512.9,24.305154639175257,97,31.38144329896907,150.03092783505156,82.0,-88.0,256.0,0
1725099671,18.5634017,73.8331917,512.9,24.535051546391752,97,31.082474226804123,147.50515463917526,81.0,-88.0,255.0,0
1725099672,18.5634017,73.8331917,512.9,24.58659793814433,97,30.814432989690722,145.88659793814432,80.0,-88.0,255.0,0
1725099673,18.5634017,73.8331917,512.9,24.568041237113402,97,30.814432989690722,145.8659793814433,82.0,-88.0,256.0,0
1725099674,18.5634017,73.8331917,512.9,24.59381443298969,97,30.814432989690722,145.8659793814433,81.0,-88.0,255.0,0
1725099675,18.5634017,73.8331917,512.9,24.471134020618553,97,30.814432989690722,145.8659793814433,82.0,-88.0,256.0,0
1725099676,18.5634017,73.8331917,512.9,24.557731958762886,97,30.61855670103093,143.16494845360825,81.0,-88.0,255.0,0
1725099677,18.5634017,73.8331917,512.9,24.577319587628867,97,30.61855670103093,143.16494845360825,80.0,-88.0,255.0,0
1725099678,18.5634017,73.8331917,512.9,24.617525773195876,97,30.61855670103093,143.16494845360825,81.0,-88.0,255.0,0
1725099679,18.5634017,73.8331917,512.9,24.644791666666666,96,30.666666666666668,142.75,81.0,-88.0,255.0,0
1725099680,18.5634017,73.8331917,512.9,24.719791666666666,96,30.666666666666668,142.79166666666666,80.0,-88.0,254.0,0
1725099681,18.5634017,73.8331917,512.9,24.63854166666667,96,30.354166666666668,141.8125,80.0,-88.0,255.0,0
1725099682,18.5634017,73.8331917,512.9,24.592708333333334,96,30.354166666666668,141.79166666666666,82.0,-88.0,257.0,0
1725099683,18.5634017,73.8331917,512.9,24.68541666666667,96,30.354166666666668,141.79166666666666,82.0,-88.0,256.0,0
1725099684,18.5634017,73.8331917,512.9,24.618750000000002,96,30.354166666666668,141.79166666666666,81.0,-88.0,256.0,0
1725099685,18.5634017,73.8331917,512.9,24.555208333333336,96,30.354166666666668,141.79166666666666,81.0,-88.0,255.0,0
1725099686,18.5634017,73.8331917,512.9,24.598958333333332,96,30.354166666666668,141.79166666666666,82.0,-88.0,256.0,0
1725099687,18.5634017,73.8331917,512.9,24.629166666666666,96,30.354166666666668,141.79166666666666,82.0,-88.0,256.0,0
1725099688,18.5634017,73.8331917,512.9,24.570833333333336,96,31.03125,143.96875,82.0,-88.0,256.0,0
1725099689,18.5634017,73.8331917,512.9,24.57604166666667,96,31.03125,143.96875,83.0,-88.0,257.0,0
1725099690,18.5634017,73.8331917,512.9,24.473958333333332,96,31.03125,143.98958333333334,82.0,-88.0,256.0,0
1725099691,18.5634017,73.8331917,512.9,24.496875,96,31.03125,143.98958333333334,83.0,-88.0,257.0,0
1725099692,18.5634017,73.8331917,512.9,24.516666666666666,96,30.729166666666668,142.5625,84.0,-88.0,258.0,0
1725099693,18.5634017,73.8331917,512.9,24.397916666666664,96,32.260416666666664,147.70833333333334,82.0,-88.0,256.0,0
1725099694,18.5634017,73.8331917,512.9,24.464583333333334,96,32.25,147.70833333333334,82.0,-88.0,256.0,0
1725099695,18.5634017,73.8331917,512.9,24.652083333333334,96,32.25,147.70833333333334,82.0,-88.0,257.0,0
1725099696,18.5634017,73.8331917,512.9,24.719791666666666,96,32.25,147.70833333333334,81.0,-88.0,255.0,0
1725099697,18.5634017,73.8331917,512.9,24.644791666666666,96,32.25,147.70833333333334,83.0,-88.0,257.0,0
1725099698,18.5634017,73.8331917,512.9,24.51875,96,32.0625,148.07291666666666,87.0,-88.0,261.0,0
1725099699,18.5634017,73.8331917,512.9,24.552083333333332,96,32.072916666666664,148.09375,80.0,-88.0,255.0,0
1725099700,18.5634017,73.8331917,512.9,24.616666666666664,96,32.083333333333336,148.11458333333334,80.0,-88.0,254.0,0
1725099701,18.5634017,73.8331917,512.9,24.3625,96,32.083333333333336,148.11458333333334,93.0,-88.0,268.0,0
1725099702,18.5634017,73.8331917,512.9,24.490624999999998,96,31.447916666666668,149.71875,79.0,-88.0,254.0,0
1725099703,18.5634017,73.8331917,512.9,24.426041666666666,96,31.447916666666668,149.71875,81.0,-88.0,255.0,0
1725099704,18.5634017,73.8331917,512.9,24.538541666666664,96,31.447916666666668,149.71875,77.0,-88.0,252.0,0
1725099705,18.5634017,73.8331917,512.9,24.64270833333333,96,31.447916666666668,149.71875,85.0,-88.0,260.0,0
1725099706,18.5634017,73.8331917,512.9,24.621875,96,31.447916666666668,149.71875,87.0,-88.0,261.0,0
1725099707,18.5634017,73.8331917,512.9,24.655208333333334,96,31.447916666666668,149.71875,81.0,-88.0,256.0,0
1725099708,18.5634017,73.8331917,512.9,24.536458333333332,96,31.135416666666668,147.1875,77.0,-88.0,251.0,0
1725099709,18.5634017,73.8331917,512.9,24.45104166666667,96,31.125,147.14583333333334,79.0,-88.0,254.0,0
1725099710,18.5634017,73.8331917,512.9,24.592708333333334,96,31.145833333333332,147.14583333333334,82.0,-88.0,257.0,0
1725099711,18.5634017,73.8331917,512.9,24.62708333333333,96,30.6875,142.79166666666666,85.0,-88.0,259.0,0
1725099712,18.5634017,73.8331917,512.9,24.492708333333336,96,30.6875,142.79166666666666,86.0,-88.0,261.0,0
1725099713,18.5634017,73.8331917,512.9,24.407291666666666,96,30.6875,142.79166666666666,86.0,-88.0,260.0,0
1725099714,18.5634017,73.8331917,512.9,24.337500000000002,96,30.677083333333332,142.77083333333334,81.0,-88.0,256.0,0
1725099715,18.5634017,73.8331917,512.9,24.32164948453608,97,30.649484536082475,144.659793814433,76.0,-88.0,251.0,0
1725099716,18.5634017,73.8331917,512.9,24.24845360824742,97,30.649484536082475,144.659793814433,81.0,-88.0,255.0,0
1725099717,18.5634017,73.8331917,512.9,24.31855670103093,97,30.649484536082475,144.659793814433,84.0,-88.0,259.0,0
1725099718,18.5634017,73.8331917,512.9,24.2680412371134,97,30.45360824742268,144.659793814433,83.0,-88.0,257.0,0
1725099719,18.5634017,73.8331917,512.9,24.363917525773196,97,30.45360824742268,144.659793814433,82.0,-88.0,256.0,0
1725099720,18.5634017,73.8331917,512.9,24.325773195876288,97,30.34020618556701,143.69072164948454,82.0,-88.0,256.0,0
1725099721,18.5634017,73.8331917,512.9,24.314432989690722,97,30.329896907216494,143.68041237113403,82.0,-88.0,257.0,0
1725099722,18.5634017,73.8331917,512.9,24.215463917525774,97,30.329896907216494,143.68041237113403,80.0,-88.0,255.0,0
1725099723,18.5634017,73.8331917,512.9,24.211340206185568,97,30.329896907216494,143.68041237113403,83.0,-88.0,257.0,0
1725099724,18.5634017,73.8331917,512.9,24.270103092783504,97,30.329896907216494,143.68041237113403,81.0,-88.0,255.0,0
1725099725,18.5634017,73.8331917,512.9,24.25154639175258,97,30.329896907216494,143.68041237113403,82.0,-88.0,256.0,0
1725099726,18.5634017,73.8331917,512.9,24.29587628865979,97,30.329896907216494,143.68041237113403,81.0,-88.0,256.0,0
1725099727,18.5634017,73.8331917,512.9,24.218556701030927,97,30.329896907216494,143.68041237113403,82.0,-88.0,256.0,0
1725099728,18.5634017,73.8331917,512.9,24.31958762886598,97,30.329896907216494,143.6701030927835,81.0,-88.0,256.0,0
1725099729,18.5634017,73.8331917,512.9,24.356701030927834,97,30.329896907216494,143.69072164948454,83.0,-88.0,258.0,0
1725099730,18.5634017,73.8331917,512.9,24.27938144329897,97,30.329896907216494,143.69072164948454,83.0,-88.0,257.0,0
1725099731,18.5634017,73.8331917,512.9,24.20412371134021,97,30.329896907216494,143.69072164948454,84.0,-88.0,258.0,0
1725099732,18.5634017,73.8331917,512.9,24.222680412371133,97,30.31958762886598,143.68041237113403,81.0,-88.0,255.0,0
1725099733,18.5634017,73.8331917,512.9,24.158163265306122,98,30.020408163265305,143.94897959183675,81.0,-88.0,256.0,0
1725099734,18.5634017,73.8331917,512.9,24.08877551020408,98,30.010204081632654,143.96938775510205,83.0,-88.0,258.0,0
1725099735,18.5634017,73.8331917,512.9,23.883673469387755,98,30.020408163265305,143.9795918367347,71.0,-88.0,246.0,0
1725099736,18.5634017,73.8331917,512.9,23.95,98,30.051020408163264,143.9591836734694,75.0,-88.0,249.0,0
1725099737,18.5634017,73.8331917,512.9,24.035714285714285,98,30.724489795918366,146.10204081632654,89.0,-88.0,263.0,0
1725099738,18.5634017,73.8331917,512.9,23.994897959183675,98,31.357142857142858,148.39795918367346,85.0,-88.0,259.0,0
1725099739,18.5634017,73.8331917,512.9,24.153061224489797,98,31.357142857142858,148.40816326530611,78.0,-88.0,253.0,0
1725099740,18.5634017,73.8331917,512.9,24.055102040816326,98,31.357142857142858,148.40816326530611,80.0,-88.0,254.0,0
1725099741,18.5634017,73.8331917,512.9,24.163265306122447,98,31.357142857142858,148.40816326530611,81.0,-88.0,255.0,0
1725099742,18.5634017,73.8331917,512.9,24.217346938775513,98,31.03061224489796,147.0408163265306,82.0,-88.0,257.0,0
1725099743,18.5634017,73.8331917,512.9,24.013265306122452,98,31.928571428571427,149.76530612244898,83.0,-88.0,257.0,0
1725099744,18.5634017,73.8331917,512.9,24.068367346938775,98,31.928571428571427,149.76530612244898,81.0,-88.0,256.0,0
1725099745,18.5634017,73.8331917,512.9,24.079591836734696,98,31.948979591836736,149.76530612244898,81.0,-88.0,255.0,0
1725099746,18.5634017,73.8331917,512.9,24.064285714285717,98,31.785714285714285,150.10204081632654,80.0,-88.0,254.0,0
1725099747,18.5634017,73.8331917,512.9,23.982653061224493,98,31.76530612244898,150.08163265306123,81.0,-88.0,256.0,0
1725099748,18.5634017,73.8331917,512.9,23.971428571428568,98,31.540816326530614,150.31632653061226,80.0,-88.0,254.0,0
1725099749,18.5634017,73.8331917,512.9,23.964285714285715,98,31.540816326530614,150.31632653061226,74.0,-88.0,248.0,0
1725099750,18.5634017,73.8331917,512.9,23.958163265306123,98,31.540816326530614,150.31632653061226,82.0,-88.0,257.0,0
1725099751,18.5634017,73.8331917,512.9,23.908163265306122,98,31.540816326530614,150.31632653061226,92.0,-88.0,267.0,0
1725099752,18.5634017,73.8331917,512.9,23.74591836734694,98,31.551020408163264,150.31632653061226,93.0,-88.0,268.0,0
1725099753,18.5634017,73.8331917,512.9,23.779591836734696,98,31.153061224489797,151.6530612244898,84.0,-88.0,259.0,0
1725099754,18.5634017,73.8331917,512.9,23.929591836734694,98,31.1734693877551,151.6530612244898,77.0,-88.0,251.0,0
1725099755,18.5634017,73.8331917,512.9,23.931632653061225,98,30.867346938775512,149.1734693877551,78.0,-88.0,252.0,0
1725099756,18.5634017,73.8331917,512.9,23.937755102040818,98,30.867346938775512,149.1734693877551,94.0,-88.0,269.0,0
1725099757,18.5634017,73.8331917,512.9,23.760204081632654,98,30.602040816326532,147.58163265306123,107.0,-88.0,281.0,0
1725099758,18.5634017,73.8331917,512.9,24.1765306122449,98,30.602040816326532,147.58163265306123,66.0,-88.0,241.0,0
1725099759,18.5634017,73.8331917,512.9,24.147959183673468,98,30.602040816326532,147.58163265306123,80.0,-88.0,254.0,0
1725099760,18.5634017,73.8331917,512.9,24.187755102040818,98,30.602040816326532,147.58163265306123,95.0,-88.0,270.0,0
1725099761,18.5634017,73.8331917,512.9,24.289795918367346,98,30.612244897959183,147.58163265306123,86.0,-88.0,261.0,0
1725099762,18.5634017,73.8331917,512.9,24.19081632653061,98,30.612244897959183,147.58163265306123,63.0,-88.0,237.0,0
1725099763,18.5634017,73.8331917,512.9,24.218367346938777,98,31.091836734693878,147.09183673469389,96.0,-88.0,270.0,0
1725099764,18.5634017,73.8331917,512.9,24.142857142857142,98,31.071428571428573,147.07142857142858,91.0,-88.0,265.0,0
1725099765,18.5634017,73.8331917,512.9,24.063265306122446,98,31.479591836734695,149.3877551020408,69.0,-88.0,243.0,0
1725099766,18.5634017,73.8331917,512.9,24.044897959183675,98,31.479591836734695,149.3877551020408,74.0,-88.0,248.0,0
1725099767,18.5634017,73.8331917,512.9,24.05,98,31.959183673469386,149.76530612244898,82.0,-88.0,257.0,0
1725099768,18.5634017,73.8331917,512.9,23.912244897959184,98,31.959183673469386,149.76530612244898,81.0,-88.0,255.0,0
1725099769,18.5634017,73.8331917,512.9,23.892857142857142,98,31.959183673469386,149.76530612244898,80.0,-88.0,255.0,0
1725099770,18.5634017,73.8331917,512.9,23.794897959183675,98,31.959183673469386,149.76530612244898,79.0,-88.0,253.0,0
1725099771,18.5634017,73.8331917,512.9,23.787755102040816,98,31.959183673469386,149.76530612244898,81.0,-88.0,255.0,0
1725099772,18.5634017,73.8331917,512.9,23.942857142857143,98,31.959183673469386,149.76530612244898,81.0,-88.0,255.0,0
1725099773,18.5634017,73.8331917,512.9,23.807142857142857,98,31.775510204081634,150.10204081632654,82.0,-88.0,257.0,0
1725099774,18.5634017,73.8331917,512.9,24.0765306122449,98,31.551020408163264,150.33673469387756,81.0,-88.0,255.0,0
1725099775,18.5634017,73.8331917,512.9,24.1234693877551,98,31.551020408163264,150.33673469387756,80.0,-88.0,254.0,0
1725099776,18.5634017,73.8331917,512.9,24.105102040816327,98,31.153061224489797,151.6734693877551,82.0,-88.0,256.0,0
1725099777,18.5634017,73.8331917,512.9,24.122448979591837,98,31.153061224489797,151.6734693877551,81.0,-88.0,255.0,0
1725099778,18.5634017,73.8331917,512.9,23.92020202020202,99,30.848484848484848,152.07070707070707,81.0,-88.0,255.0,0
1725099779,18.5634017,73.8331917,512.9,23.751515151515154,99,30.858585858585858,152.07070707070707,81.0,-88.0,256.0,0
1725099780,18.5634017,73.8331917,512.9,23.697979797979798,99,30.858585858585858,152.08080808080808,82.0,-88.0,256.0,0
1725099781,18.5634017,73.8331917,512.9,24.064646464646465,99,30.858585858585858,152.08080808080808,81.0,-88.0,256.0,0
1725099782,18.5634017,73.8331917,512.9,23.906060606060603,99,30.565656565656564,149.63636363636363,80.0,-88.0,255.0,0
1725099783,18.5634017,73.8331917,512.9,24.044444444444444,99,30.303030303030305,148.06060606060606,79.0,-88.0,254.0,0
1725099784,18.5634017,73.8331917,512.9,24.145454545454545,99,30.303030303030305,148.06060606060606,82.0,-88.0,257.0,0
1725099785,18.5634017,73.8331917,512.9,24.195959595959597,99,30.11111111111111,145.41414141414143,82.0,-88.0,257.0,0
1725099786,18.5634017,73.8331917,512.9,24.02020202020202,99,30.11111111111111,145.42424242424244,82.0,-88.0,257.0,0
1725099787,18.5634017,73.8331917,512.9,23.755555555555556,99,30.11111111111111,145.42424242424244,82.0,-88.0,256.0,0
1725099788,18.5634017,73.8331917,512.9,23.720202020202024,99,30.11111111111111,145.42424242424244,83.0,-88.0,257.0,0
1725099789,18.5634017,73.8331917,512.9,23.772727272727273,99,30.11111111111111,145.42424242424244,81.0,-88.0,255.0,0
1725099790,18.5634017,73.8331917,512.9,24.034343434343434,99,30.11111111111111,145.42424242424244,80.0,-88.0,255.0,0
1725099791,18.5634017,73.8331917,512.9,23.93131313131313,99,29.91919191919192,145.42424242424244,84.0,-88.0,258.0,0
1725099792,18.5634017,73.8331917,512.9,23.95151515151515,99,29.91919191919192,145.42424242424244,83.0,-88.0,257.0,0
1725099793,18.5634017,73.8331917,512.9,23.873737373737374,99,29.80808080808081,144.4747474747475,84.0,-88.0,258.0,0
1725099794,18.5634017,73.8331917,512.9,24.154545454545456,99,29.80808080808081,144.4747474747475,84.0,-88.0,258.0,0
1725099795,18.5634017,73.8331917,512.9,23.88888888888889,99,29.80808080808081,144.4747474747475,83.0,-88.0,257.0,0
1725099796,18.5634017,73.8331917,512.9,23.892929292929296,99,29.80808080808081,144.4747474747475,81.0,-88.0,256.0,0
1725099797,18.5634017,73.8331917,512.9,23.841414141414145,99,29.80808080808081,144.4747474747475,81.0,-88.0,255.0,0
1725099798,18.5634017,73.8331917,512.9,24.0020202020202,99,29.80808080808081,144.4747474747475,82.0,-88.0,256.0,0
1725099799,18.5634017,73.8331917,512.9,23.91919191919192,99,29.80808080808081,144.4747474747475,81.0,-88.0,255.0,0
1725099800,18.5634017,73.8331917,512.9,23.893939393939394,99,30.464646464646464,146.58585858585857,81.0,-88.0,256.0,0
1725099801,18.5634017,73.8331917,512.9,24.03939393939394,99,30.484848484848484,146.58585858585857,81.0,-88.0,256.0,0
1725099802,18.5634017,73.8331917,512.9,24.0010101010101,99,30.484848484848484,146.59595959595958,82.0,-88.0,256.0,0
1725099803,18.5634017,73.8331917,512.9,24.006060606060604,99,30.484848484848484,146.59595959595958,81.0,-88.0,255.0,0
1725099804,18.5634017,73.8331917,512.9,23.854545454545455,99,31.666666666666668,150.21212121212122,81.0,-88.0,256.0,0
1725099805,18.5634017,73.8331917,512.9,23.794949494949492,99,31.666666666666668,150.21212121212122,81.0,-88.0,255.0,0
1725099806,18.5634017,73.8331917,512.9,23.783838383838383,99,31.666666666666668,150.21212121212122,82.0,-88.0,256.0,0
1725099807,18.5634017,73.8331917,512.9,23.795959595959598,99,31.666666666666668,150.21212121212122,83.0,-88.0,257.0,0
1725099808,18.5634017,73.8331917,512.9,23.700000000000003,99,31.646464646464647,150.23232323232324,82.0,-88.0,256.0,0
1725099809,18.5634017,73.8331917,512.9,24.023232323232325,99,31.464646464646464,150.56565656565655,81.0,-88.0,255.0,0
1725099810,18.5634017,73.8331917,512.9,24.033333333333335,99,31.464646464646464,150.56565656565655,81.0,-88.0,256.0,0
1725099811,18.5634017,73.8331917,512.9,24.036363636363635,99,31.464646464646464,150.56565656565655,81.0,-88.0,255.0,0
1725099812,18.5634017,73.8331917,512.9,23.96868686868687,99,31.464646464646464,150.56565656565655,82.0,-88.0,256.0,0
1725099813,18.5634017,73.8331917,512.9,24.02121212121212,99,30.848484848484848,152.12121212121212,82.0,-88.0,257.0,0
1725099814,18.5634017,73.8331917,512.9,24.125252525252527,99,30.858585858585858,152.11111111111111,82.0,-88.0,256.0,0
1725099815,18.5634017,73.8331917,512.9,24.085858585858585,99,30.858585858585858,152.11111111111111,81.0,-88.0,255.0,0
1725099816,18.5634017,73.8331917,512.9,24.027272727272724,99,30.858585858585858,152.11111111111111,83.0,-88.0,257.0,0
1725099817,18.5634017,73.8331917,512.9,24.1,99,30.858585858585858,152.11111111111111,82.0,-88.0,256.0,0
1725099818,18.5634017,73.8331917,512.9,23.95151515151515,99,30.565656565656564,149.65656565656565,81.0,-88.0,256.0,0
1725099819,18.5634017,73.8331917,512.9,23.946464646464644,99,30.555555555555557,149.64646464646464,82.0,-88.0,257.0,0
1725099820,18.5634017,73.8331917,512.9,24.03131313131313,99,30.555555555555557,149.64646464646464,82.0,-88.0,256.0,0
1725099821,18.5634017,73.8331917,512.9,24.07272727272727,99,30.555555555555557,149.64646464646464,82.0,-88.0,256.0,0
1725099822,18.5634017,73.8331917,512.9,23.874747474747473,99,30.1010101010101,145.42424242424244,81.0,-88.0,256.0,0
