timestamp,latitude,longitude,altitude,mean_snr,sat_count,mean_elevation,roll,pitch,yaw,is_inclined
1724499311,18.5633198,73.8333636,529.1,,0,,0.0,-80.0,161.0,0
1724499310,18.5633367,73.8333951,529.1,,0,,,,,0
1724499312,18.5633127,73.8333489,529.1999999999999,22.701190476190476,84,33.833333333333336,0.0,-80.0,162.0,0
1724499313,18.5633057,73.8333402,529.1999999999999,23.138372093023257,86,33.627906976744185,0.0,-80.0,161.0,0
1724499314,18.5633039,73.8333378,529.1999999999999,22.641176470588235,85,33.8235294117647,0.0,-80.0,162.0,0
1724499315,18.5632927,73.8333261,529.1999999999999,22.738823529411764,85,32.98823529411764,0.0,-80.0,162.0,0
1724499316,18.5632896,73.8333229,529.1999999999999,22.90823529411765,85,32.976470588235294,0.0,-80.0,161.0,0
1724499317,18.5632886,73.8333221,529.1999999999999,22.841176470588234,85,32.51764705882353,0.0,-81.0,161.0,0
1724499318,18.5632741,73.8333098,529.1,22.69651162790698,86,32.25581395348837,0.0,-80.0,161.0,0
1724499319,18.5632677,73.8333037,529.1,22.94942528735632,87,31.885057471264368,-1.0,-80.0,161.0,0
1724499320,18.563262,73.8332984,529.1,22.84431818181818,88,32.01136363636363,0.0,-80.0,161.0,0
1724499321,18.5632604,73.833297,529.1,22.57111111111111,90,31.3,0.0,-80.0,161.0,0
1724499322,18.5632603,73.8332968,529.1,22.805555555555557,90,31.3,0.0,-80.0,161.0,0
1724499323,18.5632602,73.8332965,529.1,22.982417582417582,91,30.956043956043956,0.0,-80.0,161.0,0
1724499324,18.5632601,73.8332965,529.1,23.33956043956044,91,30.934065934065934,0.0,-80.0,161.0,0
1724499325,18.56326,73.8332966,529.1,23.331521739130434,92,31.119565217391305,0.0,-80.0,162.0,0
1724499326,18.56326,73.8332967,529.1,23.479347826086954,92,32.25,0.0,-80.0,162.0,0
1724499327,18.5632528,73.833287,528.8,23.592473118279568,93,31.903225806451612,0.0,-80.0,162.0,0
1724499328,18.5632508,73.8332832,528.8,23.31827956989247,93,31.903225806451612,0.0,-80.0,162.0,0
1724499329,18.5632502,73.8332833,528.9,23.38494623655914,93,31.903225806451612,0.0,-80.0,162.0,0
1724499330,18.5632501,73.8332833,528.9,23.701075268817203,93,31.903225806451612,0.0,-80.0,162.0,0
1724499331,18.56325,73.8332833,528.9,23.513978494623657,93,31.903225806451612,0.0,-80.0,162.0,0
1724499332,18.56325,73.8332833,528.9,23.525806451612905,93,31.903225806451612,0.0,-80.0,162.0,0
1724499333,18.56325,73.8332833,528.9,23.703225806451613,93,31.903225806451612,0.0,-80.0,162.0,0
1724499334,18.56325,73.8332833,528.9,23.686021505376345,93,31.70967741935484,0.0,-80.0,162.0,0
1724499335,18.56325,73.8332833,528.9,23.538709677419355,93,31.010752688172044,0.0,-80.0,162.0,0
1724499336,18.56325,73.8332833,528.9,23.510752688172044,93,31.010752688172044,0.0,-80.0,162.0,0
1724499337,18.56325,73.8332833,528.9,23.386021505376345,93,31.010752688172044,0.0,-80.0,162.0,0
1724499338,18.56325,73.8332833,528.9,23.363829787234042,94,30.72340425531915,0.0,-80.0,162.0,0
1724499339,18.56325,73.8332833,528.9,22.11123595505618,89,32.449438202247194,0.0,-80.0,162.0,0
1724499340,18.56325,73.8332833,528.9,22.054444444444446,90,32.08888888888889,0.0,-80.0,162.0,0
1724499341,18.56325,73.8332833,528.9,22.032222222222224,90,32.08888888888889,0.0,-80.0,162.0,0
1724499342,18.56325,73.8332833,528.9,22.01222222222222,90,32.08888888888889,0.0,-80.0,162.0,0
1724499343,18.56325,73.8332833,528.9,22.10333333333333,90,31.77777777777778,0.0,-80.0,162.0,0
1724499344,18.56325,73.8332833,528.9,22.145555555555557,90,31.344444444444445,0.0,-80.0,162.0,0
1724499345,18.56325,73.8332833,528.9,22.07888888888889,90,31.344444444444445,0.0,-80.0,162.0,0
1724499346,18.56325,73.8332833,528.9,22.191111111111113,90,31.322222222222223,0.0,-80.0,162.0,0
1724499347,18.56325,73.8332833,528.9,22.316483516483515,91,31.164835164835164,0.0,-80.0,162.0,0
1724499348,18.56325,73.8332833,528.9,22.024175824175824,91,30.63736263736264,0.0,-80.0,162.0,0
1724499349,18.56325,73.8332833,528.9,22.410869565217393,92,30.82608695652174,0.0,-80.0,162.0,0
1724499350,18.56325,73.8332833,528.9,22.019354838709678,93,30.49462365591398,1.0,-80.0,164.0,0
1724499351,18.56325,73.8332833,528.9,22.26595744680851,94,30.54255319148936,0.0,-80.0,162.0,0
1724499352,18.56325,73.8332833,528.9,22.373404255319148,94,30.329787234042552,0.0,-80.0,162.0,0
1724499353,18.56325,73.8332833,528.9,22.53191489361702,94,30.117021276595743,0.0,-80.0,162.0,0
1724499354,18.56325,73.8332833,528.9,22.661290322580644,93,30.774193548387096,0.0,-80.0,162.0,0
1724499355,18.56325,73.8332833,528.9,23.14835164835165,91,30.67032967032967,0.0,-80.0,162.0,0
1724499356,18.56325,73.8332833,528.9,23.320430107526885,93,30.870967741935484,0.0,-80.0,162.0,0
1724499357,18.56325,73.8332833,528.9,23.16989247311828,93,30.870967741935484,0.0,-80.0,162.0,0
1724499358,18.56325,73.8332833,528.9,23.21505376344086,93,30.881720430107528,0.0,-80.0,162.0,0
1724499359,18.56325,73.8332833,528.9,23.13548387096774,93,30.881720430107528,0.0,-80.0,162.0,0
1724499360,18.56325,73.8332833,528.9,23.637634408602153,93,31.591397849462364,0.0,-80.0,162.0,0
1724499361,18.56325,73.8332833,528.9,23.703225806451613,93,31.591397849462364,0.0,-80.0,162.0,0
1724499362,18.56325,73.8332833,528.9,23.66021505376344,93,31.591397849462364,0.0,-80.0,162.0,0
1724499363,18.56325,73.8332833,528.9,23.740860215053765,93,31.591397849462364,0.0,-80.0,162.0,0
1724499364,18.56325,73.8332833,528.9,24.029032258064515,93,32.29032258064516,0.0,-80.0,162.0,0
1724499365,18.56325,73.8332833,528.9,23.98494623655914,93,32.29032258064516,0.0,-80.0,162.0,0
1724499366,18.56325,73.8332833,528.9,24.210638297872343,94,32.57446808510638,0.0,-80.0,162.0,0
1724499367,18.56325,73.8332833,528.9,23.98936170212766,94,32.57446808510638,0.0,-80.0,162.0,0
1724499368,18.56325,73.8332833,528.9,24.220212765957445,94,32.57446808510638,0.0,-80.0,162.0,0
1724499369,18.56325,73.8332833,528.9,24.21914893617021,94,32.38297872340426,0.0,-80.0,162.0,0
1724499370,18.56325,73.8332833,528.9,24.201063829787234,94,32.38297872340426,0.0,-80.0,162.0,0
1724499371,18.56325,73.8332833,528.9,24.222105263157893,95,32.04210526315789,0.0,-80.0,162.0,0
1724499372,18.56325,73.8332833,528.9,24.025263157894738,95,32.04210526315789,0.0,-80.0,162.0,0
1724499373,18.56325,73.8332833,528.9,24.10421052631579,95,31.757894736842104,0.0,-80.0,162.0,0
1724499374,18.56325,73.8332833,528.9,23.99157894736842,95,31.768421052631577,0.0,-80.0,162.0,0
1724499375,18.56325,73.8332833,528.9,24.351578947368424,95,31.378947368421052,0.0,-80.0,162.0,0
1724499376,18.56325,73.8332833,528.9,24.267368421052634,95,31.378947368421052,0.0,-80.0,162.0,0
1724499377,18.56325,73.8332833,528.9,24.12,95,31.378947368421052,0.0,-80.0,162.0,0
1724499378,18.56325,73.8332833,528.9,24.382105263157897,95,31.08421052631579,0.0,-80.0,162.0,0
1724499379,18.56325,73.8332833,528.9,24.40421052631579,95,31.08421052631579,0.0,-80.0,162.0,0
1724499380,18.56325,73.8332833,528.9,24.289473684210527,95,31.08421052631579,0.0,-80.0,162.0,0
1724499381,18.56325,73.8332833,528.9,24.35578947368421,95,31.08421052631579,0.0,-80.0,162.0,0
1724499382,18.56325,73.8332833,528.9,24.783157894736842,95,29.905263157894737,0.0,-80.0,162.0,0
1724499383,18.56325,73.8332833,528.9,24.634736842105266,95,30.8,0.0,-80.0,162.0,0
1724499384,18.56325,73.8332833,528.9,24.710526315789473,95,30.673684210526314,0.0,-80.0,162.0,0
1724499385,18.56325,73.8332833,528.9,24.709473684210526,95,30.68421052631579,0.0,-80.0,162.0,0
1724499386,18.56325,73.8332833,528.9,24.710526315789473,95,30.68421052631579,0.0,-80.0,162.0,0
1724499387,18.56325,73.8332833,528.9,24.78421052631579,95,30.473684210526315,0.0,-80.0,162.0,0
1724499388,18.56325,73.8332833,528.9,24.740000000000002,95,30.46315789473684,0.0,-80.0,162.0,0
1724499389,18.56325,73.8332833,528.9,24.982105263157898,95,30.46315789473684,0.0,-80.0,162.0,0
1724499390,18.56325,73.8332833,528.9,24.756842105263157,95,30.46315789473684,0.0,-80.0,162.0,0
1724499391,18.56325,73.8332833,528.9,24.81368421052632,95,30.347368421052632,0.0,-80.0,162.0,0
1724499392,18.56325,73.8332833,528.9,24.794736842105262,95,29.442105263157895,0.0,-80.0,162.0,0
1724499393,18.56325,73.8332833,528.9,25.013684210526318,95,30.25263157894737,0.0,-80.0,162.0,0
1724499394,18.56325,73.8332833,528.9,25.027368421052632,95,30.25263157894737,0.0,-80.0,162.0,0
1724499395,18.56325,73.8332833,528.9,25.03157894736842,95,30.25263157894737,0.0,-80.0,162.0,0
1724499396,18.56325,73.8332833,528.9,25.06,95,30.25263157894737,0.0,-80.0,162.0,0
1724499397,18.56325,73.8332833,528.9,25.366315789473685,95,30.25263157894737,0.0,-80.0,162.0,0
1724499398,18.56325,73.8332833,528.9,25.47052631578947,95,30.25263157894737,0.0,-80.0,162.0,0
1724499399,18.56325,73.8332833,528.9,25.33684210526316,95,30.25263157894737,0.0,-80.0,162.0,0
1724499400,18.56325,73.8332833,528.9,25.457894736842107,95,30.25263157894737,0.0,-80.0,162.0,0
1724499401,18.56325,73.8332833,528.9,25.498947368421053,95,30.25263157894737,0.0,-80.0,162.0,0
1724499402,18.56325,73.8332833,528.9,25.50421052631579,95,31.263157894736842,0.0,-80.0,162.0,0
1724499403,18.56325,73.8332833,528.9,25.609473684210528,95,31.263157894736842,0.0,-80.0,162.0,0
1724499404,18.56325,73.8332833,528.9,25.59263157894737,95,31.263157894736842,0.0,-80.0,162.0,0
1724499405,18.56325,73.8332833,528.9,25.28421052631579,95,31.263157894736842,0.0,-80.0,162.0,0
1724499406,18.56325,73.8332833,528.9,25.246315789473684,95,31.263157894736842,0.0,-80.0,162.0,0
1724499407,18.56325,73.8332833,528.9,25.358947368421052,95,31.263157894736842,0.0,-80.0,162.0,0
1724499408,18.56325,73.8332833,528.9,24.774736842105263,95,31.263157894736842,0.0,-80.0,163.0,0
1724499409,18.56325,73.8332833,528.9,24.87473684210526,95,31.94736842105263,0.0,-80.0,162.0,0
1724499410,18.56325,73.8332833,528.9,25.352631578947367,95,31.94736842105263,0.0,-80.0,162.0,0
1724499411,18.56325,73.8332833,528.9,25.329473684210527,95,33.242105263157896,0.0,-80.0,162.0,0
1724499412,18.56325,73.8332833,528.9,25.501052631578947,95,33.23157894736842,0.0,-80.0,162.0,0
1724499413,18.56325,73.8332833,528.9,25.45894736842105,95,33.23157894736842,0.0,-80.0,162.0,0
1724499414,18.56325,73.8332833,528.9,25.381052631578946,95,33.23157894736842,0.0,-80.0,162.0,0
1724499415,18.56325,73.8332833,528.9,25.405263157894737,95,33.23157894736842,0.0,-80.0,162.0,0
1724499416,18.56325,73.8332833,528.9,25.32,95,33.23157894736842,0.0,-80.0,162.0,0
1724499417,18.56325,73.8332833,528.9,25.443157894736842,95,33.23157894736842,0.0,-80.0,162.0,0
1724499418,18.56325,73.8332833,528.9,25.42736842105263,95,33.21052631578947,0.0,-80.0,162.0,0
1724499419,18.56325,73.8332833,528.9,25.383157894736843,95,33.04210526315789,0.0,-80.0,162.0,0
1724499420,18.56325,73.8332833,528.9,25.76105263157895,95,32.33684210526316,0.0,-80.0,162.0,0
1724499421,18.56325,73.8332833,528.9,25.629473684210527,95,32.33684210526316,0.0,-80.0,162.0,0
1724499422,18.56325,73.8332833,528.9,25.642105263157895,95,32.33684210526316,0.0,-80.0,162.0,0
1724499423,18.56325,73.8332833,528.9,25.696842105263155,95,32.33684210526316,0.0,-80.0,162.0,0
1724499424,18.56325,73.8332833,528.9,25.77684210526316,95,32.33684210526316,0.0,-80.0,162.0,0
1724499425,18.56325,73.8332833,528.9,25.685106382978724,94,32.638297872340424,0.0,-80.0,162.0,0
1724499426,18.56325,73.8332833,528.9,25.746808510638296,94,32.638297872340424,0.0,-80.0,162.0,0
1724499427,18.56325,73.8332833,528.9,25.53157894736842,95,32.357894736842105,0.0,-80.0,162.0,0
1724499428,18.56325,73.8332833,528.9,25.59052631578947,95,32.357894736842105,0.0,-80.0,162.0,0
1724499429,18.56325,73.8332833,528.9,25.566315789473688,95,31.652631578947368,0.0,-80.0,162.0,0
1724499430,18.56325,73.8332833,528.9,25.292631578947372,95,31.652631578947368,0.0,-80.0,162.0,0
1724499431,18.56325,73.8332833,528.9,25.32315789473684,95,31.652631578947368,0.0,-80.0,162.0,0
1724499432,18.56325,73.8332833,528.9,25.41578947368421,95,31.652631578947368,0.0,-80.0,162.0,0
1724499433,18.56325,73.8332833,528.9,25.457894736842107,95,31.652631578947368,0.0,-80.0,162.0,0
1724499434,18.56325,73.8332833,528.9,25.37263157894737,95,31.652631578947368,0.0,-80.0,162.0,0
1724499435,18.56325,73.8332833,528.9,25.364210526315787,95,31.652631578947368,0.0,-80.0,162.0,0
1724499436,18.56325,73.8332833,528.9,25.36,95,31.652631578947368,0.0,-80.0,162.0,0
1724499437,18.56325,73.8332833,528.9,25.347368421052632,95,31.652631578947368,0.0,-80.0,162.0,0
1724499438,18.56325,73.8332833,528.9,25.30736842105263,95,33.23157894736842,0.0,-80.0,162.0,0
1724499439,18.56325,73.8332833,528.9,25.29578947368421,95,33.23157894736842,0.0,-80.0,162.0,0
1724499440,18.56325,73.8332833,528.9,25.34526315789474,95,33.23157894736842,0.0,-80.0,162.0,0
1724499441,18.56325,73.8332833,528.9,25.32736842105263,95,33.23157894736842,0.0,-80.0,162.0,0
1724499442,18.56325,73.8332833,528.9,25.317894736842103,95,33.23157894736842,0.0,-80.0,162.0,0
1724499443,18.56325,73.8332833,528.9,25.298947368421054,95,33.23157894736842,0.0,-80.0,162.0,0
1724499444,18.56325,73.8332833,528.9,25.39468085106383,94,33.51063829787234,0.0,-80.0,162.0,0
1724499445,18.56325,73.8332833,528.9,25.375789473684208,95,33.23157894736842,0.0,-80.0,162.0,0
1724499446,18.56325,73.8332833,528.9,25.370526315789473,95,33.23157894736842,0.0,-80.0,162.0,0
1724499447,18.56325,73.8332833,528.9,25.378947368421052,95,33.23157894736842,0.0,-80.0,162.0,0
1724499448,18.56325,73.8332833,528.9,25.385263157894737,95,32.357894736842105,0.0,-80.0,162.0,0
1724499449,18.56325,73.8332833,528.9,25.518947368421056,95,32.357894736842105,0.0,-80.0,162.0,0
1724499450,18.56325,73.8332833,528.9,25.436842105263157,95,32.357894736842105,0.0,-80.0,162.0,0
1724499451,18.56325,73.8332833,528.9,25.43263157894737,95,32.357894736842105,0.0,-80.0,162.0,0
1724499452,18.56325,73.8332833,528.9,25.39263157894737,95,32.357894736842105,0.0,-80.0,162.0,0
1724499453,18.56325,73.8332833,528.9,25.282105263157895,95,32.357894736842105,0.0,-80.0,162.0,0
1724499454,18.56325,73.8332833,528.9,25.959574468085105,94,32.51063829787234,0.0,-80.0,162.0,0
1724499455,18.56325,73.8332833,528.9,25.44421052631579,95,32.357894736842105,0.0,-80.0,162.0,0
1724499456,18.56325,73.8332833,528.9,25.742105263157896,95,32.357894736842105,0.0,-80.0,162.0,0
1724499457,18.56325,73.8332833,528.9,25.73894736842105,95,32.357894736842105,0.0,-80.0,162.0,0
1724499458,18.56325,73.8332833,528.9,25.70421052631579,95,31.652631578947368,0.0,-80.0,162.0,0
1724499459,18.56325,73.8332833,528.9,25.59052631578947,95,31.652631578947368,0.0,-80.0,162.0,0
1724499460,18.56325,73.8332833,528.9,25.54255319148936,94,31.47872340425532,0.0,-80.0,162.0,0
1724499461,18.56325,73.8332833,528.9,25.467368421052633,95,31.652631578947368,0.0,-80.0,162.0,0
1724499462,18.56325,73.8332833,528.9,25.389473684210525,95,31.652631578947368,0.0,-80.0,162.0,0
1724499463,18.56325,73.8332833,528.9,25.167368421052632,95,31.652631578947368,0.0,-80.0,162.0,0
1724499464,18.56325,73.8332833,528.9,25.21578947368421,95,31.652631578947368,0.0,-80.0,162.0,0
1724499465,18.56325,73.8332833,528.9,25.465263157894736,95,31.652631578947368,0.0,-80.0,162.0,0
1724499466,18.56325,73.8332833,528.9,25.371578947368423,95,31.652631578947368,0.0,-80.0,162.0,0
1724499467,18.56325,73.8332833,528.9,25.342105263157894,95,31.231578947368423,0.0,-80.0,162.0,0
1724499468,18.56325,73.8332833,528.9,25.36315789473684,95,31.231578947368423,0.0,-80.0,162.0,0
1724499469,18.56325,73.8332833,528.9,25.45157894736842,95,31.231578947368423,0.0,-80.0,162.0,0
1724499470,18.56325,73.8332833,528.9,25.29578947368421,95,31.231578947368423,0.0,-80.0,162.0,0
1724499471,18.56325,73.8332833,528.9,25.32,95,31.231578947368423,0.0,-80.0,162.0,0
1724499472,18.56325,73.8332833,528.9,25.263157894736842,95,31.231578947368423,0.0,-80.0,162.0,0
1724499473,18.56325,73.8332833,528.9,25.371578947368423,95,31.91578947368421,0.0,-80.0,162.0,0
1724499474,18.56325,73.8332833,528.9,25.351578947368424,95,31.936842105263157,0.0,-80.0,162.0,0
1724499475,18.56325,73.8332833,528.9,25.402105263157893,95,31.94736842105263,0.0,-80.0,162.0,0
1724499476,18.56325,73.8332833,528.9,25.42105263157895,95,31.94736842105263,0.0,-80.0,162.0,0
1724499477,18.56325,73.8332833,528.9,25.13684210526316,95,31.94736842105263,0.0,-80.0,162.0,0
1724499478,18.56325,73.8332833,528.9,25.18631578947368,95,31.957894736842107,0.0,-80.0,162.0,0
1724499479,18.56325,73.8332833,528.9,25.247872340425534,94,33.09574468085106,0.0,-80.0,162.0,0
1724499480,18.56325,73.8332833,528.9,25.35483870967742,93,33.25806451612903,0.0,-80.0,162.0,0
1724499481,18.56325,73.8332833,528.9,25.273404255319146,94,33.07446808510638,0.0,-80.0,162.0,0
1724499482,18.56325,73.8332833,528.9,25.3031914893617,94,32.88297872340426,0.0,-80.0,162.0,0
1724499483,18.56325,73.8332833,528.9,25.322340425531916,94,32.88297872340426,0.0,-80.0,162.0,0
1724499484,18.56325,73.8332833,528.9,25.30851063829787,94,32.88297872340426,0.0,-80.0,162.0,0
1724499485,18.56325,73.8332833,528.9,25.34468085106383,94,32.88297872340426,0.0,-80.0,162.0,0
1724499486,18.56325,73.8332833,528.9,25.448936170212765,94,32.88297872340426,0.0,-80.0,162.0,0
1724499487,18.56325,73.8332833,528.9,25.27659574468085,94,32.8936170212766,0.0,-80.0,162.0,0
1724499488,18.56325,73.8332833,528.9,25.289361702127657,94,32.202127659574465,0.0,-80.0,162.0,0
1724499489,18.56325,73.8332833,528.9,25.354255319148937,94,32.202127659574465,0.0,-80.0,162.0,0
1724499490,18.56325,73.8332833,528.9,25.427659574468084,94,32.202127659574465,0.0,-80.0,162.0,0
1724499491,18.56325,73.8332833,528.9,25.343617021276597,94,31.904255319148938,0.0,-80.0,162.0,0
1724499492,18.56325,73.8332833,528.9,25.277659574468085,94,31.904255319148938,0.0,-80.0,162.0,0
1724499493,18.56325,73.8332833,528.9,25.206315789473685,95,31.63157894736842,0.0,-80.0,162.0,0
1724499494,18.56325,73.8332833,528.9,25.218947368421055,95,31.63157894736842,0.0,-80.0,162.0,0
1724499495,18.56325,73.8332833,528.9,25.2,95,31.63157894736842,0.0,-80.0,162.0,0
1724499496,18.56325,73.8332833,528.9,25.128421052631577,95,31.63157894736842,0.0,-80.0,162.0,0
1724499497,18.56325,73.8332833,528.9,25.10421052631579,95,31.221052631578946,0.0,-80.0,162.0,0
1724499498,18.56325,73.8332833,528.9,25.062105263157896,95,31.221052631578946,0.0,-80.0,162.0,0
1724499499,18.56325,73.8332833,528.9,25.128421052631577,95,31.210526315789473,0.0,-80.0,162.0,0
1724499500,18.56325,73.8332833,528.9,25.166315789473686,95,31.0,0.0,-80.0,162.0,0
1724499501,18.56325,73.8332833,528.9,25.04736842105263,95,31.0,0.0,-80.0,162.0,0
1724499502,18.56325,73.8332833,528.9,25.053684210526313,95,30.989473684210527,0.0,-80.0,162.0,0
1724499503,18.56325,73.8332833,528.9,25.03578947368421,95,30.96842105263158,0.0,-80.0,162.0,0
1724499504,18.56325,73.8332833,528.9,25.00526315789474,95,30.96842105263158,0.0,-80.0,162.0,0
1724499505,18.56325,73.8332833,528.9,24.922105263157892,95,30.96842105263158,0.0,-80.0,162.0,0
1724499506,18.56325,73.8332833,528.9,25.045263157894738,95,30.757894736842104,0.0,-80.0,162.0,0
1724499507,18.56325,73.8332833,528.9,24.949473684210524,95,30.757894736842104,0.0,-80.0,162.0,0
1724499508,18.56325,73.8332833,528.9,25.05263157894737,95,30.757894736842104,0.0,-80.0,162.0,0
1724499509,18.56325,73.8332833,528.9,24.94526315789474,95,30.757894736842104,0.0,-80.0,162.0,0
1724499510,18.56325,73.8332833,528.9,24.917894736842104,95,30.757894736842104,0.0,-80.0,162.0,0
1724499511,18.56325,73.8332833,528.9,25.115957446808512,94,30.893617021276597,0.0,-80.0,162.0,0
1724499512,18.56325,73.8332833,528.9,24.959999999999997,95,30.757894736842104,0.0,-80.0,162.0,0
1724499513,18.56325,73.8332833,528.9,25.012631578947367,95,30.757894736842104,0.0,-80.0,162.0,0
1724499514,18.56325,73.8332833,528.9,25.169473684210526,95,30.757894736842104,0.0,-80.0,162.0,0
1724499515,18.56325,73.8332833,528.9,25.19789473684211,95,30.757894736842104,0.0,-80.0,162.0,0
1724499516,18.56325,73.8332833,528.9,25.149473684210523,95,30.757894736842104,0.0,-80.0,162.0,0
1724499517,18.56325,73.8332833,528.9,25.02421052631579,95,30.757894736842104,0.0,-80.0,162.0,0
1724499518,18.56325,73.8332833,528.9,25.087368421052634,95,30.757894736842104,0.0,-80.0,162.0,0
1724499519,18.56325,73.8332833,528.9,25.01684210526316,95,30.768421052631577,0.0,-80.0,162.0,0
1724499520,18.56325,73.8332833,528.9,25.025263157894738,95,30.74736842105263,0.0,-80.0,162.0,0
1724499521,18.56325,73.8332833,528.9,24.996842105263156,95,30.736842105263158,0.0,-80.0,162.0,0
1724499522,18.56325,73.8332833,528.9,24.936842105263157,95,30.71578947368421,0.0,-80.0,162.0,0
1724499523,18.56325,73.8332833,528.9,24.981052631578944,95,30.71578947368421,0.0,-80.0,162.0,0
1724499524,18.56325,73.8332833,528.9,25.027368421052632,95,30.71578947368421,0.0,-80.0,162.0,0
1724499525,18.56325,73.8332833,528.9,25.062105263157896,95,32.71578947368421,0.0,-80.0,162.0,0
1724499526,18.56325,73.8332833,528.9,25.061702127659576,94,32.88297872340426,0.0,-80.0,162.0,0
1724499527,18.56325,73.8332833,528.9,25.322340425531916,94,32.88297872340426,0.0,-80.0,162.0,0
1724499528,18.56325,73.8332833,528.9,25.22872340425532,94,32.88297872340426,0.0,-80.0,162.0,0
1724499529,18.56325,73.8332833,528.9,25.26489361702128,94,32.88297872340426,0.0,-80.0,162.0,0
1724499530,18.56325,73.8332833,528.9,25.26595744680851,94,32.88297872340426,0.0,-80.0,162.0,0
1724499531,18.56325,73.8332833,528.9,25.134042553191488,94,32.88297872340426,0.0,-80.0,162.0,0
1724499532,18.56325,73.8332833,528.9,25.053684210526313,95,32.78947368421053,0.0,-80.0,162.0,0
1724499533,18.56325,73.8332833,528.9,24.94105263157895,95,32.78947368421053,0.0,-80.0,162.0,0
1724499534,18.56325,73.8332833,528.9,24.943617021276594,94,32.01063829787234,0.0,-80.0,162.0,0
1724499535,18.56325,73.8332833,528.9,24.943617021276594,94,32.01063829787234,0.0,-80.0,162.0,0
1724499536,18.56325,73.8332833,528.9,24.801063829787235,94,32.01063829787234,0.0,-80.0,162.0,0
1724499537,18.56325,73.8332833,528.9,24.980851063829785,94,32.01063829787234,0.0,-80.0,162.0,0
1724499538,18.56325,73.8332833,528.9,24.837234042553188,94,32.01063829787234,0.0,-80.0,162.0,0
1724499539,18.56325,73.8332833,528.9,24.96914893617021,94,32.01063829787234,0.0,-80.0,162.0,0
1724499540,18.56325,73.8332833,528.9,25.200000000000003,94,32.01063829787234,0.0,-80.0,162.0,0
1724499541,18.56325,73.8332833,528.9,25.168085106382982,94,32.03191489361702,0.0,-80.0,162.0,0
1724499542,18.56325,73.8332833,528.9,24.961702127659574,94,32.03191489361702,0.0,-80.0,162.0,0
1724499543,18.56325,73.8332833,528.9,24.835789473684212,95,31.50526315789474,0.0,-80.0,162.0,0
1724499544,18.56325,73.8332833,528.9,24.63157894736842,95,31.50526315789474,0.0,-80.0,162.0,0
1724499545,18.56325,73.8332833,528.9,25.033684210526314,95,31.50526315789474,0.0,-80.0,162.0,0
1724499546,18.56325,73.8332833,528.9,24.973684210526315,95,31.50526315789474,0.0,-80.0,162.0,0
1724499547,18.56325,73.8332833,528.9,25.00736842105263,95,31.50526315789474,0.0,-80.0,162.0,0
1724499548,18.56325,73.8332833,528.9,25.097894736842107,95,31.50526315789474,0.0,-80.0,162.0,0
1724499549,18.56325,73.8332833,528.9,24.94,95,31.50526315789474,0.0,-80.0,162.0,0
1724499550,18.56325,73.8332833,528.9,25.012631578947367,95,31.51578947368421,0.0,-80.0,162.0,0
1724499551,18.56325,73.8332833,528.9,25.06105263157895,95,31.51578947368421,0.0,-80.0,162.0,0
1724499552,18.56325,73.8332833,528.9,24.93894736842105,95,33.09473684210526,0.0,-80.0,162.0,0
1724499553,18.56325,73.8332833,528.9,25.022105263157894,95,33.09473684210526,0.0,-80.0,162.0,0
1724499554,18.56325,73.8332833,528.9,24.803157894736845,95,33.09473684210526,0.0,-80.0,162.0,0
1724499555,18.56325,73.8332833,528.9,24.683157894736844,95,33.09473684210526,0.0,-80.0,162.0,0
1724499556,18.56325,73.8332833,528.9,24.56105263157895,95,33.09473684210526,0.0,-80.0,162.0,0
1724499557,18.56325,73.8332833,528.9,24.816842105263156,95,33.09473684210526,0.0,-80.0,162.0,0
1724499558,18.56325,73.8332833,528.9,24.50421052631579,95,33.09473684210526,0.0,-80.0,162.0,0
1724499559,18.56325,73.8332833,528.9,24.623958333333334,96,33.052083333333336,0.0,-80.0,162.0,0
1724499560,18.56325,73.8332833,528.9,24.522105263157894,95,33.10526315789474,0.0,-80.0,162.0,0
1724499561,18.56325,73.8332833,528.9,24.473684210526315,95,32.252631578947366,0.0,-80.0,162.0,0
1724499562,18.56325,73.8332833,528.9,24.783157894736842,95,32.252631578947366,0.0,-80.0,162.0,0
1724499563,18.56325,73.8332833,528.9,24.77263157894737,95,32.252631578947366,0.0,-80.0,162.0,0
1724499564,18.56325,73.8332833,528.9,24.69789473684211,95,32.252631578947366,0.0,-80.0,162.0,0
1724499565,18.56325,73.8332833,528.9,24.873684210526317,95,32.252631578947366,0.0,-80.0,162.0,0
1724499566,18.56325,73.8332833,528.9,24.885263157894737,95,32.252631578947366,0.0,-80.0,162.0,0
1724499567,18.56325,73.8332833,528.9,24.901052631578946,95,32.252631578947366,0.0,-80.0,162.0,0
1724499568,18.56325,73.8332833,528.9,24.954736842105262,95,32.252631578947366,0.0,-80.0,162.0,0
1724499569,18.56325,73.8332833,528.9,24.9,94,32.56382978723404,0.0,-80.0,162.0,0
1724499570,18.56325,73.8332833,528.9,24.890425531914893,94,31.851063829787233,0.0,-80.0,162.0,0
1724499571,18.56325,73.8332833,528.9,24.846808510638297,94,31.851063829787233,0.0,-80.0,162.0,0
1724499572,18.56325,73.8332833,528.9,24.701063829787234,94,31.851063829787233,0.0,-80.0,162.0,0
1724499573,18.56325,73.8332833,528.9,24.784042553191487,94,31.851063829787233,0.0,-80.0,162.0,0
1724499574,18.56325,73.8332833,528.9,24.81808510638298,94,31.851063829787233,0.0,-80.0,162.0,0
1724499575,18.56325,73.8332833,528.9,24.794680851063827,94,31.851063829787233,0.0,-80.0,162.0,0
1724499576,18.56325,73.8332833,528.9,24.811702127659576,94,31.851063829787233,0.0,-80.0,162.0,0
1724499577,18.56325,73.8332833,528.9,24.989247311827956,93,32.13978494623656,0.0,-80.0,162.0,0
1724499578,18.56325,73.8332833,528.9,25.25483870967742,93,32.12903225806452,0.0,-80.0,162.0,0
1724499579,18.56325,73.8332833,528.9,25.310752688172045,93,31.688172043010752,0.0,-80.0,162.0,0
1724499580,18.56325,73.8332833,528.9,25.231914893617024,94,31.393617021276597,0.0,-80.0,162.0,0
1724499581,18.56325,73.8332833,528.9,25.049999999999997,94,31.382978723404257,0.0,-80.0,162.0,0
1724499582,18.56325,73.8332833,528.9,25.101063829787233,94,31.382978723404257,0.0,-80.0,162.0,0
1724499583,18.56325,73.8332833,528.9,25.087234042553188,94,31.372340425531913,0.0,-80.0,162.0,0
1724499584,18.56325,73.8332833,528.9,25.362765957446808,94,31.382978723404257,0.0,-80.0,162.0,0
1724499585,18.56325,73.8332833,528.9,25.381914893617022,94,32.0531914893617,0.0,-80.0,162.0,0
1724499586,18.56325,73.8332833,528.9,25.272340425531915,94,32.0531914893617,0.0,-80.0,162.0,0
1724499587,18.56325,73.8332833,528.9,25.404255319148938,94,32.02127659574468,0.0,-80.0,162.0,0
1724499588,18.56325,73.8332833,528.9,25.406382978723403,94,32.02127659574468,0.0,-80.0,162.0,0
1724499589,18.56325,73.8332833,528.9,25.5,94,32.02127659574468,0.0,-80.0,162.0,0
1724499590,18.56325,73.8332833,528.9,25.419148936170213,94,32.02127659574468,0.0,-80.0,162.0,0
1724499591,18.56325,73.8332833,528.9,25.455319148936173,94,33.319148936170215,0.0,-80.0,162.0,0
1724499592,18.56325,73.8332833,528.9,25.438297872340424,94,33.319148936170215,0.0,-80.0,162.0,0
1724499593,18.56325,73.8332833,528.9,25.370212765957447,94,33.319148936170215,0.0,-80.0,162.0,0
1724499594,18.56325,73.8332833,528.9,25.456382978723404,94,33.1063829787234,0.0,-80.0,162.0,0
1724499595,18.56325,73.8332833,528.9,25.46808510638298,94,33.12765957446808,0.0,-80.0,162.0,0
1724499596,18.56325,73.8332833,528.9,25.554255319148936,94,33.1063829787234,0.0,-80.0,162.0,0
1724499597,18.56325,73.8332833,528.9,25.54255319148936,94,33.1063829787234,0.0,-80.0,162.0,0
1724499598,18.56325,73.8332833,528.9,25.51063829787234,94,33.1063829787234,0.0,-80.0,162.0,0
1724499599,18.56325,73.8332833,528.9,25.2031914893617,94,33.1063829787234,0.0,-80.0,162.0,0
1724499600,18.56325,73.8332833,528.9,25.3031914893617,94,32.41489361702128,0.0,-80.0,162.0,0
1724499601,18.56325,73.8332833,528.9,25.29787234042553,94,32.42553191489362,0.0,-80.0,162.0,0
1724499602,18.56325,73.8332833,528.9,24.94787234042553,94,32.42553191489362,0.0,-80.0,162.0,0
1724499603,18.56325,73.8332833,528.9,25.268085106382976,94,32.4468085106383,0.0,-80.0,162.0,0
1724499604,18.56325,73.8332833,528.9,25.18191489361702,94,32.148936170212764,0.0,-80.0,162.0,0
1724499605,18.56325,73.8332833,528.9,25.384042553191488,94,32.148936170212764,0.0,-80.0,162.0,0
1724499606,18.56325,73.8332833,528.9,25.41063829787234,94,32.148936170212764,0.0,-80.0,162.0,0
1724499607,18.56325,73.8332833,528.9,25.49468085106383,94,32.148936170212764,0.0,-80.0,162.0,0
1724499608,18.56325,73.8332833,528.9,25.540425531914895,94,32.12765957446808,0.0,-80.0,162.0,0
1724499609,18.56325,73.8332833,528.9,25.48510638297872,94,31.71276595744681,0.0,-80.0,162.0,0
1724499610,18.56325,73.8332833,528.9,25.461702127659574,94,31.73404255319149,0.0,-80.0,162.0,0
1724499611,18.56325,73.8332833,528.9,25.464893617021275,94,31.73404255319149,0.0,-80.0,162.0,0
1724499612,18.56325,73.8332833,528.9,25.445744680851064,94,31.73404255319149,0.0,-80.0,162.0,0
1724499613,18.56325,73.8332833,528.9,25.40744680851064,94,31.52127659574468,0.0,-80.0,162.0,0
1724499614,18.56325,73.8332833,528.9,25.381914893617022,94,31.52127659574468,0.0,-80.0,162.0,0
1724499615,18.56325,73.8332833,528.9,25.448936170212765,94,31.52127659574468,0.0,-80.0,162.0,0
1724499616,18.56325,73.8332833,528.9,25.47446808510638,94,31.52127659574468,0.0,-80.0,162.0,0
1724499617,18.56325,73.8332833,528.9,25.465957446808513,94,31.52127659574468,0.0,-80.0,162.0,0
1724499618,18.56325,73.8332833,528.9,25.294680851063827,94,31.30851063829787,0.0,-80.0,162.0,0
1724499619,18.56325,73.8332833,528.9,25.28085106382979,94,31.30851063829787,0.0,-80.0,162.0,0
1724499620,18.56325,73.8332833,528.9,25.357446808510637,94,31.30851063829787,0.0,-80.0,162.0,0
1724499621,18.56325,73.8332833,528.9,25.424468085106383,94,31.30851063829787,0.0,-80.0,162.0,0
1724499622,18.56325,73.8332833,528.9,25.340425531914892,94,31.30851063829787,0.0,-80.0,162.0,0
1724499623,18.56325,73.8332833,528.9,25.491489361702126,94,31.30851063829787,0.0,-80.0,162.0,0
1724499624,18.56325,73.8332833,528.9,25.367021276595743,94,31.30851063829787,0.0,-80.0,162.0,0
1724499625,18.56325,73.8332833,528.9,25.337234042553188,94,31.30851063829787,0.0,-80.0,162.0,0
1724499626,18.56325,73.8332833,528.9,25.210638297872343,94,31.30851063829787,0.0,-80.0,162.0,0
1724499627,18.56325,73.8332833,528.9,24.910752688172042,93,31.053763440860216,0.0,-80.0,162.0,0
1724499628,18.56325,73.8332833,528.9,24.789361702127657,94,31.30851063829787,0.0,-80.0,162.0,0
1724499629,18.56325,73.8332833,528.9,24.890425531914893,94,31.30851063829787,0.0,-80.0,162.0,0
1724499630,18.56325,73.8332833,528.9,24.97340425531915,94,31.30851063829787,0.0,-79.0,162.0,0
1724499631,18.56325,73.8332833,528.9,24.9468085106383,94,31.30851063829787,0.0,-80.0,162.0,0
1724499632,18.56325,73.8332833,528.9,25.076595744680848,94,31.30851063829787,0.0,-80.0,162.0,0
1724499633,18.56325,73.8332833,528.9,25.098936170212767,94,31.30851063829787,0.0,-80.0,162.0,0
1724499634,18.56325,73.8332833,528.9,25.135106382978723,94,31.30851063829787,0.0,-80.0,162.0,0
1724499635,18.56325,73.8332833,528.9,25.30744680851064,94,31.30851063829787,0.0,-80.0,162.0,0
1724499636,18.56325,73.8332833,528.9,25.162765957446812,94,32.702127659574465,0.0,-80.0,162.0,0
1724499637,18.56325,73.8332833,528.9,25.02553191489362,94,32.702127659574465,0.0,-80.0,162.0,0
1724499638,18.56325,73.8332833,528.9,24.98510638297872,94,33.329787234042556,0.0,-80.0,162.0,0
1724499639,18.56325,73.8332833,528.9,24.99468085106383,94,33.329787234042556,0.0,-80.0,162.0,0
1724499640,18.56325,73.8332833,528.9,24.981914893617024,94,33.329787234042556,0.0,-80.0,162.0,0
1724499641,18.56325,73.8332833,528.9,24.976595744680854,94,33.329787234042556,0.0,-80.0,162.0,0
1724499642,18.56325,73.8332833,528.9,24.903191489361703,94,33.329787234042556,0.0,-80.0,162.0,0
1724499643,18.56325,73.8332833,528.9,24.836170212765957,94,33.329787234042556,0.0,-80.0,163.0,0
1724499644,18.56325,73.8332833,528.9,24.879787234042553,94,33.329787234042556,0.0,-80.0,162.0,0
1724499645,18.56325,73.8332833,528.9,24.846808510638297,94,32.840425531914896,0.0,-80.0,162.0,0
1724499646,18.56325,73.8332833,528.9,25.02659574468085,94,32.840425531914896,0.0,-80.0,162.0,0
1724499647,18.56325,73.8332833,528.9,24.98510638297872,94,32.4468085106383,0.0,-80.0,162.0,0
1724499648,18.56325,73.8332833,528.9,25.02795698924731,93,32.69892473118279,0.0,-80.0,162.0,0
1724499649,18.56325,73.8332833,528.9,24.99468085106383,94,32.4468085106383,0.0,-80.0,162.0,0
1724499650,18.56325,73.8332833,528.9,24.8531914893617,94,32.48936170212766,0.0,-80.0,162.0,0
1724499651,18.56325,73.8332833,528.9,25.091397849462364,93,32.74193548387097,0.0,-80.0,162.0,0
1724499652,18.56325,73.8332833,528.9,24.967021276595744,94,32.48936170212766,0.0,-80.0,162.0,0
1724499653,18.56325,73.8332833,528.9,24.923404255319152,94,32.48936170212766,0.0,-80.0,162.0,0
1724499654,18.56325,73.8332833,528.9,24.805319148936167,94,31.925531914893618,0.0,-80.0,162.0,0
1724499655,18.56325,73.8332833,528.9,25.055913978494623,93,32.18279569892473,0.0,-80.0,162.0,0
1724499656,18.56325,73.8332833,528.9,25.019148936170215,94,31.79787234042553,0.0,-80.0,162.0,0
1724499657,18.56325,73.8332833,528.9,24.78617021276596,94,31.77659574468085,0.0,-80.0,162.0,0
1724499658,18.56325,73.8332833,528.9,24.940425531914894,94,31.77659574468085,0.0,-80.0,162.0,0
1724499659,18.56325,73.8332833,528.9,24.951063829787234,94,31.77659574468085,0.0,-80.0,162.0,0
1724499660,18.56325,73.8332833,528.9,24.918085106382982,94,31.77659574468085,0.0,-80.0,162.0,0
1724499661,18.56325,73.8332833,528.9,25.067021276595746,94,31.77659574468085,0.0,-80.0,162.0,0
1724499662,18.56325,73.8332833,528.9,24.98404255319149,94,31.77659574468085,0.0,-80.0,162.0,0
1724499663,18.56325,73.8332833,528.9,25.135106382978723,94,32.851063829787236,0.0,-80.0,162.0,0
1724499664,18.56325,73.8332833,528.9,25.08936170212766,94,32.851063829787236,0.0,-80.0,162.0,0
1724499665,18.56325,73.8332833,528.9,25.145744680851063,94,33.38297872340426,0.0,-80.0,162.0,0
1724499666,18.56325,73.8332833,528.9,25.143617021276597,94,33.38297872340426,0.0,-80.0,162.0,0
1724499667,18.56325,73.8332833,528.9,25.045744680851065,94,33.38297872340426,0.0,-80.0,162.0,0
1724499668,18.56325,73.8332833,528.9,24.96914893617021,94,33.37234042553192,0.0,-80.0,162.0,0
1724499669,18.56325,73.8332833,528.9,24.918085106382982,94,33.37234042553192,0.0,-80.0,162.0,0
1724499670,18.56325,73.8332833,528.9,24.922340425531914,94,33.37234042553192,0.0,-80.0,162.0,0
1724499671,18.56325,73.8332833,528.9,24.932978723404254,94,33.37234042553192,0.0,-80.0,162.0,0
1724499672,18.56325,73.8332833,528.9,24.987234042553194,94,32.88297872340426,0.0,-80.0,162.0,0
1724499673,18.56325,73.8332833,528.9,24.835106382978722,94,32.861702127659576,0.0,-80.0,162.0,0
1724499674,18.56325,73.8332833,528.9,24.864893617021277,94,32.48936170212766,0.0,-80.0,162.0,0
1724499675,18.56325,73.8332833,528.9,24.868085106382978,94,32.47872340425532,0.0,-80.0,162.0,0
1724499676,18.56325,73.8332833,528.9,24.863829787234042,94,32.47872340425532,0.0,-80.0,162.0,0
1724499677,18.56325,73.8332833,528.9,24.835106382978722,94,32.47872340425532,0.0,-80.0,162.0,0
1724499678,18.56325,73.8332833,528.9,24.762765957446806,94,32.46808510638298,0.0,-80.0,162.0,0
1724499679,18.56325,73.8332833,528.9,24.753191489361704,94,32.46808510638298,0.0,-80.0,162.0,0
1724499680,18.56325,73.8332833,528.9,24.79148936170213,94,32.46808510638298,0.0,-80.0,162.0,0
1724499681,18.56325,73.8332833,528.9,24.711702127659574,94,31.893617021276597,0.0,-80.0,162.0,0
1724499682,18.56325,73.8332833,528.9,24.551063829787235,94,31.893617021276597,0.0,-80.0,162.0,0
1724499683,18.56325,73.8332833,528.9,24.574468085106382,94,31.74468085106383,0.0,-80.0,162.0,0
1724499684,18.56325,73.8332833,528.9,24.54255319148936,94,31.74468085106383,0.0,-80.0,162.0,0
1724499685,18.56325,73.8332833,528.9,24.658510638297873,94,31.74468085106383,0.0,-80.0,162.0,0
1724499686,18.56325,73.8332833,528.9,24.353684210526314,95,31.63157894736842,0.0,-80.0,163.0,0
1724499687,18.56325,73.8332833,528.9,24.106315789473683,95,31.63157894736842,0.0,-80.0,162.0,0
1724499688,18.56325,73.8332833,528.9,24.26105263157895,95,31.63157894736842,0.0,-80.0,162.0,0
1724499689,18.56325,73.8332833,528.9,24.33157894736842,95,31.63157894736842,0.0,-80.0,163.0,0
1724499690,18.56325,73.8332833,528.9,24.375,96,31.34375,0.0,-80.0,162.0,0
1724499691,18.56325,73.8332833,528.9,24.271874999999998,96,31.34375,0.0,-80.0,162.0,0
1724499692,18.56325,73.8332833,528.9,24.116494845360826,97,30.195876288659793,0.0,-80.0,163.0,0
1724499693,18.56325,73.8332833,528.9,24.13298969072165,97,31.010309278350515,0.0,-80.0,163.0,0
1724499694,18.56325,73.8332833,528.9,24.03298969072165,97,31.010309278350515,0.0,-80.0,163.0,0
1724499695,18.56325,73.8332833,528.9,24.158762886597938,97,31.010309278350515,0.0,-80.0,163.0,0
1724499696,18.56325,73.8332833,528.9,24.15360824742268,97,30.989690721649485,0.0,-80.0,162.0,0
1724499697,18.56325,73.8332833,528.9,24.151546391752575,97,30.969072164948454,0.0,-80.0,162.0,0
1724499698,18.56325,73.8332833,528.9,24.068041237113402,97,30.969072164948454,0.0,-80.0,162.0,0
1724499699,18.56325,73.8332833,528.9,24.104123711340204,97,31.649484536082475,0.0,-80.0,162.0,0
1724499700,18.56325,73.8332833,528.9,24.242268041237114,97,31.649484536082475,0.0,-80.0,162.0,0
1724499701,18.56325,73.8332833,528.9,24.18762886597938,97,31.649484536082475,0.0,-80.0,163.0,0
1724499702,18.56325,73.8332833,528.9,24.14639175257732,97,31.649484536082475,0.0,-80.0,162.0,0
1724499703,18.56325,73.8332833,528.9,24.215463917525774,97,32.92783505154639,0.0,-80.0,162.0,0
1724499704,18.56325,73.8332833,528.9,24.260824742268042,97,32.92783505154639,0.0,-80.0,163.0,0
1724499705,18.56325,73.8332833,528.9,24.260824742268042,97,32.92783505154639,0.0,-80.0,163.0,0
1724499706,18.56325,73.8332833,528.9,24.25979381443299,97,32.92783505154639,0.0,-80.0,163.0,0
1724499707,18.56325,73.8332833,528.9,24.009278350515466,97,32.92783505154639,0.0,-80.0,162.0,0
1724499708,18.56325,73.8332833,528.9,24.108247422680414,97,32.74226804123711,0.0,-80.0,163.0,0
1724499709,18.56325,73.8332833,528.9,23.986597938144328,97,32.74226804123711,0.0,-80.0,163.0,0
1724499710,18.56325,73.8332833,528.9,24.371134020618555,97,32.75257731958763,0.0,-80.0,163.0,0
1724499711,18.56325,73.8332833,528.9,24.398969072164945,97,32.75257731958763,0.0,-80.0,163.0,0
1724499712,18.56325,73.8332833,528.9,24.443298969072163,97,32.08247422680412,0.0,-80.0,163.0,0
1724499713,18.56325,73.8332833,528.9,24.390721649484536,97,32.08247422680412,0.0,-80.0,163.0,0
1724499714,18.56325,73.8332833,528.9,24.33917525773196,97,32.08247422680412,0.0,-80.0,163.0,0
1724499715,18.56325,73.8332833,528.9,24.41443298969072,97,32.08247422680412,0.0,-80.0,162.0,0
1724499716,18.56325,73.8332833,528.9,24.423711340206186,97,32.08247422680412,0.0,-80.0,163.0,0
1724499717,18.56325,73.8332833,528.9,24.54479166666667,96,32.135416666666664,0.0,-80.0,163.0,0
1724499718,18.56325,73.8332833,528.9,24.606315789473683,95,31.589473684210525,0.0,-80.0,163.0,0
1724499719,18.56325,73.8332833,528.9,24.328865979381444,97,31.814432989690722,0.0,-80.0,162.0,0
1724499720,18.56325,73.8332833,528.9,24.50721649484536,97,31.814432989690722,0.0,-80.0,163.0,0
1724499721,18.56325,73.8332833,528.9,24.461855670103095,97,31.412371134020617,0.0,-80.0,163.0,0
1724499722,18.56325,73.8332833,528.9,24.324742268041238,97,31.412371134020617,0.0,-80.0,163.0,0
1724499723,18.56325,73.8332833,528.9,24.336082474226803,97,31.412371134020617,0.0,-80.0,162.0,0
1724499724,18.56325,73.8332833,528.9,24.396907216494846,97,31.4020618556701,0.0,-80.0,162.0,0
1724499725,18.56325,73.8332833,528.9,24.412371134020617,97,31.412371134020617,0.0,-80.0,162.0,0
1724499726,18.56325,73.8332833,528.9,24.20618556701031,97,31.422680412371133,0.0,-80.0,162.0,0
1724499727,18.56325,73.8332833,528.9,23.8680412371134,97,31.216494845360824,0.0,-80.0,163.0,0
1724499728,18.56325,73.8332833,528.9,24.12783505154639,97,31.216494845360824,0.0,-80.0,163.0,0
1724499729,18.56325,73.8332833,528.9,24.083505154639173,97,31.216494845360824,0.0,-80.0,163.0,0
1724499730,18.56325,73.8332833,528.9,24.01875,96,31.270833333333332,0.0,-80.0,162.0,0
1724499731,18.56325,73.8332833,528.9,24.0659793814433,97,31.010309278350515,0.0,-80.0,162.0,0
1724499732,18.56325,73.8332833,528.9,24.305154639175257,97,31.010309278350515,0.0,-80.0,162.0,0
1724499733,18.56325,73.8332833,528.9,24.376041666666666,96,31.270833333333332,0.0,-80.0,163.0,0
1724499734,18.56325,73.8332833,528.9,24.315625,96,31.270833333333332,0.0,-80.0,162.0,0
1724499735,18.56325,73.8332833,528.9,24.34375,96,31.25,0.0,-80.0,162.0,0
1724499736,18.56325,73.8332833,528.9,24.295833333333334,96,31.260416666666668,0.0,-80.0,163.0,0
1724499737,18.56325,73.8332833,528.9,24.31458333333333,96,31.270833333333332,0.0,-80.0,163.0,0
1724499738,18.56325,73.8332833,528.9,24.150000000000002,96,31.270833333333332,0.0,-80.0,163.0,0
1724499739,18.56325,73.8332833,528.9,24.242708333333336,96,31.270833333333332,0.0,-80.0,163.0,0
1724499740,18.56325,73.8332833,528.9,24.118750000000002,96,31.260416666666668,0.0,-80.0,163.0,0
1724499741,18.56325,73.8332833,528.9,24.145833333333332,96,31.25,0.0,-80.0,163.0,0
1724499742,18.56325,73.8332833,528.9,24.077083333333334,96,30.333333333333332,0.0,-80.0,163.0,0
1724499743,18.56325,73.8332833,528.9,24.195833333333336,96,31.25,0.0,-80.0,163.0,0
1724499744,18.56325,73.8332833,528.9,24.217708333333334,96,31.25,0.0,-80.0,163.0,0
1724499745,18.56325,73.8332833,528.9,24.153125,96,31.25,0.0,-80.0,163.0,0
1724499746,18.56325,73.8332833,528.9,24.192708333333332,96,31.25,0.0,-80.0,163.0,0
1724499747,18.56325,73.8332833,528.9,24.09166666666667,96,31.25,0.0,-80.0,163.0,0
1724499748,18.56325,73.8332833,528.9,24.086458333333336,96,31.25,0.0,-80.0,162.0,0
1724499749,18.56325,73.8332833,528.9,24.06041666666667,96,32.614583333333336,0.0,-80.0,163.0,0
1724499750,18.56325,73.8332833,528.9,24.023958333333336,96,32.614583333333336,0.0,-80.0,163.0,0
1724499751,18.56325,73.8332833,528.9,24.073958333333334,96,32.614583333333336,0.0,-80.0,162.0,0
1724499752,18.56325,73.8332833,528.9,24.083333333333332,96,32.614583333333336,0.0,-80.0,162.0,0
1724499753,18.56325,73.8332833,528.9,24.31458333333333,96,33.229166666666664,0.0,-80.0,163.0,0
1724499754,18.56325,73.8332833,528.9,24.305208333333336,96,33.229166666666664,0.0,-80.0,163.0,0
1724499755,18.56325,73.8332833,528.9,24.291666666666668,96,33.229166666666664,0.0,-80.0,163.0,0
1724499756,18.56325,73.8332833,528.9,24.20520833333333,96,33.229166666666664,0.0,-80.0,163.0,0
1724499757,18.56325,73.8332833,528.9,24.351041666666664,96,33.229166666666664,0.0,-80.0,163.0,0
1724499758,18.56325,73.8332833,528.9,24.400000000000002,96,33.229166666666664,0.0,-80.0,162.0,0
1724499759,18.56325,73.8332833,528.9,24.36145833333333,96,32.75,0.0,-80.0,162.0,0
1724499760,18.56325,73.8332833,528.9,24.39270833333333,96,32.760416666666664,0.0,-80.0,162.0,0
1724499761,18.56325,73.8332833,528.9,24.360416666666666,96,32.729166666666664,0.0,-80.0,163.0,0
1724499762,18.56325,73.8332833,528.9,24.381249999999998,96,32.333333333333336,0.0,-80.0,163.0,0
1724499763,18.56325,73.8332833,528.9,24.380208333333332,96,32.302083333333336,0.0,-80.0,162.0,0
1724499764,18.56325,73.8332833,528.9,24.368750000000002,96,32.291666666666664,0.0,-80.0,162.0,0
1724499765,18.56325,73.8332833,528.9,24.430526315789475,95,32.09473684210526,0.0,-80.0,162.0,0
1724499766,18.56325,73.8332833,528.9,24.402083333333334,96,32.291666666666664,0.0,-80.0,162.0,0
1724499767,18.56325,73.8332833,528.9,24.490624999999998,96,32.291666666666664,0.0,-80.0,162.0,0
1724499768,18.56325,73.8332833,528.9,24.509375000000002,96,32.291666666666664,0.0,-80.0,162.0,0
1724499769,18.56325,73.8332833,528.9,24.471875,96,31.729166666666668,0.0,-80.0,162.0,0
1724499770,18.56325,73.8332833,528.9,24.578125,96,31.708333333333332,0.0,-80.0,163.0,0
1724499771,18.56325,73.8332833,528.9,24.522916666666664,96,31.59375,0.0,-80.0,163.0,0
1724499772,18.56325,73.8332833,528.9,24.55894736842105,95,31.36842105263158,0.0,-80.0,163.0,0
1724499773,18.56325,73.8332833,528.9,24.569791666666664,96,31.572916666666668,0.0,-80.0,162.0,0
1724499774,18.56325,73.8332833,528.9,24.568749999999998,96,31.572916666666668,0.0,-80.0,162.0,0
1724499775,18.56325,73.8332833,528.9,24.494791666666668,96,31.572916666666668,0.0,-80.0,162.0,0
1724499776,18.56325,73.8332833,528.9,24.528125,96,31.572916666666668,0.0,-80.0,163.0,0
1724499777,18.56325,73.8332833,528.9,24.219791666666666,96,31.572916666666668,0.0,-80.0,163.0,0
1724499778,18.56325,73.8332833,528.9,24.26770833333333,96,32.614583333333336,0.0,-80.0,163.0,0
1724499779,18.56325,73.8332833,528.9,24.308333333333334,96,32.635416666666664,0.0,-80.0,163.0,0
1724499780,18.56325,73.8332833,528.9,24.191666666666666,96,33.15625,0.0,-80.0,163.0,0
1724499781,18.56325,73.8332833,528.9,23.929166666666664,96,33.15625,0.0,-80.0,163.0,0
1724499782,18.56325,73.8332833,528.9,23.92395833333333,96,33.15625,0.0,-80.0,163.0,0
1724499783,18.56325,73.8332833,528.9,23.78333333333333,96,33.15625,1.0,-80.0,163.0,0
1724499784,18.56325,73.8332833,528.9,24.03125,96,33.15625,0.0,-80.0,163.0,0
1724499785,18.56325,73.8332833,528.9,24.602083333333336,96,33.135416666666664,0.0,-80.0,163.0,0
1724499786,18.56325,73.8332833,528.9,24.509375000000002,96,33.135416666666664,0.0,-80.0,163.0,0
1724499787,18.56325,73.8332833,528.9,24.402083333333334,96,32.65625,0.0,-80.0,163.0,0
1724499788,18.56325,73.8332833,528.9,24.21666666666667,96,32.677083333333336,0.0,-80.0,163.0,0
1724499789,18.56325,73.8332833,528.9,24.264583333333334,96,32.28125,0.0,-80.0,163.0,0
1724499790,18.56325,73.8332833,528.9,24.26354166666667,96,32.28125,0.0,-80.0,163.0,0
1724499791,18.56325,73.8332833,528.9,24.211458333333336,96,32.28125,0.0,-80.0,163.0,0
1724499792,18.56325,73.8332833,528.9,24.20625,96,32.28125,0.0,-80.0,163.0,0
1724499793,18.56325,73.8332833,528.9,24.21666666666667,96,32.28125,0.0,-80.0,163.0,0
1724499794,18.56325,73.8332833,528.9,24.260416666666668,96,32.28125,0.0,-80.0,163.0,0
1724499795,18.56325,73.8332833,528.9,24.33020833333333,96,32.28125,0.0,-80.0,163.0,0
1724499796,18.56325,73.8332833,528.9,24.379166666666666,96,32.28125,0.0,-80.0,163.0,0
1724499797,18.56325,73.8332833,528.9,24.49791666666667,96,31.71875,0.0,-80.0,163.0,0
1724499798,18.56325,73.8332833,528.9,24.590625,96,31.583333333333332,0.0,-80.0,162.0,0
1724499799,18.56325,73.8332833,528.9,24.725263157894737,95,31.378947368421052,0.0,-80.0,163.0,0
1724499800,18.56325,73.8332833,528.9,24.787368421052633,95,31.378947368421052,0.0,-80.0,162.0,0
1724499801,18.56325,73.8332833,528.9,24.67684210526316,95,31.378947368421052,0.0,-80.0,163.0,0
1724499802,18.56325,73.8332833,528.9,24.594736842105263,95,31.378947368421052,0.0,-80.0,163.0,0
1724499803,18.56325,73.8332833,528.9,24.64315789473684,95,31.389473684210525,0.0,-80.0,163.0,0
1724499804,18.56325,73.8332833,528.9,24.55894736842105,95,31.389473684210525,0.0,-80.0,163.0,0
1724499805,18.56325,73.8332833,528.9,24.69263157894737,95,31.389473684210525,0.0,-80.0,163.0,0
1724499806,18.56325,73.8332833,528.9,24.443157894736842,95,31.063157894736843,0.0,-80.0,163.0,0
1724499807,18.56325,73.8332833,528.9,25.076595744680848,94,31.27659574468085,0.0,-80.0,163.0,0
1724499808,18.56325,73.8332833,528.9,25.293684210526315,95,30.96842105263158,0.0,-80.0,163.0,0
1724499809,18.56325,73.8332833,528.9,25.01684210526316,95,30.96842105263158,1.0,-80.0,163.0,0
1724499810,18.56325,73.8332833,528.9,24.993684210526318,95,30.96842105263158,1.0,-80.0,163.0,0
1724499811,18.56325,73.8332833,528.9,24.90736842105263,95,30.978947368421053,0.0,-80.0,163.0,0
1724499812,18.56325,73.8332833,528.9,24.934736842105266,95,30.978947368421053,1.0,-80.0,164.0,0
1724499813,18.56325,73.8332833,528.9,24.809473684210527,95,31.673684210526314,-1.0,-82.0,161.0,0
1724499814,18.56325,73.8332833,528.9,24.858947368421052,95,31.673684210526314,2.0,-80.0,165.0,0
1724499815,18.56325,73.8332833,528.9,24.905263157894737,95,31.673684210526314,1.0,-81.0,163.0,0
1724499816,18.56325,73.8332833,528.9,24.853684210526314,95,31.673684210526314,3.0,-80.0,165.0,0
1724499817,18.56325,73.8332833,528.9,24.782105263157895,95,31.673684210526314,1.0,-80.0,163.0,0
1724499818,18.56325,73.8332833,528.9,24.76105263157895,95,32.97894736842105,1.0,-80.0,163.0,0
1724499819,18.56325,73.8332833,528.9,24.525000000000002,96,33.166666666666664,0.0,-78.0,161.0,0
1724499820,18.56325,73.8332833,528.9,24.663541666666664,96,33.166666666666664,0.0,-80.0,163.0,0
1724499821,18.56325,73.8332833,528.9,24.683157894736844,95,32.863157894736844,0.0,-79.0,163.0,0
1724499822,18.56325,73.8332833,528.9,24.604166666666668,96,32.979166666666664,0.0,-80.0,162.0,0
1724499823,18.56325,73.8332833,528.9,24.321875000000002,96,32.979166666666664,2.0,-79.0,164.0,0
1724499824,18.56325,73.8332833,528.9,24.420833333333334,96,32.979166666666664,0.0,-79.0,161.0,0
1724499825,18.56325,73.8332833,528.9,24.871578947368423,95,32.72631578947368,-3.0,-80.0,158.0,0
1724499826,18.56325,73.8332833,528.9,24.846315789473685,95,32.747368421052634,-2.0,-81.0,160.0,0
1724499827,18.56325,73.8332833,528.9,24.840625,96,32.322916666666664,-11.0,-82.0,151.0,0
1724499828,18.56325,73.8332833,528.9,24.90416666666667,96,32.322916666666664,-11.0,-82.0,150.0,0
1724499829,18.56325,73.8332833,528.9,25.011458333333334,96,32.322916666666664,-4.0,-82.0,157.0,0
1724499830,18.56325,73.8332833,528.9,25.120833333333334,96,32.333333333333336,0.0,-81.0,161.0,0
1724499831,18.56325,73.8332833,528.9,25.181250000000002,96,32.041666666666664,2.0,-82.0,164.0,0
1724499832,18.56325,73.8332833,528.9,25.195833333333336,96,32.041666666666664,-2.0,-83.0,159.0,0
1724499833,18.56325,73.8332833,528.9,,0,,-3.0,-83.0,159.0,0
1724499834,18.56325,73.8332833,528.9,25.06041666666667,192,32.020833333333336,-3.0,-83.0,158.0,0
1724499835,18.56325,73.8332833,528.9,25.071875000000002,96,32.020833333333336,2.0,-82.0,165.0,0
1724499836,18.56325,73.8332833,528.9,25.08421052631579,95,31.357894736842105,-3.0,-83.0,158.0,0
1724499837,18.56325,73.8332833,528.9,25.132631578947368,95,31.357894736842105,1.0,-80.0,164.0,0
1724499838,18.56325,73.8332833,528.9,24.927083333333332,96,31.614583333333332,0.0,-82.0,161.0,0
1724499839,18.56325,73.8332833,528.9,24.692708333333332,96,31.635416666666668,-2.0,-80.0,159.0,0
1724499840,18.56325,73.8332833,528.9,24.86,95,31.4,-14.0,-83.0,147.0,0
1724499841,18.56325,73.8332833,528.9,24.5,95,31.4,3.0,-82.0,165.0,0
1724499842,18.56325,73.8332833,528.9,24.713541666666668,96,31.125,0.0,-82.0,162.0,0
1724499843,18.56325,73.8332833,528.9,24.7,96,31.125,-5.0,-82.0,157.0,0
1724499844,18.56325,73.8332833,528.9,24.785416666666666,96,31.114583333333332,-10.0,-81.0,151.0,0
1724499845,18.56325,73.8332833,528.9,24.830526315789474,95,30.642105263157895,-1.0,-81.0,159.0,0
1724499846,18.56325,73.8332833,528.9,24.474736842105262,95,30.642105263157895,-1.0,-80.0,159.0,0
1724499847,18.56325,73.8332833,528.9,24.682105263157897,95,31.221052631578946,-3.0,-80.0,158.0,0
1724499848,18.56325,73.8332833,528.9,24.62291666666667,96,30.90625,-3.0,-80.0,157.0,0
1724499849,18.56325,73.8332833,528.9,24.36494845360825,97,30.938144329896907,-3.0,-80.0,157.0,0
1724499850,18.56325,73.8332833,528.9,24.443298969072163,97,30.938144329896907,-3.0,-80.0,157.0,0
1724499851,18.56325,73.8332833,528.9,24.781443298969073,97,30.938144329896907,-3.0,-80.0,157.0,0
1724499852,18.56325,73.8332833,528.9,24.942708333333332,96,31.25,-3.0,-80.0,158.0,0
1724499853,18.56325,73.8332833,528.9,24.769072164948454,97,30.938144329896907,-1.0,-81.0,159.0,0
1724499854,18.56325,73.8332833,528.9,23.510416666666668,96,30.947916666666668,-4.0,-83.0,157.0,0
1724499855,18.56325,73.8332833,528.9,24.684375,96,30.927083333333332,-2.0,-81.0,159.0,0
1724499856,18.56325,73.8332833,528.9,24.954166666666666,96,30.645833333333332,-4.0,-81.0,155.0,0
1724499857,18.56325,73.8332833,528.9,24.828865979381444,97,30.90721649484536,-3.0,-80.0,155.0,0
1724499858,18.56325,73.8332833,528.9,24.90618556701031,97,30.90721649484536,-5.0,-80.0,154.0,0
1724499859,18.56325,73.8332833,528.9,24.791666666666668,96,30.875,-2.0,-79.0,157.0,0
1724499860,18.56325,73.8332833,528.9,24.366315789473685,95,30.54736842105263,-2.0,-79.0,155.0,0
1724499861,18.56325,73.8332833,528.9,24.662105263157894,95,30.54736842105263,-2.0,-79.0,157.0,0
1724499862,18.56325,73.8332833,528.9,24.79255319148936,94,30.27659574468085,-2.0,-79.0,156.0,0
1724499863,18.56325,73.8332833,528.9,25.032631578947367,95,30.610526315789475,-3.0,-79.0,156.0,0
1724499864,18.56325,73.8332833,528.9,24.90416666666667,96,32.854166666666664,-3.0,-79.0,156.0,0
1724499865,18.56325,73.8332833,528.9,24.957291666666666,96,32.854166666666664,-3.0,-79.0,156.0,0
1724499866,18.56325,73.8332833,528.9,24.809375,96,32.666666666666664,-2.0,-79.0,156.0,0
1724499867,18.56325,73.8332833,528.9,25.001052631578947,95,32.357894736842105,-2.0,-79.0,156.0,0
1724499868,18.56325,73.8332833,528.9,24.910526315789475,95,32.421052631578945,-2.0,-79.0,156.0,0
1724499869,18.56325,73.8332833,528.9,24.98,95,32.421052631578945,-2.0,-79.0,156.0,0
1724499870,18.56325,73.8332833,528.9,24.922916666666666,96,32.34375,-2.0,-79.0,156.0,0
1724499871,18.56325,73.8332833,528.9,24.805208333333336,96,32.354166666666664,-2.0,-79.0,156.0,0
1724499872,18.56325,73.8332833,528.9,24.744210526315786,95,32.410526315789475,-2.0,-79.0,156.0,0
1724499873,18.56325,73.8332833,528.9,24.84842105263158,95,31.51578947368421,-2.0,-79.0,156.0,0
1724499874,18.56325,73.8332833,528.9,24.797916666666666,96,31.4375,-2.0,-79.0,156.0,0
1724499875,18.56325,73.8332833,528.9,24.47083333333333,96,31.4375,-2.0,-79.0,156.0,0
1724499876,18.56325,73.8332833,528.9,24.446875000000002,96,31.4375,-2.0,-79.0,156.0,0
1724499877,18.56325,73.8332833,528.9,24.542105263157893,95,31.11578947368421,-2.0,-79.0,157.0,0
1724499878,18.56325,73.8332833,528.9,24.609473684210528,95,31.11578947368421,-2.0,-79.0,156.0,0
1724499879,18.56325,73.8332833,528.9,24.589473684210525,95,31.11578947368421,-2.0,-79.0,156.0,0
1724499880,18.56325,73.8332833,528.9,24.612631578947365,95,31.11578947368421,-2.0,-79.0,156.0,0
1724499881,18.56325,73.8332833,528.9,24.659999999999997,95,31.105263157894736,-2.0,-79.0,156.0,0
1724499882,18.56325,73.8332833,528.9,24.835106382978722,94,30.71276595744681,-2.0,-79.0,156.0,0
1724499883,18.56325,73.8332833,528.9,24.779999999999998,95,30.4,-2.0,-79.0,156.0,0
1724499884,18.56325,73.8332833,528.9,24.783157894736842,95,30.4,-2.0,-79.0,156.0,0
1724499885,18.56325,73.8332833,528.9,24.783157894736842,95,30.4,-2.0,-79.0,156.0,0
1724499886,18.56325,73.8332833,528.9,24.928421052631577,95,30.410526315789475,-2.0,-79.0,156.0,0
1724499887,18.56325,73.8332833,528.9,24.92736842105263,95,30.410526315789475,-2.0,-79.0,156.0,0
1724499888,18.56325,73.8332833,528.9,24.816842105263156,95,30.410526315789475,-2.0,-79.0,156.0,0
1724499889,18.56325,73.8332833,528.9,24.890425531914893,94,30.46808510638298,-2.0,-79.0,156.0,0
1724499890,18.56325,73.8332833,528.9,24.683157894736844,95,30.410526315789475,-2.0,-79.0,156.0,0
1724499891,18.56325,73.8332833,528.9,24.60842105263158,95,31.989473684210527,-2.0,-79.0,156.0,0
1724499892,18.56325,73.8332833,528.9,24.84166666666667,96,32.197916666666664,-1.0,-79.0,158.0,0
1724499893,18.56325,73.8332833,528.9,24.74301075268817,93,32.40860215053763,-2.0,-79.0,157.0,0
1724499894,18.56325,73.8332833,528.9,24.575,92,32.67391304347826,-2.0,-79.0,157.0,0
1724499895,18.56325,73.8332833,528.9,24.6375,96,32.541666666666664,-2.0,-79.0,157.0,0
1724499896,18.56325,73.8332833,528.9,24.771874999999998,96,32.541666666666664,-2.0,-79.0,157.0,0
1724499897,18.56325,73.8332833,528.9,24.285416666666666,96,32.541666666666664,-2.0,-79.0,157.0,0
1724499898,18.56325,73.8332833,528.9,24.124210526315792,95,32.33684210526316,-2.0,-79.0,157.0,0
1724499899,18.56325,73.8332833,528.9,23.878947368421052,95,32.33684210526316,-2.0,-79.0,157.0,0
1724499900,18.56325,73.8332833,528.9,23.991666666666664,96,31.677083333333332,-2.0,-79.0,157.0,0
1724499901,18.56325,73.8332833,528.9,23.637894736842103,95,31.71578947368421,-2.0,-79.0,157.0,0
1724499902,18.56325,73.8332833,528.9,23.76105263157895,95,31.726315789473684,-2.0,-80.0,157.0,0
1724499903,18.56325,73.8332833,528.9,23.77684210526316,95,31.726315789473684,-2.0,-79.0,157.0,0
1724499904,18.56325,73.8332833,528.9,23.921875,96,31.697916666666668,-2.0,-79.0,157.0,0
1724499905,18.56325,73.8332833,528.9,24.028125,96,31.697916666666668,-2.0,-79.0,157.0,0
1724499906,18.56325,73.8332833,528.9,23.52916666666667,96,31.697916666666668,-2.0,-79.0,157.0,0
1724499907,18.56325,73.8332833,528.9,23.624210526315792,95,32.02105263157895,-2.0,-79.0,157.0,0
1724499908,18.56325,73.8332833,528.9,24.16315789473684,95,32.02105263157895,-2.0,-79.0,157.0,0
1724499909,18.56325,73.8332833,528.9,24.12736842105263,95,31.610526315789475,-2.0,-79.0,157.0,0
1724499910,18.56325,73.8332833,528.9,24.06041666666667,96,31.291666666666668,-2.0,-79.0,157.0,0
1724499911,18.56325,73.8332833,528.9,24.183157894736844,95,31.6,-2.0,-79.0,157.0,0
1724499912,18.56325,73.8332833,528.9,23.98,95,31.621052631578948,-2.0,-79.0,157.0,0
1724499913,18.56325,73.8332833,528.9,23.977659574468085,94,31.659574468085108,-2.0,-79.0,157.0,0
1724499914,18.56325,73.8332833,528.9,23.95263157894737,95,31.63157894736842,-2.0,-79.0,157.0,0
1724499915,18.56325,73.8332833,528.9,23.790526315789474,95,31.63157894736842,-2.0,-79.0,157.0,0
1724499916,18.56325,73.8332833,528.9,23.865263157894734,95,31.621052631578948,-2.0,-79.0,157.0,0
1724499917,18.56325,73.8332833,528.9,23.389473684210525,95,31.326315789473686,-3.0,-79.0,155.0,0
1724499918,18.56325,73.8332833,528.9,23.47684210526316,95,31.0,-3.0,-79.0,156.0,0
1724499919,18.56325,73.8332833,528.9,23.739583333333332,96,30.6875,-2.0,-79.0,157.0,0
1724499920,18.56325,73.8332833,528.9,23.75208333333333,96,30.6875,-3.0,-79.0,156.0,0
1724499921,18.56325,73.8332833,528.9,23.786458333333332,96,30.6875,-3.0,-79.0,156.0,0
1724499922,18.56325,73.8332833,528.9,23.742708333333336,96,30.6875,-3.0,-79.0,156.0,0
1724499923,18.56325,73.8332833,528.9,23.85625,96,30.6875,-2.0,-79.0,157.0,0
1724499924,18.56325,73.8332833,528.9,23.87291666666667,96,30.6875,-2.0,-79.0,156.0,0
1724499925,18.56325,73.8332833,528.9,23.769791666666666,96,30.6875,-3.0,-79.0,156.0,0
1724499926,18.56325,73.8332833,528.9,23.87708333333333,96,30.59375,-2.0,-79.0,157.0,0
1724499927,18.56325,73.8332833,528.9,23.905208333333334,96,30.59375,-2.0,-79.0,157.0,0
1724499928,18.56325,73.8332833,528.9,23.869791666666668,96,30.583333333333332,-2.0,-79.0,156.0,0
1724499929,18.56325,73.8332833,528.9,23.880208333333332,96,30.59375,-3.0,-79.0,156.0,0
1724499930,18.56325,73.8332833,528.9,23.977894736842106,95,32.2,-4.0,-79.0,155.0,0
1724499931,18.56325,73.8332833,528.9,23.902083333333334,96,31.947916666666668,-3.0,-79.0,156.0,0
1724499932,18.56325,73.8332833,528.9,23.945360824742266,97,32.876288659793815,-3.0,-79.0,156.0,0
1724499933,18.56325,73.8332833,528.9,23.978571428571428,98,32.734693877551024,-2.0,-79.0,157.0,0
1724499934,18.56325,73.8332833,528.9,23.872448979591837,98,32.734693877551024,-2.0,-79.0,157.0,0
1724499935,18.56325,73.8332833,528.9,23.712244897959184,98,32.724489795918366,-2.0,-79.0,157.0,0
1724499936,18.56325,73.8332833,528.9,23.88659793814433,97,32.98969072164948,-2.0,-80.0,157.0,0
1724499937,18.56325,73.8332833,528.9,23.85979381443299,97,32.96907216494845,-2.0,-79.0,156.0,0
1724499938,18.56325,73.8332833,528.9,23.813402061855673,97,32.96907216494845,-2.0,-79.0,157.0,0
1724499939,18.56325,73.8332833,528.9,23.842268041237112,97,32.47422680412371,-2.0,-79.0,157.0,0
1724499940,18.56325,73.8332833,528.9,24.043298969072165,97,32.47422680412371,-2.0,-79.0,157.0,0
1724499941,18.56325,73.8332833,528.9,24.15463917525773,97,32.09278350515464,-2.0,-79.0,157.0,0
1724499942,18.56325,73.8332833,528.9,24.191752577319587,97,32.09278350515464,-2.0,-79.0,157.0,0
1724499943,18.56325,73.8332833,528.9,24.183505154639178,97,32.07216494845361,-2.0,-79.0,157.0,0
1724499944,18.56325,73.8332833,528.9,24.186597938144327,97,32.07216494845361,-2.0,-79.0,157.0,0
1724499945,18.56325,73.8332833,528.9,24.22061855670103,97,32.07216494845361,-2.0,-79.0,157.0,0
1724499946,18.56325,73.8332833,528.9,24.010309278350515,97,32.03092783505155,-2.0,-79.0,157.0,0
1724499947,18.56325,73.8332833,528.9,23.89183673469388,98,31.979591836734695,-2.0,-79.0,157.0,0
1724499948,18.56325,73.8332833,528.9,23.819387755102042,98,31.408163265306122,-2.0,-79.0,157.0,0
