timestamp,latitude,longitude,altitude,mean_snr,sat_count,mean_elevation,mean_azimuth,roll,pitch,yaw,is_inclined
1724911154,18.5634033,73.8332617,550.9,22.902298850574713,87,33.3448275862069,150.95402298850576,0.0,-84.0,172.0,0
1724911155,18.5634003,73.8332435,550.6,,0,,,3.0,-84.0,175.0,0
1724911156,18.5633986,73.8332473,551.1,23.33953488372093,86,33.348837209302324,151.6860465116279,3.0,-84.0,175.0,0
1724911157,18.5633982,73.8332554,551.5,23.39080459770115,87,33.87356321839081,153.0344827586207,2.0,-83.0,174.0,0
1724911158,18.5633936,73.8332502,551.6,23.969318181818185,88,34.375,153.75,2.0,-83.0,174.0,0
1724911159,18.5633886,73.8332523,554.1,23.906741573033706,89,33.98876404494382,152.02247191011236,3.0,-84.0,175.0,0
1724911160,18.5633859,73.8332445,553.5,24.047777777777778,90,33.977777777777774,151.3111111111111,3.0,-84.0,175.0,0
1724911161,18.5633852,73.8332425,553.5,24.10888888888889,90,33.977777777777774,151.3111111111111,3.0,-84.0,175.0,0
1724911162,18.563385,73.8332421,553.5,24.52747252747253,91,33.59340659340659,153.01098901098902,3.0,-84.0,175.0,0
1724911163,18.5633849,73.8332421,553.5,24.951648351648352,91,32.86813186813187,151.67032967032966,3.0,-84.0,176.0,0
1724911164,18.5633848,73.833242,553.5,25.31648351648352,91,32.86813186813187,151.67032967032966,3.0,-84.0,175.0,0
1724911165,18.5633849,73.8332418,553.5,25.423076923076923,91,32.86813186813187,151.67032967032966,3.0,-84.0,176.0,0
1724911166,18.563403,73.8332117,540.1999999999999,25.315217391304348,92,32.43478260869565,148.7173913043478,3.0,-84.0,176.0,0
1724911167,18.563408,73.8332057,539.9,25.37391304347826,92,32.43478260869565,148.7173913043478,3.0,-84.0,175.0,0
1724911168,18.5634095,73.8332042,539.9,25.13548387096774,93,32.39784946236559,149.53763440860214,3.0,-84.0,176.0,0
1724911169,18.5634099,73.8332038,539.9,25.17311827956989,93,32.39784946236559,149.53763440860214,3.0,-84.0,175.0,0
1724911170,18.56341,73.8332036,539.9,25.83936170212766,94,32.8936170212766,150.80851063829786,3.0,-84.0,175.0,0
1724911171,18.5634101,73.8332037,539.9,25.72872340425532,94,32.61702127659574,149.14893617021278,3.0,-84.0,175.0,0
1724911172,18.56341,73.8332035,539.9,25.76595744680851,94,32.97872340425532,148.70212765957447,3.0,-84.0,175.0,0
1724911173,18.56341,73.8332034,539.9,25.622105263157895,95,32.96842105263158,150.6421052631579,3.0,-84.0,175.0,0
1724911174,18.56341,73.8332033,539.9,25.725263157894737,95,32.96842105263158,150.6421052631579,3.0,-84.0,175.0,0
1724911175,18.56341,73.8332033,539.9,25.00842105263158,95,32.96842105263158,150.6421052631579,3.0,-84.0,175.0,0
1724911176,18.56341,73.8332033,539.9,25.222105263157893,95,32.96842105263158,150.6421052631579,3.0,-84.0,175.0,0
1724911177,18.56341,73.8332033,539.9,25.49473684210526,95,32.96842105263158,150.6421052631579,3.0,-84.0,176.0,0
1724911178,18.56341,73.8332033,539.9,25.038947368421052,95,32.96842105263158,150.6421052631579,3.0,-84.0,176.0,0
1724911179,18.56341,73.8332033,539.9,24.75957446808511,94,32.97872340425532,148.70212765957447,3.0,-84.0,175.0,0
1724911180,18.56341,73.8332033,539.9,24.403157894736843,95,32.96842105263158,150.6421052631579,3.0,-84.0,175.0,0
1724911181,18.56341,73.8332033,539.9,24.50526315789474,95,33.473684210526315,152.0421052631579,3.0,-84.0,175.0,0
1724911182,18.56341,73.8332033,539.9,24.47052631578947,95,33.578947368421055,154.01052631578946,3.0,-84.0,176.0,0
1724911183,18.56341,73.8332033,539.9,24.250526315789475,95,33.578947368421055,154.01052631578946,3.0,-84.0,176.0,0
1724911184,18.5633848,73.8332081,538.1,24.153684210526315,95,33.578947368421055,154.03157894736842,3.0,-84.0,176.0,0
1724911185,18.5633765,73.8332095,538.0,24.378947368421052,95,33.578947368421055,154.03157894736842,3.0,-84.0,176.0,0
1724911186,18.5633742,73.8332111,537.6999999999999,24.73894736842105,95,33.578947368421055,154.03157894736842,3.0,-84.0,176.0,0
1724911187,18.5633736,73.8332115,537.6999999999999,24.457894736842107,95,33.578947368421055,154.03157894736842,3.0,-84.0,176.0,0
1724911188,18.5633734,73.8332117,537.6999999999999,26.209473684210526,95,33.578947368421055,154.03157894736842,3.0,-84.0,176.0,0
1724911189,18.5633733,73.8332117,537.6999999999999,26.402105263157893,95,33.578947368421055,154.03157894736842,3.0,-84.0,176.0,0
1724911190,18.5633733,73.8332117,537.6999999999999,26.213684210526317,95,33.189473684210526,155.30526315789473,3.0,-84.0,176.0,0
1724911191,18.5633733,73.8332117,537.6999999999999,26.518947368421056,95,32.61052631578947,151.10526315789474,3.0,-84.0,176.0,0
1724911192,18.5633733,73.8332117,537.6999999999999,26.42105263157895,95,32.6,151.1263157894737,3.0,-84.0,176.0,0
1724911193,18.5633733,73.8332117,537.6999999999999,26.209473684210526,95,32.61052631578947,151.13684210526316,3.0,-84.0,176.0,0
1724911194,18.5633733,73.8332117,537.6999999999999,26.303157894736845,95,32.61052631578947,151.13684210526316,3.0,-84.0,176.0,0
1724911195,18.5633733,73.8332117,537.6999999999999,25.03157894736842,95,32.61052631578947,151.13684210526316,3.0,-84.0,176.0,0
1724911196,18.5633733,73.8332117,537.6999999999999,25.14421052631579,95,32.61052631578947,151.13684210526316,-3.0,-84.0,170.0,0
1724911197,18.5633733,73.8332117,537.6999999999999,24.504255319148935,94,32.6063829787234,151.80851063829786,-8.0,-84.0,164.0,0
1724911198,18.5633733,73.8332117,537.6999999999999,24.215957446808513,94,32.3936170212766,149.25531914893617,-1.0,-84.0,171.0,0
1724911199,18.5633733,73.8332117,537.6999999999999,24.30210526315789,95,32.61052631578947,151.13684210526316,15.0,-85.0,188.0,0
1724911200,18.5633733,73.8332117,537.6999999999999,24.579787234042552,94,32.52127659574468,147.2340425531915,-3.0,-84.0,169.0,0
1724911201,18.5633733,73.8332117,537.6999999999999,24.886170212765958,94,32.202127659574465,146.2340425531915,10.0,-85.0,183.0,0
1724911202,18.5633733,73.8332117,537.6999999999999,24.664210526315788,95,32.126315789473686,146.25263157894736,21.0,-84.0,196.0,0
1724911203,18.5633733,73.8332117,537.6999999999999,24.68191489361702,94,32.46808510638298,147.80851063829786,29.0,-83.0,203.0,0
1724911204,18.5633733,73.8332117,537.6999999999999,25.785106382978725,94,32.46808510638298,147.80851063829786,9.0,-83.0,184.0,0
1724911205,18.5633733,73.8332117,537.6999999999999,26.09462365591398,93,32.763440860215056,147.79569892473117,50.0,-86.0,224.0,0
1724911206,18.5633733,73.8332117,537.6999999999999,25.63548387096774,93,32.75268817204301,147.81720430107526,27.0,-84.0,202.0,0
1724911207,18.5633733,73.8332117,537.6999999999999,26.27956989247312,93,32.763440860215056,147.80645161290323,34.0,-86.0,208.0,0
1724911208,18.5633733,73.8332117,537.6999999999999,25.99042553191489,94,32.42553191489362,149.7659574468085,20.0,-87.0,195.0,0
1724911209,18.5633733,73.8332117,537.6999999999999,25.881914893617022,94,32.329787234042556,148.74468085106383,23.0,-84.0,197.0,0
1724911210,18.5633733,73.8332117,537.6999999999999,25.401063829787233,94,32.329787234042556,148.74468085106383,13.0,-83.0,188.0,0
1724911211,18.5633733,73.8332117,537.6999999999999,25.758064516129032,93,32.376344086021504,147.48387096774192,20.0,-83.0,195.0,0
1724911212,18.5633733,73.8332117,537.6999999999999,25.767741935483873,93,32.376344086021504,147.48387096774192,21.0,-83.0,195.0,0
1724911213,18.5633733,73.8332117,537.6999999999999,26.450000000000003,94,33.03191489361702,150.9787234042553,21.0,-83.0,196.0,0
1724911214,18.5633733,73.8332117,537.6999999999999,26.506382978723405,94,33.03191489361702,150.9787234042553,21.0,-83.0,196.0,0
1724911215,18.5633733,73.8332117,537.6999999999999,26.4468085106383,94,33.659574468085104,153.39361702127658,21.0,-83.0,196.0,0
1724911216,18.5633733,73.8332117,537.6999999999999,26.46276595744681,94,33.670212765957444,153.38297872340425,21.0,-83.0,196.0,0
1724911217,18.5633733,73.8332117,537.6999999999999,26.831914893617018,94,33.659574468085104,153.38297872340425,21.0,-83.0,195.0,0
1724911218,18.5633733,73.8332117,537.6999999999999,27.18,95,33.37894736842105,155.0842105263158,21.0,-83.0,195.0,0
1724911219,18.5633733,73.8332117,537.6999999999999,26.297894736842107,95,33.88421052631579,157.6421052631579,21.0,-83.0,196.0,0
1724911220,18.5633733,73.8332117,537.6999999999999,26.050526315789476,95,33.88421052631579,157.6421052631579,21.0,-83.0,195.0,0
1724911221,18.5633733,73.8332117,537.6999999999999,26.422105263157892,95,33.873684210526314,157.65263157894736,21.0,-83.0,195.0,0
1724911222,18.5633733,73.8332117,537.6999999999999,26.670526315789473,95,33.56842105263158,158.07368421052632,21.0,-83.0,195.0,0
1724911223,18.5633733,73.8332117,537.6999999999999,26.610526315789475,95,33.56842105263158,158.0842105263158,21.0,-83.0,195.0,0
1724911224,18.5633733,73.8332117,537.6999999999999,26.557894736842105,95,33.55789473684211,158.09473684210528,21.0,-83.0,195.0,0
1724911225,18.5633733,73.8332117,537.6999999999999,26.594736842105263,95,33.16842105263158,159.3684210526316,21.0,-83.0,195.0,0
1724911226,18.5633733,73.8332117,537.6999999999999,26.568421052631578,95,33.17894736842105,159.3578947368421,21.0,-83.0,195.0,0
1724911227,18.5633733,73.8332117,537.6999999999999,26.708421052631582,95,33.17894736842105,159.3578947368421,21.0,-83.0,195.0,0
1724911228,18.5633733,73.8332117,537.6999999999999,26.616842105263157,95,32.873684210526314,156.81052631578947,21.0,-83.0,195.0,0
1724911229,18.5633733,73.8332117,537.6999999999999,26.653684210526315,95,32.873684210526314,156.81052631578947,21.0,-83.0,195.0,0
1724911230,18.5633733,73.8332117,537.6999999999999,26.701052631578946,95,32.873684210526314,156.81052631578947,21.0,-83.0,195.0,0
1724911231,18.5633733,73.8332117,537.6999999999999,26.659375,96,32.291666666666664,155.94791666666666,21.0,-83.0,195.0,0
1724911232,18.5633733,73.8332117,537.6999999999999,26.777083333333334,96,32.291666666666664,155.94791666666666,21.0,-83.0,195.0,0
1724911233,18.5633733,73.8332117,537.6999999999999,26.925,96,32.291666666666664,155.94791666666666,21.0,-83.0,195.0,0
1724911234,18.5633733,73.8332117,537.6999999999999,26.913684210526316,95,32.6,155.14736842105262,21.0,-83.0,195.0,0
1724911235,18.5633733,73.8332117,537.6999999999999,27.159999999999997,95,32.48421052631579,152.47368421052633,21.0,-83.0,195.0,0
1724911236,18.5633733,73.8332117,537.6999999999999,27.150526315789474,95,32.48421052631579,152.45263157894738,21.0,-83.0,195.0,0
1724911237,18.5633733,73.8332117,537.6999999999999,27.335789473684212,95,32.28421052631579,152.45263157894738,21.0,-83.0,195.0,0
1724911238,18.5633733,73.8332117,537.6999999999999,27.281052631578945,95,32.305263157894736,152.45263157894738,21.0,-83.0,195.0,0
1724911239,18.5633733,73.8332117,537.6999999999999,27.4375,96,32.0,153.26041666666666,21.0,-83.0,195.0,0
1724911240,18.5633733,73.8332117,537.6999999999999,27.114583333333332,96,31.885416666666668,152.28125,21.0,-83.0,195.0,0
1724911241,18.5633733,73.8332117,537.6999999999999,27.344791666666666,96,31.885416666666668,152.28125,21.0,-83.0,195.0,0
1724911242,18.5633733,73.8332117,537.6999999999999,27.346875,96,31.885416666666668,152.28125,21.0,-83.0,195.0,0
1724911243,18.5633733,73.8332117,537.6999999999999,27.431250000000002,96,31.885416666666668,152.32291666666666,21.0,-83.0,195.0,0
1724911244,18.5633733,73.8332117,537.6999999999999,27.284375,96,31.770833333333332,151.34375,21.0,-83.0,195.0,0
1724911245,18.5633733,73.8332117,537.6999999999999,27.196875000000002,96,31.770833333333332,151.34375,21.0,-83.0,195.0,0
1724911246,18.5633733,73.8332117,537.6999999999999,27.301041666666666,96,31.770833333333332,151.34375,21.0,-83.0,195.0,0
1724911247,18.5633733,73.8332117,537.6999999999999,27.234375,96,31.770833333333332,151.34375,21.0,-83.0,195.0,0
1724911248,18.5633733,73.8332117,537.6999999999999,26.936458333333334,96,31.770833333333332,151.34375,21.0,-83.0,195.0,0
1724911249,18.5633733,73.8332117,537.6999999999999,27.059375,96,31.770833333333332,151.32291666666666,21.0,-83.0,195.0,0
1724911250,18.5633733,73.8332117,537.6999999999999,27.03333333333333,96,31.770833333333332,151.32291666666666,21.0,-83.0,195.0,0
1724911251,18.5633733,73.8332117,537.6999999999999,27.054166666666664,96,31.770833333333332,151.34375,21.0,-83.0,195.0,0
1724911252,18.5633733,73.8332117,537.6999999999999,26.958333333333332,96,31.75,151.36458333333334,21.0,-83.0,195.0,0
1724911253,18.5633733,73.8332117,537.6999999999999,27.041666666666668,96,31.729166666666668,151.36458333333334,21.0,-83.0,195.0,0
1724911254,18.5633733,73.8332117,537.6999999999999,27.289583333333336,96,31.729166666666668,151.36458333333334,21.0,-83.0,195.0,0
1724911255,18.5633733,73.8332117,537.6999999999999,27.198958333333334,96,31.729166666666668,151.36458333333334,20.0,-83.0,195.0,0
1724911256,18.5633733,73.8332117,537.6999999999999,27.014583333333334,96,31.729166666666668,151.36458333333334,21.0,-83.0,195.0,0
1724911257,18.5633733,73.8332117,537.6999999999999,27.00208333333333,96,31.729166666666668,151.36458333333334,21.0,-83.0,195.0,0
1724911258,18.5633733,73.8332117,537.6999999999999,27.085416666666664,96,31.729166666666668,151.36458333333334,20.0,-83.0,195.0,0
1724911259,18.5633733,73.8332117,537.6999999999999,26.946875000000002,96,31.729166666666668,151.36458333333334,20.0,-83.0,195.0,0
1724911260,18.5633733,73.8332117,537.6999999999999,26.683333333333334,96,31.729166666666668,151.36458333333334,20.0,-83.0,195.0,0
1724911261,18.5633733,73.8332117,537.6999999999999,26.746875,96,31.729166666666668,151.36458333333334,20.0,-83.0,195.0,0
1724911262,18.5633733,73.8332117,537.6999999999999,26.743750000000002,96,31.729166666666668,151.36458333333334,20.0,-83.0,195.0,0
1724911263,18.5633733,73.8332117,537.6999999999999,26.43958333333333,96,31.729166666666668,151.36458333333334,20.0,-83.0,195.0,0
1724911264,18.5633733,73.8332117,537.6999999999999,26.75208333333333,96,33.03125,155.91666666666666,20.0,-83.0,195.0,0
1724911265,18.5633733,73.8332117,537.6999999999999,26.7,96,33.53125,158.44791666666666,20.0,-83.0,195.0,0
1724911266,18.5633733,73.8332117,537.6999999999999,26.640625,96,33.53125,158.44791666666666,20.0,-83.0,195.0,0
1724911267,18.5633733,73.8332117,537.6999999999999,26.745833333333334,96,33.520833333333336,158.4375,20.0,-83.0,195.0,0
1724911268,18.5633733,73.8332117,537.6999999999999,26.776041666666668,96,33.520833333333336,158.44791666666666,21.0,-83.0,195.0,0
1724911269,18.5633733,73.8332117,537.6999999999999,26.722916666666666,96,33.520833333333336,158.44791666666666,20.0,-83.0,194.0,0
1724911270,18.5633733,73.8332117,537.6999999999999,26.461458333333336,96,33.510416666666664,158.44791666666666,20.0,-83.0,194.0,0
1724911271,18.5633733,73.8332117,537.6999999999999,26.386458333333334,96,33.510416666666664,158.44791666666666,20.0,-83.0,194.0,0
1724911272,18.5633733,73.8332117,537.6999999999999,26.43541666666667,96,33.510416666666664,158.44791666666666,20.0,-83.0,194.0,0
1724911273,18.5633733,73.8332117,537.6999999999999,26.428124999999998,96,32.822916666666664,160.125,20.0,-83.0,194.0,0
1724911274,18.5633733,73.8332117,537.6999999999999,26.488541666666666,96,32.822916666666664,160.125,20.0,-83.0,194.0,0
1724911275,18.5633733,73.8332117,537.6999999999999,26.596875,96,32.520833333333336,157.59375,20.0,-83.0,194.0,0
1724911276,18.5633733,73.8332117,537.6999999999999,26.490624999999998,96,32.520833333333336,157.59375,20.0,-83.0,194.0,0
1724911277,18.5633733,73.8332117,537.6999999999999,26.409375,96,32.520833333333336,157.59375,20.0,-83.0,194.0,0
1724911278,18.5633733,73.8332117,537.6999999999999,26.469791666666666,96,32.520833333333336,157.59375,20.0,-83.0,194.0,0
1724911279,18.5633733,73.8332117,537.6999999999999,26.629166666666666,96,32.520833333333336,157.59375,20.0,-83.0,194.0,0
1724911280,18.5633733,73.8332117,537.6999999999999,26.50208333333333,96,32.520833333333336,157.59375,20.0,-83.0,194.0,0
1724911281,18.5633733,73.8332117,537.6999999999999,26.821875000000002,96,32.520833333333336,157.59375,20.0,-83.0,194.0,0
1724911282,18.5633733,73.8332117,537.6999999999999,26.775000000000002,96,32.114583333333336,153.35416666666666,20.0,-83.0,194.0,0
1724911283,18.5633733,73.8332117,537.6999999999999,26.805208333333336,96,32.114583333333336,153.35416666666666,20.0,-83.0,195.0,0
1724911284,18.5633733,73.8332117,537.6999999999999,26.7375,96,32.604166666666664,155.54166666666666,20.0,-83.0,194.0,0
1724911285,18.5633733,73.8332117,537.6999999999999,26.709374999999998,96,32.604166666666664,155.54166666666666,20.0,-83.0,195.0,0
1724911286,18.5633733,73.8332117,537.6999999999999,26.8125,96,32.604166666666664,155.54166666666666,20.0,-83.0,194.0,0
1724911287,18.5633733,73.8332117,537.6999999999999,26.726041666666664,96,32.604166666666664,155.54166666666666,20.0,-83.0,194.0,0
1724911288,18.5633733,73.8332117,537.6999999999999,26.696875000000002,96,32.604166666666664,155.54166666666666,20.0,-83.0,194.0,0
1724911289,18.5633733,73.8332117,537.6999999999999,27.008333333333336,96,32.604166666666664,155.54166666666666,20.0,-83.0,194.0,0
1724911290,18.5633789,73.8331949,523.6999999999999,26.717708333333334,96,32.604166666666664,155.54166666666666,20.0,-83.0,194.0,0
1724911291,18.5633813,73.8331935,523.6999999999999,26.542708333333334,96,33.510416666666664,158.45833333333334,20.0,-83.0,194.0,0
1724911292,18.5633802,73.8331933,523.9,26.4375,96,33.510416666666664,158.45833333333334,20.0,-83.0,194.0,0
1724911293,18.56338,73.8331933,523.8,26.667708333333334,96,33.208333333333336,158.875,20.0,-83.0,194.0,0
1724911294,18.56338,73.8331933,523.8,26.354166666666668,96,33.208333333333336,158.875,20.0,-83.0,194.0,0
1724911295,18.56338,73.8331933,523.8,26.395833333333332,96,33.229166666666664,158.85416666666666,20.0,-83.0,194.0,0
1724911296,18.56338,73.8331933,523.8,26.37291666666667,96,33.229166666666664,158.85416666666666,20.0,-83.0,194.0,0
1724911297,18.56338,73.8331933,523.8,26.501041666666666,96,33.229166666666664,158.89583333333334,20.0,-83.0,194.0,0
1724911298,18.56338,73.8331933,523.8,26.604166666666668,96,33.229166666666664,158.89583333333334,20.0,-83.0,194.0,0
1724911299,18.56338,73.8331933,523.8,26.52916666666667,96,33.229166666666664,158.89583333333334,20.0,-83.0,194.0,0
1724911300,18.56338,73.8331933,523.8,26.296875,96,32.541666666666664,157.625,20.0,-83.0,194.0,0
1724911301,18.56338,73.8331933,523.8,26.347916666666666,96,32.541666666666664,157.625,20.0,-83.0,194.0,0
1724911302,18.56338,73.8331933,523.8,26.342708333333334,96,32.541666666666664,157.625,20.0,-83.0,194.0,0
1724911303,18.56338,73.8331933,523.8,26.336458333333336,96,32.270833333333336,156.0,20.0,-83.0,194.0,0
1724911304,18.56338,73.8331933,523.8,26.086458333333336,96,32.270833333333336,156.0,20.0,-83.0,194.0,0
1724911305,18.56338,73.8331933,523.8,26.116666666666664,96,32.25,156.0625,20.0,-83.0,194.0,0
1724911306,18.56338,73.8331933,523.8,26.302083333333332,96,32.25,156.0625,20.0,-83.0,194.0,0
1724911307,18.56338,73.8331933,523.8,26.307291666666668,96,32.25,156.0625,20.0,-83.0,194.0,0
1724911308,18.56338,73.8331933,523.8,26.65416666666667,96,32.25,156.0625,20.0,-83.0,194.0,0
1724911309,18.56338,73.8331933,523.8,26.586458333333336,96,31.916666666666668,153.4375,20.0,-83.0,194.0,0
1724911310,18.56338,73.8331933,523.8,26.510416666666668,96,31.916666666666668,153.47916666666666,20.0,-83.0,194.0,0
1724911311,18.56338,73.8331933,523.8,26.421875,96,31.916666666666668,153.4375,20.0,-83.0,194.0,0
1724911312,18.56338,73.8331933,523.8,26.484375,96,31.802083333333332,152.45833333333334,20.0,-83.0,194.0,0
1724911313,18.56338,73.8331933,523.8,26.43541666666667,96,31.802083333333332,152.45833333333334,20.0,-83.0,194.0,0
1724911314,18.56338,73.8331933,523.8,26.347916666666666,96,31.8125,152.4375,20.0,-83.0,194.0,0
1724911315,18.56338,73.8331933,523.8,26.620833333333334,96,31.822916666666668,152.4375,20.0,-83.0,194.0,0
1724911316,18.56338,73.8331933,523.8,26.585416666666664,96,31.8125,152.4375,20.0,-83.0,194.0,0
1724911317,18.56338,73.8331933,523.8,26.53125,96,31.8125,152.4375,20.0,-83.0,194.0,0
1724911318,18.56338,73.8331933,523.8,26.734375,96,31.71875,151.4375,20.0,-83.0,194.0,0
1724911319,18.56338,73.8331933,523.8,26.834374999999998,96,31.739583333333332,151.5,20.0,-83.0,194.0,0
1724911320,18.56338,73.8331933,523.8,26.808333333333334,96,31.739583333333332,151.5,20.0,-83.0,194.0,0
1724911321,18.56338,73.8331933,523.8,26.652083333333334,96,31.739583333333332,151.5,20.0,-83.0,194.0,0
1724911322,18.56338,73.8331933,523.8,26.772916666666664,96,31.739583333333332,151.52083333333334,20.0,-83.0,194.0,0
1724911323,18.56338,73.8331933,523.8,26.952083333333334,96,31.739583333333332,151.52083333333334,20.0,-83.0,194.0,0
1724911324,18.56338,73.8331933,523.8,26.866666666666664,96,31.739583333333332,151.52083333333334,20.0,-83.0,194.0,0
1724911325,18.56338,73.8331933,523.8,26.927083333333332,96,33.041666666666664,156.07291666666666,20.0,-83.0,194.0,0
1724911326,18.56338,73.8331933,523.8,27.022916666666664,96,32.916666666666664,156.38541666666666,20.0,-83.0,194.0,0
1724911327,18.56338,73.8331933,523.8,26.957291666666666,96,32.916666666666664,156.38541666666666,20.0,-83.0,194.0,0
1724911328,18.56338,73.8331933,523.8,26.985416666666666,96,33.354166666666664,158.39583333333334,20.0,-83.0,194.0,0
1724911329,18.56338,73.8331933,523.8,26.805208333333336,96,33.354166666666664,158.52083333333334,20.0,-83.0,194.0,0
1724911330,18.56338,73.8331933,523.8,26.882291666666664,96,33.354166666666664,158.52083333333334,20.0,-83.0,194.0,0
1724911331,18.56338,73.8331933,523.8,26.854166666666668,96,33.333333333333336,158.52083333333334,20.0,-83.0,194.0,0
1724911332,18.56338,73.8331933,523.8,26.88854166666667,96,33.333333333333336,158.52083333333334,20.0,-83.0,194.0,0
1724911333,18.56338,73.8331933,523.8,26.511458333333334,96,33.333333333333336,158.52083333333334,20.0,-83.0,194.0,0
1724911334,18.56338,73.8331933,523.8,26.559375,96,32.666666666666664,160.21875,20.0,-83.0,194.0,0
1724911335,18.56338,73.8331933,523.8,26.414583333333336,96,32.666666666666664,160.21875,20.0,-83.0,194.0,0
1724911336,18.56338,73.8331933,523.8,26.573958333333334,96,32.666666666666664,160.21875,20.0,-83.0,194.0,0
1724911337,18.56338,73.8331933,523.8,26.53333333333333,96,32.364583333333336,157.6875,20.0,-83.0,194.0,0
1724911338,18.56338,73.8331933,523.8,26.681250000000002,96,32.364583333333336,157.6875,20.0,-83.0,194.0,0
1724911339,18.56338,73.8331933,523.8,26.775000000000002,96,32.364583333333336,157.6875,20.0,-83.0,194.0,0
1724911340,18.56338,73.8331933,523.8,26.55,96,32.364583333333336,157.6875,20.0,-83.0,194.0,0
1724911341,18.56338,73.8331933,523.8,26.870833333333334,96,32.385416666666664,157.6875,20.0,-83.0,194.0,0
1724911342,18.56338,73.8331933,523.8,27.0,96,32.385416666666664,157.6875,20.0,-83.0,194.0,0
1724911343,18.56338,73.8331933,523.8,26.782291666666666,96,32.385416666666664,157.6875,20.0,-83.0,195.0,0
1724911344,18.56338,73.8331933,523.8,26.602083333333336,96,31.979166666666668,153.4375,20.0,-83.0,194.0,0
1724911345,18.56338,73.8331933,523.8,26.95104166666667,96,31.979166666666668,153.4375,20.0,-83.0,195.0,0
1724911346,18.56338,73.8331933,523.8,26.696875000000002,96,31.979166666666668,153.4375,20.0,-83.0,194.0,0
1724911347,18.56338,73.8331933,523.8,26.694791666666664,96,31.78125,153.4375,20.0,-83.0,195.0,0
1724911348,18.56338,73.8331933,523.8,26.75208333333333,96,31.78125,153.4375,20.0,-83.0,194.0,0
1724911349,18.56338,73.8331933,523.8,27.03125,96,31.78125,153.4375,20.0,-83.0,194.0,0
1724911350,18.56338,73.8331933,523.8,26.91979166666667,96,31.78125,153.4375,20.0,-83.0,194.0,0
1724911351,18.56338,73.8331933,523.8,26.816666666666666,96,31.78125,153.4375,20.0,-83.0,194.0,0
1724911352,18.56338,73.8331933,523.8,26.672916666666666,96,31.78125,153.4375,20.0,-83.0,194.0,0
1724911353,18.56338,73.8331933,523.8,26.809375,96,31.572916666666668,151.45833333333334,20.0,-83.0,194.0,0
1724911354,18.56338,73.8331933,523.8,26.740624999999998,96,31.572916666666668,151.45833333333334,20.0,-83.0,194.0,0
1724911355,18.56338,73.8331933,523.8,27.01770833333333,96,31.572916666666668,151.45833333333334,20.0,-83.0,194.0,0
1724911356,18.56338,73.8331933,523.8,27.082291666666666,96,31.572916666666668,151.4375,20.0,-83.0,194.0,0
1724911357,18.56338,73.8331933,523.8,27.223958333333332,96,31.572916666666668,151.4375,20.0,-83.0,194.0,0
1724911358,18.56338,73.8331933,523.8,27.10729166666667,96,31.572916666666668,151.4375,20.0,-83.0,194.0,0
1724911359,18.56338,73.8331933,523.8,27.059375,96,31.572916666666668,151.4375,20.0,-83.0,194.0,0
1724911360,18.56338,73.8331933,523.8,26.936458333333334,96,31.572916666666668,151.5,20.0,-83.0,194.0,0
1724911361,18.56338,73.8331933,523.8,26.90625,96,31.572916666666668,151.5,20.0,-83.0,194.0,0
1724911362,18.56338,73.8331933,523.8,26.914583333333336,96,31.552083333333332,151.54166666666666,20.0,-83.0,194.0,0
1724911363,18.56338,73.8331933,523.8,26.734375,96,31.552083333333332,151.54166666666666,20.0,-83.0,194.0,0
1724911364,18.56338,73.8331933,523.8,26.903125,96,31.552083333333332,151.54166666666666,20.0,-83.0,194.0,0
1724911365,18.56338,73.8331933,523.8,26.866666666666664,96,31.552083333333332,151.54166666666666,20.0,-83.0,195.0,0
1724911366,18.56338,73.8331933,523.8,26.897916666666664,96,31.552083333333332,151.54166666666666,21.0,-83.0,195.0,0
1724911367,18.56338,73.8331933,523.8,26.821875000000002,96,31.541666666666668,151.55208333333334,20.0,-83.0,195.0,0
1724911368,18.56338,73.8331933,523.8,26.909375,96,31.541666666666668,151.57291666666666,20.0,-83.0,195.0,0
1724911369,18.56338,73.8331933,523.8,26.467708333333334,96,31.541666666666668,151.59375,20.0,-83.0,194.0,0
1724911370,18.56338,73.8331933,523.8,26.59583333333333,96,31.541666666666668,151.59375,20.0,-83.0,194.0,0
1724911371,18.56338,73.8331933,523.8,26.541666666666668,96,31.541666666666668,151.59375,20.0,-83.0,194.0,0
1724911372,18.56338,73.8331933,523.8,26.7680412371134,97,31.556701030927837,153.04123711340208,20.0,-83.0,194.0,0
1724911373,18.56338,73.8331933,523.8,26.943298969072163,97,32.845360824742265,157.5463917525773,20.0,-83.0,194.0,0
1724911374,18.56338,73.8331933,523.8,26.939175257731957,97,32.845360824742265,157.5463917525773,20.0,-83.0,194.0,0
1724911375,18.56338,73.8331933,523.8,26.81855670103093,97,32.845360824742265,157.5463917525773,20.0,-83.0,194.0,0
1724911376,18.56338,73.8331933,523.8,26.824742268041238,97,32.845360824742265,157.5463917525773,20.0,-83.0,194.0,0
1724911377,18.56338,73.8331933,523.8,26.862886597938143,97,32.845360824742265,157.5463917525773,20.0,-83.0,194.0,0
1724911378,18.56338,73.8331933,523.8,26.413265306122447,98,32.55102040816327,157.12244897959184,20.0,-83.0,194.0,0
1724911379,18.56338,73.8331933,523.8,26.566326530612244,98,33.04081632653061,159.60204081632654,20.0,-83.0,194.0,0
1724911380,18.56338,73.8331933,523.8,26.852040816326532,98,33.04081632653061,159.60204081632654,20.0,-83.0,194.0,0
1724911381,18.56338,73.8331933,523.8,26.525252525252526,99,32.73737373737374,159.5050505050505,20.0,-83.0,194.0,0
1724911382,18.56338,73.8331933,523.8,26.57171717171717,99,32.06060606060606,161.17171717171718,20.0,-83.0,194.0,0
1724911383,18.56338,73.8331933,523.8,26.73333333333333,99,32.08080808080808,161.17171717171718,20.0,-83.0,194.0,0
1724911384,18.56338,73.8331933,523.8,26.748484848484846,99,32.09090909090909,161.1818181818182,20.0,-83.0,194.0,0
1724911385,18.56338,73.8331933,523.8,26.799999999999997,99,32.09090909090909,161.1818181818182,20.0,-83.0,194.0,0
1724911386,18.56338,73.8331933,523.8,26.697979797979798,99,32.09090909090909,161.1818181818182,20.0,-83.0,194.0,0
1724911387,18.56338,73.8331933,523.8,26.637373737373736,99,32.09090909090909,161.1818181818182,20.0,-83.0,194.0,0
1724911388,18.56338,73.8331933,523.8,26.786868686868686,99,31.7979797979798,158.72727272727272,20.0,-83.0,194.0,0
1724911389,18.56338,73.8331933,523.8,26.7010101010101,99,31.7979797979798,158.72727272727272,20.0,-83.0,194.0,0
1724911390,18.56338,73.8331933,523.8,26.577777777777776,99,31.7979797979798,158.72727272727272,20.0,-83.0,194.0,0
1724911391,18.56338,73.8331933,523.8,26.710101010101013,99,31.404040404040405,154.6161616161616,20.0,-83.0,194.0,0
1724911392,18.56338,73.8331933,523.8,26.647474747474746,99,31.404040404040405,154.6060606060606,20.0,-83.0,194.0,0
1724911393,18.56338,73.8331933,523.8,26.7010101010101,99,31.404040404040405,154.6060606060606,20.0,-83.0,194.0,0
1724911394,18.56338,73.8331933,523.8,26.74040404040404,99,31.404040404040405,154.6161616161616,20.0,-83.0,194.0,0
1724911395,18.56338,73.8331933,523.8,26.633333333333333,99,31.414141414141415,154.6060606060606,20.0,-83.0,194.0,0
1724911396,18.56338,73.8331933,523.8,26.694949494949498,99,31.414141414141415,154.6060606060606,20.0,-83.0,194.0,0
1724911397,18.56338,73.8331933,523.8,26.75050505050505,99,31.404040404040405,154.6060606060606,20.0,-83.0,194.0,0
1724911398,18.56338,73.8331933,523.8,26.71515151515152,99,31.87878787878788,156.72727272727272,20.0,-83.0,194.0,0
1724911399,18.56338,73.8331933,523.8,26.714141414141412,99,31.88888888888889,156.72727272727272,20.0,-83.0,194.0,0
1724911400,18.56338,73.8331933,523.8,26.822222222222223,99,32.75757575757576,159.56565656565655,20.0,-83.0,194.0,0
1724911401,18.56338,73.8331933,523.8,26.792929292929294,99,32.75757575757576,159.56565656565655,20.0,-83.0,194.0,0
1724911402,18.56338,73.8331933,523.8,26.775757575757577,99,32.75757575757576,159.56565656565655,19.0,-83.0,194.0,0
1724911403,18.56338,73.8331933,523.8,26.782828282828284,99,32.75757575757576,159.56565656565655,20.0,-83.0,194.0,0
1724911404,18.56338,73.8331933,523.8,26.586868686868687,99,32.75757575757576,159.56565656565655,20.0,-83.0,194.0,0
1724911405,18.56338,73.8331933,523.8,26.788888888888888,99,32.75757575757576,159.56565656565655,19.0,-83.0,193.0,0
1724911406,18.56338,73.8331933,523.8,26.780808080808082,99,32.75757575757576,159.56565656565655,19.0,-83.0,194.0,0
1724911407,18.56338,73.8331933,523.8,26.748484848484846,99,32.464646464646464,159.96969696969697,19.0,-83.0,193.0,0
1724911408,18.56338,73.8331933,523.8,26.634343434343435,99,32.464646464646464,159.96969696969697,19.0,-83.0,193.0,0
1724911409,18.56338,73.8331933,523.8,26.72222222222222,99,31.7979797979798,158.73737373737373,19.0,-83.0,193.0,0
1724911410,18.56338,73.8331933,523.8,26.69393939393939,99,31.818181818181817,158.7171717171717,19.0,-83.0,193.0,0
1724911411,18.56338,73.8331933,523.8,26.835714285714285,98,31.857142857142858,157.59183673469389,19.0,-83.0,193.0,0
1724911412,18.56338,73.8331933,523.8,26.807142857142857,98,31.857142857142858,157.57142857142858,19.0,-83.0,194.0,0
1724911413,18.56338,73.8331933,523.8,26.71938775510204,98,31.857142857142858,157.57142857142858,19.0,-83.0,193.0,0
1724911414,18.56338,73.8331933,523.8,26.646464646464647,99,31.838383838383837,158.65656565656565,19.0,-82.0,193.0,0
1724911415,18.56338,73.8331933,523.8,26.555555555555557,99,31.838383838383837,158.65656565656565,19.0,-83.0,193.0,0
1724911416,18.56338,73.8331933,523.8,26.638383838383838,99,31.838383838383837,158.65656565656565,19.0,-83.0,193.0,0
1724911417,18.56338,73.8331933,523.8,26.694949494949498,99,31.575757575757574,157.08080808080808,19.0,-83.0,193.0,0
1724911418,18.56338,73.8331933,523.8,26.67373737373737,99,31.575757575757574,157.08080808080808,19.0,-83.0,193.0,0
1724911419,18.56338,73.8331933,523.8,26.80808080808081,99,31.252525252525253,154.57575757575756,19.0,-83.0,193.0,0
1724911420,18.56338,73.8331933,523.8,26.556565656565656,99,31.232323232323232,154.57575757575756,19.0,-83.0,193.0,0
1724911421,18.56338,73.8331933,523.8,26.721212121212123,99,31.232323232323232,154.57575757575756,19.0,-83.0,193.0,0
1724911422,18.56338,73.8331933,523.8,26.596969696969698,99,31.232323232323232,154.57575757575756,19.0,-83.0,193.0,0
1724911423,18.56338,73.8331933,523.8,26.595959595959595,99,31.232323232323232,154.57575757575756,19.0,-83.0,193.0,0
1724911424,18.56338,73.8331933,523.8,26.703061224489797,98,31.285714285714285,153.44897959183675,19.0,-83.0,193.0,0
1724911425,18.56338,73.8331933,523.8,26.661616161616163,99,31.272727272727273,154.57575757575756,18.0,-83.0,192.0,0
1724911426,18.56338,73.8331933,523.8,26.810101010101008,99,31.272727272727273,154.56565656565655,19.0,-83.0,193.0,0
1724911427,18.56338,73.8331933,523.8,26.711111111111112,99,31.161616161616163,153.63636363636363,18.0,-82.0,192.0,0
1724911428,18.56338,73.8331933,523.8,26.812121212121212,99,31.050505050505052,152.66666666666666,18.0,-82.0,193.0,0
1724911429,18.56338,73.8331933,523.8,26.698989898989897,99,31.01010101010101,152.66666666666666,18.0,-83.0,192.0,0
1724911430,18.56338,73.8331933,523.8,26.751515151515154,99,31.01010101010101,152.66666666666666,19.0,-83.0,193.0,0
1724911431,18.56338,73.8331933,523.8,26.628282828282828,99,31.01010101010101,152.66666666666666,18.0,-83.0,193.0,0
1724911432,18.56338,73.8331933,523.8,26.748484848484846,99,31.01010101010101,152.66666666666666,18.0,-83.0,193.0,0
1724911433,18.56338,73.8331933,523.8,26.775757575757577,99,31.01010101010101,152.66666666666666,18.0,-83.0,192.0,0
1724911434,18.56338,73.8331933,523.8,26.66060606060606,99,31.67676767676768,154.78787878787878,18.0,-83.0,192.0,0
1724911435,18.56338,73.8331933,523.8,26.710101010101013,99,31.67676767676768,154.78787878787878,18.0,-83.0,193.0,0
1724911436,18.56338,73.8331933,523.8,26.527272727272724,99,31.67676767676768,154.78787878787878,18.0,-83.0,193.0,0
1724911437,18.56338,73.8331933,523.8,26.757142857142856,98,31.714285714285715,153.6326530612245,18.0,-83.0,192.0,0
1724911438,18.56338,73.8331933,523.8,26.702040816326534,98,32.316326530612244,155.94897959183675,18.0,-83.0,192.0,0
1724911439,18.56338,73.8331933,523.8,26.703061224489797,98,32.316326530612244,155.94897959183675,18.0,-83.0,192.0,0
1724911440,18.56338,73.8331933,523.8,26.594897959183676,98,32.80612244897959,158.42857142857142,18.0,-83.0,192.0,0
1724911441,18.56338,73.8331933,523.8,26.76938775510204,98,32.80612244897959,158.42857142857142,18.0,-83.0,192.0,0
1724911442,18.56338,73.8331933,523.8,26.656122448979595,98,32.80612244897959,158.42857142857142,18.0,-83.0,192.0,0
1724911443,18.56338,73.8331933,523.8,26.73775510204082,98,32.51020408163265,158.83673469387756,18.0,-83.0,193.0,0
1724911444,18.56338,73.8331933,523.8,26.726530612244897,98,32.51020408163265,158.85714285714286,18.0,-83.0,193.0,0
1724911445,18.56338,73.8331933,523.8,26.814285714285717,98,32.51020408163265,158.85714285714286,18.0,-83.0,193.0,0
1724911446,18.56338,73.8331933,523.8,26.741836734693877,98,32.51020408163265,158.85714285714286,18.0,-83.0,193.0,0
1724911447,18.56338,73.8331933,523.8,26.909183673469386,98,32.51020408163265,158.85714285714286,18.0,-83.0,193.0,0
1724911448,18.56338,73.8331933,523.8,26.752040816326527,98,32.13265306122449,160.09183673469389,18.0,-83.0,193.0,0
1724911449,18.56338,73.8331933,523.8,26.705102040816325,98,31.836734693877553,157.6122448979592,18.0,-83.0,193.0,0
1724911450,18.56338,73.8331933,523.8,26.78673469387755,98,31.836734693877553,157.6122448979592,19.0,-84.0,193.0,0
1724911451,18.56338,73.8331933,523.8,26.601020408163265,98,31.8265306122449,157.6122448979592,19.0,-83.0,193.0,0
1724911452,18.56338,73.8331933,523.8,26.70408163265306,98,31.8265306122449,157.6122448979592,19.0,-83.0,193.0,0
1724911453,18.56338,73.8331933,523.8,26.66530612244898,98,31.56122448979592,156.0204081632653,19.0,-83.0,193.0,0
1724911454,18.56338,73.8331933,523.8,26.65714285714286,98,31.56122448979592,156.0204081632653,19.0,-83.0,193.0,0
1724911455,18.56338,73.8331933,523.8,26.567346938775508,98,31.56122448979592,156.0204081632653,19.0,-83.0,193.0,0
1724911456,18.56338,73.8331933,523.8,26.482653061224493,98,31.56122448979592,156.0204081632653,19.0,-83.0,193.0,0
1724911457,18.56338,73.8331933,523.8,26.697959183673472,98,31.428571428571427,153.44897959183675,19.0,-83.0,193.0,0
1724911458,18.56338,73.8331933,523.8,26.83877551020408,98,31.428571428571427,153.44897959183675,19.0,-83.0,193.0,0
1724911459,18.56338,73.8331933,523.8,26.633673469387755,98,31.23469387755102,153.44897959183675,19.0,-83.0,193.0,0
1724911460,18.56338,73.8331933,523.8,26.711224489795917,98,31.23469387755102,153.44897959183675,19.0,-83.0,193.0,0
1724911461,18.56338,73.8331933,523.8,26.760204081632654,98,31.23469387755102,153.44897959183675,19.0,-83.0,193.0,0
1724911462,18.56338,73.8331933,523.8,26.668367346938776,98,31.122448979591837,152.48979591836735,19.0,-83.0,193.0,0
1724911463,18.56338,73.8331933,523.8,26.77755102040816,98,31.122448979591837,152.48979591836735,18.0,-83.0,193.0,0
1724911464,18.56338,73.8331933,523.8,26.727551020408164,98,31.122448979591837,152.48979591836735,19.0,-83.0,193.0,0
1724911465,18.56338,73.8331933,523.8,26.742857142857144,98,31.122448979591837,152.48979591836735,18.0,-83.0,193.0,0
1724911466,18.56338,73.8331933,523.8,26.68877551020408,98,31.03061224489796,151.51020408163265,18.0,-83.0,193.0,0
1724911467,18.56338,73.8331933,523.8,26.723469387755102,98,31.03061224489796,151.51020408163265,18.0,-83.0,193.0,0
1724911468,18.56338,73.8331933,523.8,,0,,,18.0,-83.0,193.0,0
1724911469,18.56338,73.8331933,523.8,26.685204081632655,196,31.03061224489796,151.51020408163265,18.0,-83.0,193.0,0
1724911470,18.56338,73.8331933,523.8,26.636734693877553,98,31.03061224489796,151.51020408163265,19.0,-83.0,193.0,0
1724911471,18.56338,73.8331933,523.8,26.601020408163265,98,31.051020408163264,151.48979591836735,18.0,-83.0,193.0,0
1724911472,18.56338,73.8331933,523.8,26.562244897959182,98,31.051020408163264,151.48979591836735,18.0,-83.0,193.0,0
1724911473,18.56338,73.8331933,523.8,26.59591836734694,98,31.051020408163264,151.53061224489795,18.0,-83.0,193.0,0
1724911474,18.56338,73.8331933,523.8,26.575510204081635,98,31.051020408163264,151.53061224489795,18.0,-83.0,193.0,0
1724911475,18.56338,73.8331933,523.8,26.659183673469386,98,31.051020408163264,151.53061224489795,18.0,-83.0,193.0,0
1724911476,18.56338,73.8331933,523.8,26.681632653061225,98,31.051020408163264,151.53061224489795,18.0,-83.0,193.0,0
1724911477,18.56338,73.8331933,523.8,26.568367346938775,98,31.051020408163264,151.53061224489795,18.0,-83.0,193.0,0
1724911478,18.56338,73.8331933,523.8,26.6,98,31.051020408163264,151.53061224489795,18.0,-83.0,193.0,0
1724911479,18.56338,73.8331933,523.8,26.569387755102042,98,31.051020408163264,151.53061224489795,19.0,-83.0,193.0,0
1724911480,18.56338,73.8331933,523.8,26.467346938775513,98,31.051020408163264,151.53061224489795,18.0,-84.0,193.0,0
1724911481,18.56338,73.8331933,523.8,26.5,98,31.051020408163264,151.57142857142858,19.0,-84.0,193.0,0
1724911482,18.56338,73.8331933,523.8,26.516326530612243,98,31.051020408163264,151.57142857142858,19.0,-84.0,193.0,0
1724911483,18.56338,73.8331933,523.8,26.453061224489797,98,31.051020408163264,151.57142857142858,19.0,-83.0,193.0,0
1724911484,18.56338,73.8331933,523.8,26.478571428571428,98,31.051020408163264,151.57142857142858,19.0,-83.0,193.0,0
1724911485,18.56338,73.8331933,523.8,26.424489795918365,98,32.326530612244895,156.03061224489795,19.0,-83.0,193.0,0
1724911486,18.56338,73.8331933,523.8,26.482653061224493,98,32.326530612244895,156.07142857142858,19.0,-83.0,193.0,0
1724911487,18.56338,73.8331933,523.8,26.483673469387757,98,32.30612244897959,156.05102040816325,19.0,-83.0,193.0,0
1724911488,18.56338,73.8331933,523.8,26.46938775510204,98,32.795918367346935,158.53061224489795,19.0,-83.0,193.0,0
1724911489,18.56338,73.8331933,523.8,26.55918367346939,98,32.795918367346935,158.53061224489795,19.0,-83.0,193.0,0
1724911490,18.56338,73.8331933,523.8,26.529591836734696,98,32.795918367346935,158.51020408163265,19.0,-83.0,193.0,0
1724911491,18.56338,73.8331933,523.8,26.529591836734696,98,32.80612244897959,158.5,19.0,-83.0,193.0,0
1724911492,18.56338,73.8331933,523.8,26.554081632653062,98,32.795918367346935,158.5,19.0,-83.0,193.0,0
1724911493,18.56338,73.8331933,523.8,26.583673469387755,98,32.795918367346935,158.5,19.0,-83.0,193.0,0
1724911494,18.56338,73.8331933,523.8,26.50408163265306,98,32.795918367346935,158.5,19.0,-83.0,193.0,0
1724911495,18.56338,73.8331933,523.8,26.585714285714285,98,32.12244897959184,160.20408163265307,18.0,-83.0,193.0,0
1724911496,18.56338,73.8331933,523.8,26.582653061224487,98,32.12244897959184,160.20408163265307,19.0,-83.0,193.0,0
1724911497,18.56338,73.8331933,523.8,26.53673469387755,98,31.8265306122449,157.72448979591837,18.0,-83.0,193.0,0
1724911498,18.56338,73.8331933,523.8,26.475510204081633,98,31.8265306122449,157.72448979591837,19.0,-83.0,193.0,0
1724911499,18.56338,73.8331933,523.8,26.524489795918367,98,31.8265306122449,157.72448979591837,18.0,-83.0,193.0,0
1724911500,18.56338,73.8331933,523.8,26.492857142857144,98,31.8265306122449,157.72448979591837,19.0,-83.0,193.0,0
1724911501,18.56338,73.8331933,523.8,26.481632653061222,98,31.8265306122449,157.72448979591837,19.0,-83.0,193.0,0
1724911502,18.56338,73.8331933,523.8,26.526530612244898,98,31.8265306122449,157.72448979591837,19.0,-83.0,193.0,0
1724911503,18.56338,73.8331933,523.8,26.59591836734694,98,31.8265306122449,157.72448979591837,19.0,-83.0,193.0,0
1724911504,18.56338,73.8331933,523.8,26.453061224489797,98,31.8265306122449,157.71428571428572,19.0,-83.0,193.0,0
1724911505,18.56338,73.8331933,523.8,26.564285714285717,98,31.428571428571427,153.69387755102042,19.0,-83.0,193.0,0
1724911506,18.56338,73.8331933,523.8,26.45408163265306,98,31.428571428571427,153.69387755102042,19.0,-83.0,193.0,0
1724911507,18.56338,73.8331933,523.8,26.483673469387757,98,31.887755102040817,155.83673469387756,19.0,-83.0,193.0,0
1724911508,18.56338,73.8331933,523.8,26.540816326530614,98,31.887755102040817,155.83673469387756,19.0,-83.0,193.0,0
1724911509,18.56338,73.8331933,523.8,26.477551020408164,98,31.887755102040817,155.83673469387756,19.0,-83.0,193.0,0
1724911510,18.56338,73.8331933,523.8,26.482653061224493,98,31.908163265306122,155.85714285714286,18.0,-83.0,193.0,0
1724911511,18.56338,73.8331933,523.8,26.39183673469388,98,31.908163265306122,155.85714285714286,19.0,-84.0,193.0,0
1724911512,18.56338,73.8331933,523.8,26.531632653061223,98,31.908163265306122,155.85714285714286,19.0,-83.0,193.0,0
1724911513,18.56338,73.8331933,523.8,26.607142857142858,98,31.908163265306122,155.85714285714286,19.0,-84.0,193.0,0
1724911514,18.56338,73.8331933,523.8,26.551020408163264,98,32.795918367346935,158.71428571428572,19.0,-83.0,193.0,0
1724911515,18.56338,73.8331933,523.8,26.642857142857142,98,32.795918367346935,158.71428571428572,19.0,-84.0,193.0,0
1724911516,18.56338,73.8331933,523.8,26.51224489795918,98,32.795918367346935,158.71428571428572,19.0,-83.0,193.0,0
1724911517,18.56338,73.8331933,523.8,26.516326530612243,98,32.52040816326531,159.12244897959184,19.0,-83.0,193.0,0
1724911518,18.56338,73.8331933,523.8,26.485714285714284,98,32.52040816326531,159.12244897959184,19.0,-83.0,193.0,0
1724911519,18.56338,73.8331933,523.8,26.483673469387757,98,32.52040816326531,159.12244897959184,19.0,-83.0,193.0,0
1724911520,18.56338,73.8331933,523.8,26.489795918367346,98,32.52040816326531,159.12244897959184,19.0,-83.0,193.0,0
1724911521,18.56338,73.8331933,523.8,26.617525773195876,97,32.577319587628864,160.08247422680412,19.0,-83.0,193.0,0
1724911522,18.56338,73.8331933,523.8,26.7319587628866,97,32.577319587628864,160.08247422680412,19.0,-83.0,193.0,0
1724911523,18.56338,73.8331933,523.8,26.617525773195876,97,31.896907216494846,158.82474226804123,19.0,-83.0,193.0,0
1724911524,18.56338,73.8331933,523.8,26.573195876288658,97,31.896907216494846,158.82474226804123,19.0,-83.0,193.0,0
1724911525,18.56338,73.8331933,523.8,26.61134020618557,97,31.896907216494846,158.82474226804123,19.0,-83.0,193.0,0
1724911526,18.56338,73.8331933,523.8,26.643298969072166,97,32.08247422680412,156.27835051546393,19.0,-83.0,193.0,0
1724911527,18.56338,73.8331933,523.8,26.45408163265306,98,31.581632653061224,156.28571428571428,19.0,-83.0,193.0,0
1724911528,18.56338,73.8331933,523.8,26.607142857142858,98,31.581632653061224,156.28571428571428,19.0,-83.0,193.0,0
1724911529,18.56338,73.8331933,523.8,26.605102040816327,98,31.581632653061224,156.28571428571428,19.0,-83.0,193.0,0
1724911530,18.56338,73.8331933,523.8,26.58469387755102,98,31.581632653061224,156.28571428571428,19.0,-83.0,193.0,0
1724911531,18.56338,73.8331933,523.8,26.702040816326534,98,31.581632653061224,156.28571428571428,19.0,-83.0,193.0,0
1724911532,18.56338,73.8331933,523.8,26.6,98,31.581632653061224,156.26530612244898,19.0,-83.0,193.0,0
1724911533,18.56338,73.8331933,523.8,26.51938775510204,98,31.255102040816325,153.69387755102042,19.0,-83.0,193.0,0
1724911534,18.56338,73.8331933,523.8,26.455102040816325,98,31.255102040816325,153.69387755102042,19.0,-83.0,193.0,0
1724911535,18.56338,73.8331933,523.8,26.540816326530614,98,31.255102040816325,153.69387755102042,19.0,-83.0,193.0,0
1724911536,18.56338,73.8331933,523.8,26.677551020408163,98,31.163265306122447,152.79591836734693,18.0,-83.0,193.0,0
1724911537,18.56338,73.8331933,523.8,26.54285714285714,98,31.163265306122447,152.79591836734693,18.0,-83.0,193.0,0
1724911538,18.56338,73.8331933,523.8,26.46938775510204,98,31.163265306122447,152.81632653061226,18.0,-83.0,193.0,0
1724911539,18.56338,73.8331933,523.8,26.601020408163265,98,31.163265306122447,152.81632653061226,19.0,-83.0,193.0,0
1724911540,18.56338,73.8331933,523.8,26.555102040816326,98,31.163265306122447,152.81632653061226,19.0,-83.0,193.0,0
1724911541,18.56338,73.8331933,523.8,26.629591836734694,98,31.163265306122447,152.81632653061226,19.0,-83.0,193.0,0
1724911542,18.56338,73.8331933,523.8,26.610204081632656,98,31.071428571428573,151.83673469387756,19.0,-83.0,193.0,0
1724911543,18.56338,73.8331933,523.8,26.55,98,31.06122448979592,151.8469387755102,19.0,-83.0,193.0,0
1724911544,18.56338,73.8331933,523.8,26.451020408163263,98,31.051020408163264,151.8673469387755,18.0,-83.0,193.0,0
1724911545,18.56338,73.8331933,523.8,26.60816326530612,98,30.867346938775512,149.51020408163265,18.0,-83.0,193.0,0
1724911546,18.56338,73.8331933,523.8,26.40408163265306,98,30.867346938775512,149.51020408163265,19.0,-83.0,193.0,0
1724911547,18.56338,73.8331933,523.8,26.506122448979593,98,30.867346938775512,149.51020408163265,19.0,-83.0,193.0,0
1724911548,18.56338,73.8331933,523.8,26.63298969072165,97,32.381443298969074,152.3298969072165,19.0,-83.0,193.0,0
1724911549,18.56338,73.8331933,523.8,26.576288659793814,97,32.381443298969074,152.3298969072165,19.0,-83.0,193.0,0
1724911550,18.56338,73.8331933,523.8,26.486597938144328,97,32.381443298969074,152.3298969072165,19.0,-83.0,193.0,0
1724911551,18.56338,73.8331933,523.8,26.47422680412371,97,32.381443298969074,152.3298969072165,19.0,-83.0,193.0,0
1724911552,18.56338,73.8331933,523.8,26.52783505154639,97,32.876288659793815,154.83505154639175,19.0,-83.0,193.0,0
1724911553,18.56338,73.8331933,523.8,26.403092783505155,97,32.876288659793815,154.83505154639175,19.0,-83.0,193.0,0
1724911554,18.56338,73.8331933,523.8,26.603092783505154,97,32.876288659793815,154.82474226804123,19.0,-83.0,193.0,0
1724911555,18.56338,73.8331933,523.8,26.671134020618556,97,32.876288659793815,154.82474226804123,18.0,-83.0,193.0,0
1724911556,18.56338,73.8331933,523.8,26.638144329896907,97,32.876288659793815,154.82474226804123,18.0,-83.0,193.0,0
1724911557,18.56338,73.8331933,523.8,26.57010309278351,97,32.865979381443296,154.83505154639175,18.0,-83.0,193.0,0
1724911558,18.56338,73.8331933,523.8,26.535714285714285,98,31.93877551020408,158.12244897959184,18.0,-83.0,193.0,0
1724911559,18.56338,73.8331933,523.8,26.526530612244898,98,31.948979591836736,158.1122448979592,18.0,-83.0,193.0,0
1724911560,18.56338,73.8331933,523.8,26.522448979591836,98,31.959183673469386,158.1122448979592,19.0,-83.0,193.0,0
1724911561,18.56338,73.8331933,523.8,26.402040816326533,98,31.663265306122447,155.6326530612245,18.0,-83.0,193.0,0
1724911562,18.56338,73.8331933,523.8,26.341836734693878,98,31.663265306122447,155.6326530612245,18.0,-83.0,193.0,0
1724911563,18.56338,73.8331933,523.8,26.51530612244898,98,31.663265306122447,155.6326530612245,18.0,-83.0,193.0,0
1724911564,18.56338,73.8331933,523.8,26.481632653061222,98,31.663265306122447,155.6326530612245,18.0,-83.0,193.0,0
1724911565,18.56338,73.8331933,523.8,26.48469387755102,98,31.663265306122447,155.6326530612245,18.0,-83.0,193.0,0
1724911566,18.56338,73.8331933,523.8,26.582474226804123,97,31.896907216494846,154.01030927835052,18.0,-83.0,193.0,0
1724911567,18.56338,73.8331933,523.8,26.502040816326527,98,31.26530612244898,151.46938775510205,19.0,-83.0,193.0,0
1724911568,18.56338,73.8331933,523.8,26.458163265306123,98,31.275510204081634,151.46938775510205,18.0,-83.0,193.0,0
1724911569,18.56338,73.8331933,523.8,26.359183673469385,98,31.275510204081634,151.46938775510205,18.0,-83.0,193.0,0
1724911570,18.56338,73.8331933,523.8,26.479591836734695,98,31.081632653061224,151.46938775510205,18.0,-83.0,193.0,0
1724911571,18.56338,73.8331933,523.8,26.510204081632654,98,31.081632653061224,151.46938775510205,18.0,-83.0,193.0,0
1724911572,18.56338,73.8331933,523.8,26.453061224489797,98,31.071428571428573,151.46938775510205,18.0,-83.0,193.0,0
1724911573,18.56338,73.8331933,523.8,26.346938775510203,98,31.06122448979592,151.4795918367347,18.0,-83.0,193.0,0
1724911574,18.56338,73.8331933,523.8,26.244897959183675,98,31.06122448979592,151.4795918367347,19.0,-83.0,193.0,0
1724911575,18.56338,73.8331933,523.8,26.306122448979593,98,31.06122448979592,151.48979591836735,19.0,-83.0,193.0,0
1724911576,18.56338,73.8331933,523.8,26.4234693877551,98,30.857142857142858,149.5612244897959,18.0,-83.0,193.0,0
1724911577,18.56338,73.8331933,523.8,26.313265306122446,98,30.857142857142858,149.5612244897959,18.0,-83.0,193.0,0
1724911578,18.56338,73.8331933,523.8,26.271428571428572,98,30.867346938775512,149.55102040816325,18.0,-83.0,193.0,0
1724911579,18.56338,73.8331933,523.8,26.232653061224493,98,30.867346938775512,149.55102040816325,18.0,-83.0,193.0,0
1724911580,18.56338,73.8331933,523.8,26.283673469387757,98,30.867346938775512,149.5612244897959,18.0,-83.0,193.0,0
1724911581,18.56338,73.8331933,523.8,26.205102040816325,98,30.867346938775512,149.5612244897959,18.0,-83.0,193.0,0
1724911582,18.56338,73.8331933,523.8,26.196938775510205,98,30.867346938775512,149.5612244897959,18.0,-83.0,193.0,0
1724911583,18.56338,73.8331933,523.8,26.097959183673467,98,30.867346938775512,149.5612244897959,18.0,-83.0,192.0,0
1724911584,18.56338,73.8331933,523.8,26.006122448979593,98,30.867346938775512,149.5612244897959,18.0,-83.0,192.0,0
1724911585,18.56338,73.8331933,523.8,26.06122448979592,98,30.867346938775512,149.5612244897959,18.0,-83.0,192.0,0
1724911586,18.56338,73.8331933,523.8,26.196907216494843,97,31.09278350515464,147.8556701030928,18.0,-83.0,192.0,0
1724911587,18.56338,73.8331933,523.8,26.351546391752578,97,31.11340206185567,147.83505154639175,18.0,-83.0,192.0,0
1724911588,18.56338,73.8331933,523.8,26.4020618556701,97,31.11340206185567,147.81443298969072,18.0,-83.0,192.0,0
1724911589,18.56338,73.8331933,523.8,26.571428571428573,98,30.887755102040817,149.5,18.0,-83.0,192.0,0
1724911590,18.56338,73.8331933,523.8,26.43877551020408,98,30.908163265306122,149.4795918367347,18.0,-83.0,192.0,0
1724911591,18.56338,73.8331933,523.8,26.478571428571428,98,30.908163265306122,149.4795918367347,18.0,-83.0,192.0,0
1724911592,18.56338,73.8331933,523.8,26.491836734693877,98,30.908163265306122,149.4795918367347,18.0,-83.0,192.0,0
1724911593,18.56338,73.8331933,523.8,26.54742268041237,97,31.1340206185567,147.79381443298968,18.0,-83.0,192.0,0
1724911594,18.56338,73.8331933,523.8,26.560824742268043,97,31.1340206185567,147.79381443298968,18.0,-83.0,192.0,0
1724911595,18.56338,73.8331933,523.8,26.595876288659795,97,32.402061855670105,152.31958762886597,18.0,-83.0,192.0,0
1724911596,18.56338,73.8331933,523.8,26.582474226804123,97,32.381443298969074,152.31958762886597,18.0,-83.0,192.0,0
1724911597,18.56338,73.8331933,523.8,26.404123711340205,97,32.381443298969074,152.31958762886597,18.0,-83.0,192.0,0
1724911598,18.56338,73.8331933,523.8,26.162886597938147,97,32.381443298969074,152.31958762886597,18.0,-83.0,192.0,0
1724911599,18.56338,73.8331933,523.8,26.01224489795918,98,32.33673469387755,153.5,18.0,-83.0,192.0,0
1724911600,18.56338,73.8331933,523.8,26.031632653061223,98,32.33673469387755,153.5204081632653,18.0,-83.0,192.0,0
1724911601,18.56338,73.8331933,523.8,26.056565656565656,99,32.101010101010104,155.11111111111111,18.0,-83.0,192.0,0
1724911602,18.56338,73.8331933,523.8,26.235714285714284,98,32.90816326530612,157.5612244897959,18.0,-83.0,192.0,0
1724911603,18.56338,73.8331933,523.8,26.29387755102041,98,32.92857142857143,157.58163265306123,18.0,-83.0,192.0,0
1724911604,18.56338,73.8331933,523.8,26.291836734693877,98,32.92857142857143,157.60204081632654,18.0,-83.0,192.0,0
1724911605,18.56338,73.8331933,523.8,26.31122448979592,98,32.234693877551024,159.24489795918367,18.0,-83.0,192.0,0
1724911606,18.56338,73.8331933,523.8,26.291836734693877,98,32.234693877551024,159.24489795918367,18.0,-83.0,192.0,0
1724911607,18.56338,73.8331933,523.8,26.332653061224487,98,32.234693877551024,159.24489795918367,18.0,-83.0,192.0,0
1724911608,18.56338,73.8331933,523.8,26.529896907216497,97,32.47422680412371,157.659793814433,18.0,-83.0,192.0,0
1724911609,18.56338,73.8331933,523.8,26.64639175257732,97,32.47422680412371,157.659793814433,18.0,-83.0,192.0,0
1724911610,18.56338,73.8331933,523.8,26.627551020408163,98,32.234693877551024,159.24489795918367,18.0,-83.0,192.0,0
1724911611,18.56338,73.8331933,523.8,26.53469387755102,98,31.93877551020408,156.76530612244898,18.0,-83.0,192.0,0
1724911612,18.56338,73.8331933,523.8,26.493877551020407,98,31.93877551020408,156.76530612244898,18.0,-83.0,192.0,0
1724911613,18.56338,73.8331933,523.8,26.723711340206183,97,32.175257731958766,155.15463917525773,18.0,-83.0,192.0,0
1724911614,18.56338,73.8331933,523.8,26.70515463917526,97,31.77319587628866,150.94845360824743,18.0,-83.0,192.0,0
1724911615,18.56338,73.8331933,523.8,26.6734693877551,98,31.540816326530614,152.60204081632654,18.0,-83.0,192.0,0
1724911616,18.56338,73.8331933,523.8,26.614285714285714,98,31.540816326530614,152.60204081632654,18.0,-83.0,192.0,0
1724911617,18.56338,73.8331933,523.8,26.624742268041235,97,31.77319587628866,150.94845360824743,18.0,-83.0,192.0,0
1724911618,18.56338,73.8331933,523.8,26.61134020618557,97,31.77319587628866,150.94845360824743,18.0,-83.0,192.0,0
1724911619,18.56338,73.8331933,523.8,26.68762886597938,97,31.762886597938145,150.93814432989691,18.0,-83.0,192.0,0
1724911620,18.56338,73.8331933,523.8,26.691752577319587,97,32.24742268041237,153.1340206185567,18.0,-83.0,192.0,0
1724911621,18.56338,73.8331933,523.8,26.5734693877551,98,32.01020408163265,154.76530612244898,18.0,-83.0,192.0,0
1724911622,18.56338,73.8331933,523.8,26.625510204081635,98,32.01020408163265,154.76530612244898,18.0,-83.0,192.0,0
1724911623,18.56338,73.8331933,523.8,26.73775510204082,98,32.89795918367347,157.62244897959184,18.0,-83.0,192.0,0
1724911624,18.56338,73.8331933,523.8,26.352040816326532,98,32.89795918367347,157.62244897959184,18.0,-83.0,192.0,0
1724911625,18.56338,73.8331933,523.8,26.470408163265304,98,32.89795918367347,157.62244897959184,18.0,-83.0,192.0,0
1724911626,18.56338,73.8331933,523.8,26.54387755102041,98,32.89795918367347,157.62244897959184,18.0,-83.0,192.0,0
1724911627,18.56338,73.8331933,523.8,26.398979591836735,98,32.89795918367347,157.62244897959184,18.0,-83.0,192.0,0
1724911628,18.56338,73.8331933,523.8,26.55,98,32.89795918367347,157.62244897959184,18.0,-83.0,192.0,0
1724911629,18.56338,73.8331933,523.8,26.911340206185567,97,32.845360824742265,156.43298969072166,18.0,-83.0,192.0,0
1724911630,18.56338,73.8331933,523.8,26.801020408163264,98,32.60204081632653,158.03061224489795,18.0,-83.0,192.0,0
1724911631,18.56338,73.8331933,523.8,26.825510204081635,98,32.60204081632653,158.03061224489795,18.0,-83.0,193.0,0
1724911632,18.56338,73.8331933,523.8,26.78469387755102,98,31.928571428571427,156.78571428571428,18.0,-83.0,193.0,0
1724911633,18.56338,73.8331933,523.8,26.663265306122447,98,31.928571428571427,156.78571428571428,18.0,-83.0,193.0,0
1724911634,18.56338,73.8331933,523.8,26.896907216494846,97,31.95876288659794,155.63917525773195,19.0,-83.0,193.0,0
1724911635,18.56338,73.8331933,523.8,26.749484536082473,97,31.95876288659794,155.63917525773195,18.0,-83.0,193.0,0
1724911636,18.56338,73.8331933,523.8,26.458163265306123,98,31.928571428571427,156.79591836734693,18.0,-83.0,193.0,0
1724911637,18.56338,73.8331933,523.8,26.564285714285717,98,31.928571428571427,156.79591836734693,18.0,-83.0,193.0,0
1724911638,18.56338,73.8331933,523.8,26.781632653061223,98,31.928571428571427,156.79591836734693,19.0,-83.0,193.0,0
1724911639,18.56338,73.8331933,523.8,26.628571428571426,98,31.663265306122447,155.20408163265307,18.0,-83.0,193.0,0
1724911640,18.56338,73.8331933,523.8,26.432653061224492,98,31.663265306122447,155.20408163265307,18.0,-83.0,193.0,0
1724911641,18.56338,73.8331933,523.8,26.575510204081635,98,31.336734693877553,152.6326530612245,18.0,-83.0,193.0,0
1724911642,18.56338,73.8331933,523.8,26.609183673469385,98,31.336734693877553,152.6326530612245,18.0,-83.0,193.0,0
1724911643,18.56338,73.8331933,523.8,26.739795918367346,98,31.336734693877553,152.6326530612245,18.0,-83.0,193.0,0
1724911644,18.56338,73.8331933,523.8,26.732653061224493,98,31.336734693877553,152.6326530612245,20.0,-84.0,194.0,0
1724911645,18.56338,73.8331933,523.8,26.73061224489796,98,31.336734693877553,152.6326530612245,17.0,-85.0,192.0,0
1724911646,18.56338,73.8331933,523.8,26.77755102040816,98,31.336734693877553,152.6326530612245,19.0,-85.0,194.0,0
1724911647,18.56338,73.8331933,523.8,26.929591836734694,98,31.336734693877553,152.6122448979592,19.0,-84.0,193.0,0
1724911648,18.56338,73.8331933,523.8,26.496938775510202,98,31.336734693877553,152.6122448979592,19.0,-85.0,194.0,0
1724911649,18.56338,73.8331933,523.8,26.491836734693877,98,31.224489795918366,151.6734693877551,20.0,-85.0,194.0,0
1724911650,18.56338,73.8331933,523.8,26.448979591836736,98,31.224489795918366,151.6734693877551,20.0,-84.0,194.0,0
1724911651,18.56338,73.8331933,523.8,26.34285714285714,98,31.132653061224488,150.69387755102042,19.0,-84.0,193.0,0
1724911652,18.56338,73.8331933,523.8,26.61122448979592,98,31.132653061224488,150.69387755102042,19.0,-84.0,193.0,0
1724911653,18.56338,73.8331933,523.8,26.9340206185567,97,31.15463917525773,149.4742268041237,19.0,-83.0,193.0,0
1724911654,18.56338,73.8331933,523.8,26.932989690721648,97,31.15463917525773,149.4742268041237,18.0,-83.0,192.0,0
1724911655,18.56338,73.8331933,523.8,26.918556701030926,97,31.15463917525773,149.4742268041237,18.0,-83.0,193.0,0
1724911656,18.56338,73.8331933,523.8,26.8659793814433,97,31.15463917525773,149.4742268041237,18.0,-83.0,192.0,0
1724911657,18.56338,73.8331933,523.8,26.84285714285714,98,31.112244897959183,150.73469387755102,18.0,-83.0,192.0,0
1724911658,18.56338,73.8331933,523.8,27.015463917525775,97,31.814432989690722,151.68041237113403,18.0,-83.0,192.0,0
1724911659,18.56338,73.8331933,523.8,26.869072164948456,97,31.814432989690722,151.68041237113403,18.0,-83.0,192.0,0
1724911660,18.56338,73.8331933,523.8,26.901030927835052,97,32.422680412371136,154.02061855670104,18.0,-83.0,193.0,0
1724911661,18.56338,73.8331933,523.8,26.78041237113402,97,32.422680412371136,154.02061855670104,18.0,-83.0,192.0,0
1724911662,18.56338,73.8331933,523.8,26.98556701030928,97,32.896907216494846,156.5463917525773,18.0,-83.0,192.0,0
1724911663,18.56338,73.8331933,523.8,26.959793814432988,97,32.896907216494846,156.5257731958763,18.0,-83.0,192.0,0
1724911664,18.56338,73.8331933,523.8,26.954639175257732,97,32.896907216494846,156.5257731958763,18.0,-83.0,192.0,0
1724911665,18.56338,73.8331933,523.8,26.936082474226804,97,32.896907216494846,156.5257731958763,18.0,-83.0,192.0,0
1724911666,18.56338,73.8331933,523.8,27.28041237113402,97,32.896907216494846,156.48453608247422,18.0,-83.0,192.0,0
1724911667,18.56338,73.8331933,523.8,27.172164948453606,97,32.608247422680414,156.89690721649484,18.0,-83.0,192.0,0
1724911668,18.56338,73.8331933,523.8,26.729896907216496,97,32.58762886597938,156.88659793814432,18.0,-83.0,193.0,0
1724911669,18.56338,73.8331933,523.8,26.811340206185566,97,32.20618556701031,158.1340206185567,18.0,-83.0,192.0,0
1724911670,18.56338,73.8331933,523.8,26.92886597938144,97,32.20618556701031,158.1340206185567,18.0,-83.0,192.0,0
1724911671,18.56338,73.8331933,523.8,26.824742268041238,97,31.927835051546392,155.69072164948454,18.0,-83.0,192.0,0
1724911672,18.56338,73.8331933,523.8,26.78041237113402,97,31.927835051546392,155.69072164948454,18.0,-83.0,193.0,0
1724911673,18.56338,73.8331933,523.8,26.97731958762887,97,31.927835051546392,155.69072164948454,18.0,-83.0,192.0,0
