timestamp,latitude,longitude,altitude,mean_snr,sat_count,mean_elevation,roll,pitch,yaw,is_inclined
1724739880,18.5636317,73.8327467,521.0,23.601190476190474,84,33.785714285714285,-4.0,-86.0,163.0,0
1724739881,18.5635986,73.8327668,521.0,,0,,-4.0,-85.0,163.0,0
1724739882,18.5635945,73.8327692,460.6,25.348235294117647,85,33.705882352941174,-4.0,-86.0,163.0,0
1724739883,18.5635707,73.832802,472.6,25.25909090909091,88,34.04545454545455,-5.0,-85.0,162.0,0
1724739884,18.5635663,73.8328085,472.6,25.26179775280899,89,34.19101123595506,-3.0,-85.0,164.0,0
1724739885,18.5635654,73.8328097,472.6,25.262921348314606,89,34.19101123595506,-3.0,-85.0,164.0,0
1724739886,18.5635652,73.8328099,472.6,25.179775280898877,89,34.19101123595506,-4.0,-85.0,163.0,0
1724739887,18.563565,73.83281,472.6,25.718888888888888,90,33.922222222222224,-4.0,-85.0,163.0,0
1724739888,18.563565,73.83281,472.6,26.11685393258427,89,33.86516853932584,-4.0,-85.0,163.0,0
1724739889,18.563565,73.83281,472.6,25.517977528089887,89,33.57303370786517,-4.0,-85.0,163.0,0
1724739890,18.563565,73.83281,472.6,25.99550561797753,89,33.57303370786517,-4.0,-85.0,163.0,0
1724739891,18.563565,73.83281,472.6,25.976404494382024,89,33.57303370786517,-4.0,-85.0,163.0,0
1724739892,18.563565,73.83281,472.6,25.88888888888889,90,33.611111111111114,-4.0,-85.0,163.0,0
1724739893,18.563565,73.83281,472.6,26.612222222222222,90,33.611111111111114,-4.0,-85.0,163.0,0
1724739894,18.563565,73.83281,472.6,27.031868131868134,91,33.417582417582416,-4.0,-85.0,163.0,0
1724739895,18.563565,73.83281,472.6,26.571739130434782,92,33.48913043478261,-4.0,-85.0,163.0,0
1724739896,18.563565,73.83281,472.6,26.435106382978724,94,33.43617021276596,-4.0,-85.0,163.0,0
1724739897,18.563565,73.83281,472.6,26.39468085106383,94,32.734042553191486,-4.0,-85.0,163.0,0
1724739898,18.563565,73.83281,472.6,26.29578947368421,95,32.97894736842105,-4.0,-85.0,163.0,0
1724739899,18.563565,73.83281,472.6,26.329473684210527,95,32.97894736842105,-4.0,-85.0,163.0,0
1724739900,18.563565,73.83281,472.6,26.274736842105263,95,32.97894736842105,-4.0,-85.0,163.0,0
1724739901,18.563565,73.83281,472.6,26.31157894736842,95,32.97894736842105,-4.0,-85.0,163.0,0
1724739902,18.563565,73.83281,472.6,26.33894736842105,95,32.97894736842105,-4.0,-85.0,163.0,0
1724739903,18.563565,73.83281,472.6,26.382105263157897,95,32.97894736842105,-4.0,-85.0,163.0,0
1724739904,18.563565,73.83281,472.6,26.785263157894736,95,32.97894736842105,-4.0,-85.0,163.0,0
1724739905,18.563565,73.83281,472.6,26.593684210526316,95,32.97894736842105,-4.0,-85.0,163.0,0
1724739906,18.563565,73.83281,472.6,26.629473684210527,95,33.97894736842105,-3.0,-85.0,164.0,0
1724739907,18.563565,73.83281,472.6,26.44421052631579,95,34.38947368421053,-4.0,-85.0,163.0,0
1724739908,18.563565,73.83281,472.6,26.82736842105263,95,34.38947368421053,-4.0,-85.0,163.0,0
1724739909,18.563565,73.83281,472.6,26.80210526315789,95,34.38947368421053,-3.0,-85.0,164.0,0
1724739910,18.5633405,73.8331999,540.1999999999999,,0,,-5.0,-85.0,163.0,0
1724739911,18.563305,73.8332617,540.0,26.866842105263157,190,34.38947368421053,-3.0,-85.0,164.0,0
1724739912,18.5633008,73.8332715,539.8,26.90421052631579,95,34.38947368421053,-4.0,-85.0,163.0,0
1724739913,18.5633001,73.833273,539.8,26.94421052631579,95,34.38947368421053,-4.0,-85.0,163.0,0
1724739914,18.5633,73.8332733,539.8,27.025263157894738,95,34.38947368421053,-4.0,-85.0,163.0,0
1724739915,18.5633,73.8332733,539.8,26.658947368421053,95,34.38947368421053,-4.0,-85.0,163.0,0
1724739916,18.5633,73.8332733,539.8,26.82315789473684,95,33.810526315789474,-5.0,-85.0,163.0,0
1724739917,18.5633,73.8332733,539.8,26.810526315789474,95,33.810526315789474,-4.0,-85.0,163.0,0
1724739918,18.5633,73.8332733,539.8,26.789473684210527,95,33.810526315789474,-4.0,-85.0,163.0,0
1724739919,18.5633,73.8332733,539.8,26.821052631578947,95,33.810526315789474,-5.0,-85.0,163.0,0
1724739920,18.5633,73.8332733,539.8,27.17263157894737,95,33.810526315789474,-4.0,-85.0,164.0,0
1724739921,18.5633,73.8332733,539.8,27.049473684210525,95,33.810526315789474,-4.0,-85.0,163.0,0
1724739922,18.5633,73.8332733,539.8,26.959999999999997,95,33.78947368421053,-4.0,-85.0,163.0,0
1724739923,18.5633,73.8332733,539.8,27.04315789473684,95,33.78947368421053,-4.0,-85.0,163.0,0
1724739924,18.5633,73.8332733,539.8,26.744210526315786,95,33.78947368421053,-4.0,-85.0,163.0,0
1724739925,18.5633,73.8332733,539.8,26.573684210526316,95,33.48421052631579,-4.0,-85.0,163.0,0
1724739926,18.5633,73.8332733,539.8,27.013684210526318,95,33.48421052631579,-3.0,-85.0,164.0,0
1724739927,18.5633,73.8332733,539.8,27.08421052631579,95,33.48421052631579,-4.0,-85.0,163.0,0
1724739928,18.5633,73.8332733,539.8,27.017894736842102,95,33.473684210526315,-4.0,-85.0,164.0,0
1724739929,18.5633,73.8332733,539.8,26.993684210526318,95,33.473684210526315,-4.0,-85.0,163.0,0
1724739930,18.5633,73.8332733,539.8,26.997894736842106,95,33.473684210526315,-4.0,-85.0,163.0,0
1724739931,18.5633,73.8332733,539.8,26.692708333333332,96,33.479166666666664,-4.0,-85.0,164.0,0
1724739932,18.5633,73.8332733,539.8,26.973684210526315,95,33.72631578947368,-4.0,-85.0,163.0,0
1724739933,18.5633,73.8332733,539.8,26.881052631578946,95,33.2,-4.0,-85.0,163.0,0
1724739934,18.5633,73.8332733,539.8,26.59166666666667,96,32.645833333333336,-4.0,-85.0,163.0,0
1724739935,18.5633,73.8332733,539.8,26.636458333333334,96,32.645833333333336,-4.0,-85.0,163.0,0
1724739936,18.5633,73.8332733,539.8,26.717894736842105,95,32.88421052631579,-4.0,-85.0,163.0,0
1724739937,18.5633,73.8332733,539.8,26.64315789473684,95,32.88421052631579,-3.0,-85.0,164.0,0
1724739938,18.5633,73.8332733,539.8,26.81041666666667,96,32.645833333333336,-4.0,-85.0,164.0,0
1724739939,18.5633,73.8332733,539.8,26.87708333333333,96,32.645833333333336,-4.0,-85.0,163.0,0
1724739940,18.5633,73.8332733,539.8,26.495833333333334,96,32.645833333333336,-4.0,-86.0,163.0,0
1724739941,18.5633,73.8332733,539.8,26.48645833333333,96,32.645833333333336,-4.0,-85.0,163.0,0
1724739942,18.5633,73.8332733,539.8,26.606315789473683,95,31.894736842105264,-4.0,-85.0,164.0,0
1724739943,18.5633,73.8332733,539.8,26.65157894736842,95,32.78947368421053,-5.0,-85.0,163.0,0
1724739944,18.5633,73.8332733,539.8,26.568421052631578,95,32.8,-3.0,-85.0,165.0,0
1724739945,18.5633,73.8332733,539.8,26.670526315789473,95,32.810526315789474,-3.0,-85.0,164.0,0
1724739946,18.5633,73.8332733,539.8,26.667368421052632,95,33.50526315789474,-4.0,-85.0,163.0,0
1724739947,18.5633,73.8332733,539.8,26.622105263157895,95,33.50526315789474,-3.0,-85.0,164.0,0
1724739948,18.5633,73.8332733,539.8,26.835789473684212,95,33.50526315789474,-5.0,-85.0,162.0,0
1724739949,18.5633,73.8332733,539.8,26.893684210526317,95,34.126315789473686,-3.0,-85.0,164.0,0
1724739950,18.5633,73.8332733,539.8,26.82736842105263,95,34.126315789473686,-3.0,-85.0,164.0,0
1724739951,18.5633,73.8332733,539.8,27.118947368421054,95,34.126315789473686,-5.0,-85.0,163.0,0
1724739952,18.5633,73.8332733,539.8,27.306315789473683,95,34.126315789473686,-4.0,-85.0,164.0,0
1724739953,18.5633,73.8332733,539.8,27.303157894736845,95,34.63157894736842,-1.0,-85.0,166.0,0
1724739954,18.5633,73.8332733,539.8,26.864210526315787,95,34.63157894736842,-4.0,-85.0,164.0,0
1724739955,18.5633,73.8332733,539.8,27.318947368421053,95,34.32631578947368,-4.0,-85.0,163.0,0
1724739956,18.5633,73.8332733,539.8,27.290526315789474,95,34.32631578947368,-4.0,-85.0,164.0,0
1724739957,18.5633,73.8332733,539.8,27.290526315789474,95,34.32631578947368,-4.0,-85.0,164.0,0
1724739958,18.5633,73.8332733,539.8,27.454736842105262,95,34.32631578947368,-4.0,-86.0,163.0,0
1724739959,18.5633,73.8332733,539.8,27.375789473684208,95,34.32631578947368,-2.0,-85.0,165.0,0
1724739960,18.5633,73.8332733,539.8,27.259375000000002,96,34.072916666666664,-4.0,-85.0,163.0,0
1724739961,18.5633,73.8332733,539.8,27.2375,96,34.072916666666664,-5.0,-86.0,162.0,0
1724739962,18.5633,73.8332733,539.8,27.210416666666664,96,33.8125,-3.0,-85.0,164.0,0
1724739963,18.5633,73.8332733,539.8,27.50208333333333,96,33.8125,-4.0,-85.0,163.0,0
1724739964,18.5633,73.8332733,539.8,26.740624999999998,96,33.395833333333336,-4.0,-85.0,163.0,0
1724739965,18.5633,73.8332733,539.8,26.659375,96,33.125,-3.0,-85.0,164.0,0
1724739966,18.5633,73.8332733,539.8,26.695833333333336,96,33.125,-2.0,-85.0,165.0,0
1724739967,18.5633,73.8332733,539.8,26.55,96,33.125,-3.0,-85.0,164.0,0
1724739968,18.5633,73.8332733,539.8,26.650000000000002,96,33.125,-4.0,-85.0,164.0,0
1724739969,18.5633,73.8332733,539.8,26.65833333333333,96,33.125,-3.0,-85.0,164.0,0
1724739970,18.5633,73.8332733,539.8,26.6125,96,33.125,-4.0,-85.0,164.0,0
1724739971,18.5633,73.8332733,539.8,26.520833333333332,96,32.989583333333336,-4.0,-85.0,163.0,0
1724739972,18.5633,73.8332733,539.8,26.653125,96,32.989583333333336,-4.0,-85.0,164.0,0
1724739973,18.5633,73.8332733,539.8,26.615624999999998,96,32.791666666666664,-4.0,-85.0,163.0,0
1724739974,18.5633,73.8332733,539.8,26.552083333333332,96,32.677083333333336,-4.0,-85.0,164.0,0
1724739975,18.5633,73.8332733,539.8,26.575,96,32.677083333333336,-4.0,-85.0,164.0,0
1724739976,18.5633,73.8332733,539.8,26.540625000000002,96,32.65625,-4.0,-85.0,164.0,0
1724739977,18.5633,73.8332733,539.8,26.613541666666666,96,32.635416666666664,-4.0,-85.0,163.0,0
1724739978,18.5633,73.8332733,539.8,26.690625,96,32.65625,-4.0,-85.0,163.0,0
1724739979,18.5633,73.8332733,539.8,26.552083333333332,96,32.65625,-4.0,-85.0,164.0,0
1724739980,18.5633,73.8332733,539.8,26.715625,96,32.65625,-3.0,-85.0,164.0,0
1724739981,18.5633,73.8332733,539.8,26.636458333333334,96,32.5625,-4.0,-85.0,164.0,0
1724739982,18.5633,73.8332733,539.8,26.764583333333334,96,32.5625,-4.0,-85.0,163.0,0
1724739983,18.5633,73.8332733,539.8,26.629166666666666,96,32.5625,-4.0,-85.0,164.0,0
1724739984,18.5633,73.8332733,539.8,26.601041666666664,96,32.5625,-4.0,-85.0,164.0,0
1724739985,18.5633,73.8332733,539.8,26.710416666666664,96,32.5625,-4.0,-85.0,164.0,0
1724739986,18.5633,73.8332733,539.8,26.520833333333332,96,32.583333333333336,-4.0,-85.0,164.0,0
1724739987,18.5633,73.8332733,539.8,26.608333333333334,96,32.583333333333336,-4.0,-85.0,164.0,0
1724739988,18.5633,73.8332733,539.8,26.70520833333333,96,32.583333333333336,-4.0,-85.0,163.0,0
1724739989,18.5633,73.8332733,539.8,26.648958333333336,96,32.583333333333336,-4.0,-85.0,164.0,0
1724739990,18.5633,73.8332733,539.8,26.619791666666668,96,32.5625,-4.0,-85.0,163.0,0
1724739991,18.5633,73.8332733,539.8,26.710416666666664,96,32.5625,-4.0,-85.0,163.0,0
1724739992,18.5633,73.8332733,539.8,26.870833333333334,96,31.583333333333332,-4.0,-85.0,164.0,0
1724739993,18.5633,73.8332733,539.8,26.648958333333336,96,32.5625,-4.0,-85.0,164.0,0
1724739994,18.5633,73.8332733,539.8,26.931250000000002,96,32.5625,-4.0,-85.0,163.0,0
1724739995,18.5633,73.8332733,539.8,26.48229166666667,96,32.5625,-4.0,-85.0,163.0,0
1724739996,18.5633,73.8332733,539.8,26.88854166666667,96,32.5625,-4.0,-85.0,163.0,0
1724739997,18.5633,73.8332733,539.8,26.81458333333333,96,33.25,-4.0,-85.0,163.0,0
1724739998,18.5633,73.8332733,539.8,26.6125,96,33.25,-5.0,-86.0,162.0,0
1724739999,18.5633,73.8332733,539.8,26.755208333333332,96,33.864583333333336,-3.0,-85.0,164.0,0
1724740000,18.5633,73.8332733,539.8,26.869791666666668,96,34.364583333333336,-4.0,-85.0,164.0,0
1724740001,18.5633,73.8332733,539.8,27.110416666666666,96,34.364583333333336,-4.0,-85.0,163.0,0
1724740002,18.5633,73.8332733,539.8,27.10729166666667,96,34.364583333333336,-1.0,-85.0,166.0,0
1724740003,18.5633,73.8332733,539.8,27.119791666666668,96,34.364583333333336,-4.0,-85.0,163.0,0
1724740004,18.5633,73.8332733,539.8,27.121875,96,34.364583333333336,-2.0,-85.0,166.0,0
1724740005,18.5633,73.8332733,539.8,27.134375000000002,96,34.364583333333336,-4.0,-85.0,163.0,0
1724740006,18.5633,73.8332733,539.8,27.065625,96,34.0625,-4.0,-86.0,163.0,0
1724740007,18.5633,73.8332733,539.8,26.683333333333334,96,34.0625,-4.0,-85.0,164.0,0
1724740008,18.5633,73.8332733,539.8,27.147916666666664,96,34.0625,-4.0,-85.0,164.0,0
1724740009,18.5633,73.8332733,539.8,27.036458333333332,96,33.791666666666664,-4.0,-85.0,164.0,0
1724740010,18.5633,73.8332733,539.8,27.009375000000002,96,33.791666666666664,-3.0,-85.0,164.0,0
1724740011,18.5633,73.8332733,539.8,27.007291666666664,96,33.791666666666664,-5.0,-85.0,163.0,0
1724740012,18.5633,73.8332733,539.8,27.18421052631579,95,33.757894736842104,-2.0,-85.0,165.0,0
1724740013,18.5633,73.8332733,539.8,26.96666666666667,96,33.791666666666664,-4.0,-85.0,164.0,0
1724740014,18.5633,73.8332733,539.8,26.664583333333336,96,33.364583333333336,-3.0,-85.0,164.0,0
1724740015,18.5633,73.8332733,539.8,26.62291666666667,96,33.09375,-4.0,-85.0,163.0,0
1724740016,18.5633,73.8332733,539.8,26.613541666666666,96,33.09375,-4.0,-85.0,164.0,0
1724740017,18.5633,73.8332733,539.8,26.65833333333333,96,33.09375,-4.0,-85.0,163.0,0
1724740018,18.5633,73.8332733,539.8,26.623958333333334,96,32.958333333333336,-3.0,-86.0,164.0,0
1724740019,18.5633,73.8332733,539.8,26.45625,96,32.958333333333336,-5.0,-85.0,163.0,0
1724740020,18.5633,73.8332733,539.8,26.51875,96,32.958333333333336,-3.0,-86.0,165.0,0
1724740021,18.5633,73.8332733,539.8,26.476041666666664,96,32.958333333333336,-3.0,-85.0,164.0,0
1724740022,18.5633,73.8332733,539.8,26.52916666666667,96,32.958333333333336,-6.0,-85.0,161.0,0
1724740023,18.5633,73.8332733,539.8,26.365624999999998,96,33.447916666666664,-4.0,-85.0,164.0,0
1724740024,18.5633,73.8332733,539.8,26.530208333333334,96,33.447916666666664,-5.0,-85.0,163.0,0
1724740025,18.5633,73.8332733,539.8,26.425,96,33.947916666666664,-3.0,-86.0,164.0,0
1724740026,18.5633,73.8332733,539.8,26.496875,96,33.947916666666664,-6.0,-85.0,161.0,0
1724740027,18.5633,73.8332733,539.8,26.84375,96,34.354166666666664,0.0,-85.0,167.0,0
1724740028,18.5633,73.8332733,539.8,26.926041666666666,96,34.354166666666664,-4.0,-85.0,164.0,0
1724740029,18.5633,73.8332733,539.8,26.891666666666666,96,34.354166666666664,-5.0,-86.0,162.0,0
1724740030,18.5633,73.8332733,539.8,26.724999999999998,96,34.354166666666664,-5.0,-86.0,163.0,0
1724740031,18.5633,73.8332733,539.8,26.945833333333336,96,34.354166666666664,-3.0,-85.0,164.0,0
1724740032,18.5633,73.8332733,539.8,26.832291666666666,96,34.354166666666664,-4.0,-85.0,163.0,0
1724740033,18.5633,73.8332733,539.8,26.539583333333336,96,34.052083333333336,-3.0,-85.0,164.0,0
1724740034,18.5633,73.8332733,539.8,26.534375,96,34.0625,-6.0,-86.0,161.0,0
1724740035,18.5633,73.8332733,539.8,26.881249999999998,96,34.0625,-4.0,-86.0,163.0,0
1724740036,18.5633,73.8332733,539.8,26.583333333333332,96,33.791666666666664,-3.0,-85.0,164.0,0
1724740037,18.5633,73.8332733,539.8,26.941666666666666,96,33.791666666666664,-4.0,-85.0,163.0,0
1724740038,18.5633,73.8332733,539.8,26.729166666666668,96,33.791666666666664,-4.0,-85.0,164.0,0
1724740039,18.5633,73.8332733,539.8,26.66979166666667,96,33.791666666666664,-5.0,-85.0,162.0,0
1724740040,18.5633,73.8332733,539.8,26.753125,96,33.791666666666664,-4.0,-85.0,163.0,0
1724740041,18.5633,73.8332733,539.8,26.786458333333332,96,33.791666666666664,-4.0,-85.0,164.0,0
1724740042,18.5633,73.8332733,539.8,26.59583333333333,96,32.8125,-4.0,-85.0,164.0,0
1724740043,18.5633,73.8332733,539.8,26.876041666666666,96,33.604166666666664,-4.0,-85.0,164.0,0
1724740044,18.5633,73.8332733,539.8,26.639583333333334,96,33.604166666666664,-4.0,-85.0,164.0,0
1724740045,18.5633,73.8332733,539.8,26.72083333333333,96,33.604166666666664,-4.0,-85.0,164.0,0
1724740046,18.5633,73.8332733,539.8,26.84583333333333,96,33.489583333333336,-4.0,-85.0,164.0,0
1724740047,18.5633,73.8332733,539.8,26.722916666666666,96,33.489583333333336,-4.0,-85.0,163.0,0
1724740048,18.5633,73.8332733,539.8,26.6125,96,33.489583333333336,-4.0,-85.0,163.0,0
1724740049,18.5633,73.8332733,539.8,26.790625000000002,96,33.46875,-4.0,-85.0,163.0,0
1724740050,18.5633,73.8332733,539.8,26.820833333333336,96,33.447916666666664,-4.0,-85.0,164.0,0
1724740051,18.5633,73.8332733,539.8,26.645833333333332,96,33.447916666666664,-3.0,-85.0,164.0,0
1724740052,18.5633,73.8332733,539.8,26.840625,96,33.34375,-3.0,-85.0,165.0,0
1724740053,18.5633,73.8332733,539.8,27.280208333333334,96,33.34375,-4.0,-85.0,163.0,0
1724740054,18.5633,73.8332733,539.8,26.932291666666668,96,33.354166666666664,-4.0,-85.0,164.0,0
1724740055,18.5633,73.8332733,539.8,27.090625,96,33.239583333333336,-5.0,-85.0,163.0,0
1724740056,18.5633,73.8332733,539.8,26.99791666666667,96,33.239583333333336,-4.0,-85.0,163.0,0
1724740057,18.5633,73.8332733,539.8,27.071875000000002,96,33.239583333333336,-4.0,-85.0,164.0,0
1724740058,18.5633,73.8332733,539.8,27.087500000000002,96,33.239583333333336,-2.0,-85.0,165.0,0
1724740059,18.5633,73.8332733,539.8,27.061458333333334,96,33.239583333333336,-4.0,-85.0,163.0,0
1724740060,18.5633,73.8332733,539.8,26.902083333333334,96,33.239583333333336,-3.0,-85.0,164.0,0
1724740061,18.5633,73.8332733,539.8,27.075,96,33.125,-4.0,-85.0,163.0,0
1724740062,18.5633,73.8332733,539.8,27.068749999999998,96,33.125,-4.0,-85.0,163.0,0
1724740063,18.5633,73.8332733,539.8,27.042708333333334,96,33.125,-4.0,-85.0,164.0,0
1724740064,18.5633,73.8332733,539.8,27.129166666666666,96,33.125,-4.0,-85.0,164.0,0
1724740065,18.5633,73.8332733,539.8,27.146874999999998,96,33.0,-4.0,-85.0,164.0,0
1724740066,18.5633,73.8332733,539.8,26.858333333333334,96,33.0,-4.0,-85.0,164.0,0
1724740067,18.5633,73.8332733,539.8,26.984375,96,33.0,-4.0,-85.0,164.0,0
1724740068,18.5633,73.8332733,539.8,27.004166666666666,96,33.0,-4.0,-85.0,164.0,0
1724740069,18.5633,73.8332733,539.8,27.036458333333332,96,33.020833333333336,-4.0,-85.0,163.0,0
1724740070,18.5633,73.8332733,539.8,,0,,-4.0,-85.0,164.0,0
1724740071,18.5633,73.8332733,539.8,27.095312500000002,192,33.020833333333336,-4.0,-85.0,163.0,0
1724740072,18.5633,73.8332733,539.8,26.912499999999998,96,33.020833333333336,-4.0,-85.0,163.0,0
1724740073,18.5633,73.8332733,539.8,27.188541666666666,96,33.708333333333336,-5.0,-85.0,162.0,0
1724740074,18.5633,73.8332733,539.8,27.17395833333333,96,33.729166666666664,-4.0,-85.0,163.0,0
1724740075,18.5633,73.8332733,539.8,27.253125,96,33.572916666666664,-3.0,-85.0,164.0,0
1724740076,18.5633,73.8332733,539.8,,0,,-2.0,-85.0,165.0,0
1724740077,18.5633,73.8332733,539.8,27.280729166666664,192,33.572916666666664,-5.0,-86.0,163.0,0
1724740078,18.5633,73.8332733,539.8,26.96666666666667,96,33.583333333333336,-5.0,-85.0,163.0,0
1724740079,18.5633,73.8332733,539.8,27.23894736842105,95,34.37894736842105,-4.0,-85.0,164.0,0
1724740080,18.5633,73.8332733,539.8,27.31157894736842,95,34.36842105263158,-4.0,-85.0,163.0,0
1724740081,18.5633,73.8332733,539.8,27.208333333333332,96,34.072916666666664,-4.0,-86.0,163.0,0
1724740082,18.5633,73.8332733,539.8,27.110416666666666,96,33.770833333333336,-2.0,-86.0,166.0,0
1724740083,18.5633,73.8332733,539.8,27.135416666666668,96,33.770833333333336,-4.0,-85.0,163.0,0
1724740084,18.5633,73.8332733,539.8,26.880208333333332,96,33.739583333333336,-4.0,-85.0,163.0,0
1724740085,18.5633,73.8332733,539.8,26.95104166666667,96,33.739583333333336,-4.0,-85.0,163.0,0
1724740086,18.5633,73.8332733,539.8,27.145833333333332,96,33.739583333333336,-4.0,-85.0,164.0,0
1724740087,18.5633,73.8332733,539.8,27.424210526315793,95,33.705263157894734,-6.0,-86.0,162.0,0
1724740088,18.5633,73.8332733,539.8,27.15625,96,33.458333333333336,0.0,-85.0,167.0,0
1724740089,18.5633,73.8332733,539.8,27.09375,96,33.458333333333336,-5.0,-85.0,163.0,0
1724740090,18.5633,73.8332733,539.8,26.895876288659796,97,33.23711340206186,-4.0,-85.0,163.0,0
1724740091,18.5633,73.8332733,539.8,26.937113402061858,97,33.23711340206186,-4.0,-85.0,164.0,0
1724740092,18.5633,73.8332733,539.8,26.79484536082474,97,32.08247422680412,-2.0,-85.0,166.0,0
1724740093,18.5633,73.8332733,539.8,26.881249999999998,96,33.0,-3.0,-85.0,164.0,0
1724740094,18.5633,73.8332733,539.8,26.911458333333332,96,33.0,-4.0,-85.0,163.0,0
1724740095,18.5633,73.8332733,539.8,26.89270833333333,96,33.0,-4.0,-85.0,163.0,0
1724740096,18.5633,73.8332733,539.8,26.581443298969074,97,33.04123711340206,-5.0,-85.0,163.0,0
1724740097,18.5633,73.8332733,539.8,26.919587628865976,97,32.92783505154639,-4.0,-85.0,164.0,0
1724740098,18.5633,73.8332733,539.8,27.029896907216497,97,32.92783505154639,-4.0,-85.0,163.0,0
1724740099,18.5633,73.8332733,539.8,27.04639175257732,97,32.91752577319588,-4.0,-85.0,164.0,0
1724740100,18.5633,73.8332733,539.8,27.012371134020615,97,32.91752577319588,-4.0,-85.0,163.0,0
1724740101,18.5633,73.8332733,539.8,26.93505154639175,97,32.81443298969072,-4.0,-86.0,164.0,0
1724740102,18.5633,73.8332733,539.8,26.760824742268042,97,32.81443298969072,-4.0,-85.0,163.0,0
1724740103,18.5633,73.8332733,539.8,26.843298969072166,97,32.81443298969072,-5.0,-86.0,163.0,0
1724740104,18.5633,73.8332733,539.8,27.04226804123711,97,32.8041237113402,-4.0,-85.0,164.0,0
1724740105,18.5633,73.8332733,539.8,26.94639175257732,97,32.78350515463917,-4.0,-85.0,163.0,0
1724740106,18.5633,73.8332733,539.8,26.920618556701033,97,32.670103092783506,-4.0,-85.0,164.0,0
1724740107,18.5633,73.8332733,539.8,26.891752577319586,97,32.670103092783506,-4.0,-85.0,163.0,0
1724740108,18.5633,73.8332733,539.8,26.702061855670102,97,32.670103092783506,-4.0,-85.0,164.0,0
1724740109,18.5633,73.8332733,539.8,26.97216494845361,97,32.670103092783506,-3.0,-85.0,165.0,0
1724740110,18.5633,73.8332733,539.8,26.97835051546392,97,32.670103092783506,-5.0,-86.0,162.0,0
1724740111,18.5633,73.8332733,539.8,27.31752577319588,97,32.577319587628864,-3.0,-85.0,165.0,0
1724740112,18.5633,73.8332733,539.8,27.362886597938143,97,32.56701030927835,-4.0,-85.0,163.0,0
1724740113,18.5633,73.8332733,539.8,27.285567010309276,97,32.56701030927835,-3.0,-85.0,164.0,0
1724740114,18.5633,73.8332733,539.8,27.061855670103093,97,32.56701030927835,-5.0,-85.0,163.0,0
1724740115,18.5633,73.8332733,539.8,27.196907216494843,97,32.577319587628864,-3.0,-85.0,165.0,0
1724740116,18.5633,73.8332733,539.8,27.09072164948454,97,32.58762886597938,-5.0,-86.0,162.0,0
1724740117,18.5633,73.8332733,539.8,27.281443298969073,97,32.58762886597938,-4.0,-85.0,163.0,0
1724740118,18.5633,73.8332733,539.8,27.350515463917525,97,32.56701030927835,-4.0,-85.0,164.0,0
1724740119,18.5633,73.8332733,539.8,27.249484536082473,97,32.54639175257732,-4.0,-85.0,163.0,0
1724740120,18.5633,73.8332733,539.8,27.37319587628866,97,32.55670103092783,-4.0,-85.0,163.0,0
1724740121,18.5633,73.8332733,539.8,26.84432989690722,97,32.56701030927835,-5.0,-85.0,162.0,0
1724740122,18.5633,73.8332733,539.8,27.129896907216494,97,32.56701030927835,-3.0,-85.0,164.0,0
1724740123,18.5633,73.8332733,539.8,27.26701030927835,97,32.56701030927835,-4.0,-85.0,163.0,0
1724740124,18.5633,73.8332733,539.8,27.304123711340207,97,32.56701030927835,-5.0,-85.0,163.0,0
1724740125,18.5633,73.8332733,539.8,27.101030927835055,97,32.56701030927835,-2.0,-86.0,165.0,0
1724740126,18.5633,73.8332733,539.8,26.98041237113402,97,32.56701030927835,-5.0,-86.0,163.0,0
1724740127,18.5633,73.8332733,539.8,27.125773195876288,97,32.56701030927835,-4.0,-85.0,163.0,0
1724740128,18.5633,73.8332733,539.8,27.15360824742268,97,32.56701030927835,-4.0,-86.0,164.0,0
1724740129,18.5633,73.8332733,539.8,27.185567010309278,97,32.55670103092783,-4.0,-85.0,163.0,0
1724740130,18.5633,73.8332733,539.8,27.25979381443299,97,32.55670103092783,-4.0,-85.0,164.0,0
1724740131,18.5633,73.8332733,539.8,27.24020618556701,97,32.56701030927835,-4.0,-85.0,163.0,0
1724740132,18.5633,73.8332733,539.8,27.054639175257734,97,32.56701030927835,-4.0,-85.0,164.0,0
1724740133,18.5633,73.8332733,539.8,26.943298969072163,97,32.56701030927835,-5.0,-86.0,162.0,0
1724740134,18.5633,73.8332733,539.8,26.877319587628865,97,32.577319587628864,-4.0,-85.0,163.0,0
1724740135,18.5633,73.8332733,539.8,26.901030927835052,97,32.577319587628864,-3.0,-86.0,164.0,0
1724740136,18.5633,73.8332733,539.8,26.84536082474227,97,32.577319587628864,-4.0,-86.0,164.0,0
1724740137,18.5633,73.8332733,539.8,26.90927835051546,97,32.577319587628864,-5.0,-85.0,162.0,0
1724740138,18.5633,73.8332733,539.8,26.735051546391755,97,32.577319587628864,-1.0,-84.0,166.0,0
1724740139,18.5633,73.8332733,539.8,26.904123711340205,97,32.577319587628864,-3.0,-85.0,165.0,0
1724740140,18.5633,73.8332733,539.8,26.876288659793815,97,32.577319587628864,-5.0,-85.0,163.0,0
1724740141,18.5633,73.8332733,539.8,27.023711340206187,97,32.577319587628864,-3.0,-85.0,164.0,0
1724740142,18.5633,73.8332733,539.8,26.965979381443297,97,31.61855670103093,-5.0,-86.0,162.0,0
1724740143,18.5633,73.8332733,539.8,26.894845360824743,97,32.608247422680414,-5.0,-86.0,163.0,0
1724740144,18.5633,73.8332733,539.8,26.7,97,32.618556701030926,-3.0,-86.0,164.0,0
1724740145,18.5633,73.8332733,539.8,26.52783505154639,97,32.618556701030926,-3.0,-85.0,164.0,0
1724740146,18.5633,73.8332733,539.8,26.703092783505152,97,32.618556701030926,-3.0,-85.0,165.0,0
1724740147,18.5633,73.8332733,539.8,26.652577319587632,97,32.618556701030926,-4.0,-85.0,163.0,0
1724740148,18.5633,73.8332733,539.8,26.509278350515466,97,32.618556701030926,-4.0,-85.0,164.0,0
1724740149,18.5633,73.8332733,539.8,26.72577319587629,97,32.618556701030926,-4.0,-85.0,163.0,0
1724740150,18.5633,73.8332733,539.8,26.62680412371134,97,32.618556701030926,-4.0,-85.0,163.0,0
1724740151,18.5633,73.8332733,539.8,26.46701030927835,97,32.618556701030926,-5.0,-85.0,162.0,0
1724740152,18.5633,73.8332733,539.8,26.714432989690724,97,32.577319587628864,-5.0,-86.0,163.0,0
1724740153,18.5633,73.8332733,539.8,26.676288659793812,97,32.54639175257732,-3.0,-85.0,164.0,0
1724740154,18.5633,73.8332733,539.8,26.87938144329897,97,32.56701030927835,-4.0,-85.0,163.0,0
1724740155,18.5633,73.8332733,539.8,26.72474226804124,97,32.56701030927835,-3.0,-85.0,164.0,0
1724740156,18.5633,73.8332733,539.8,26.605154639175257,97,32.56701030927835,-4.0,-85.0,163.0,0
1724740157,18.5633,73.8332733,539.8,26.45773195876289,97,32.54639175257732,-5.0,-85.0,162.0,0
1724740158,18.5633,73.8332733,539.8,26.749484536082473,97,32.54639175257732,-3.0,-85.0,165.0,0
1724740159,18.5633,73.8332733,539.8,26.66185567010309,97,32.54639175257732,0.0,-85.0,167.0,0
1724740160,18.5633,73.8332733,539.8,26.688659793814434,97,32.54639175257732,-3.0,-85.0,164.0,0
1724740161,18.5633,73.8332733,539.8,26.68247422680412,97,32.54639175257732,-3.0,-85.0,164.0,0
1724740162,18.5633,73.8332733,539.8,26.589690721649482,97,32.54639175257732,-4.0,-85.0,164.0,0
1724740163,18.5633,73.8332733,539.8,26.50618556701031,97,32.56701030927835,-4.0,-86.0,163.0,0
1724740164,18.5633,73.8332733,539.8,26.76701030927835,97,33.24742268041237,-3.0,-85.0,164.0,0
1724740165,18.5633,73.8332733,539.8,26.81237113402062,97,33.24742268041237,-4.0,-85.0,164.0,0
1724740166,18.5633,73.8332733,539.8,26.842268041237112,97,33.24742268041237,-4.0,-85.0,164.0,0
1724740167,18.5633,73.8332733,539.8,26.70515463917526,97,33.24742268041237,-5.0,-85.0,163.0,0
1724740168,18.5633,73.8332733,539.8,26.926804123711342,97,34.04123711340206,-3.0,-86.0,165.0,0
1724740169,18.5633,73.8332733,539.8,,0,,-3.0,-85.0,165.0,0
1724740170,18.5633,73.8332733,539.8,26.607731958762884,194,33.7319587628866,-3.0,-85.0,165.0,0
1724740171,18.5633,73.8332733,539.8,26.375510204081635,98,33.39795918367347,-3.0,-85.0,164.0,0
1724740172,18.5633,73.8332733,539.8,26.48061224489796,98,33.39795918367347,-5.0,-86.0,162.0,0
1724740173,18.5633,73.8332733,539.8,26.482653061224493,98,33.10204081632653,-5.0,-85.0,163.0,0
1724740174,18.5633,73.8332733,539.8,26.453061224489797,98,33.10204081632653,-6.0,-86.0,162.0,0
1724740175,18.5633,73.8332733,539.8,26.381632653061224,98,33.10204081632653,-2.0,-85.0,165.0,0
1724740176,18.5633,73.8332733,539.8,26.357142857142858,98,33.10204081632653,-7.0,-86.0,161.0,0
1724740177,18.5633,73.8332733,539.8,26.547959183673466,98,32.83673469387755,-2.0,-85.0,165.0,0
1724740178,18.5633,73.8332733,539.8,26.53673469387755,98,32.83673469387755,-3.0,-85.0,164.0,0
1724740179,18.5633,73.8332733,539.8,26.697959183673472,98,32.83673469387755,-6.0,-86.0,162.0,0
1724740180,18.5633,73.8332733,539.8,26.554081632653062,98,32.83673469387755,-7.0,-85.0,161.0,0
1724740181,18.5633,73.8332733,539.8,26.420408163265304,98,32.8469387755102,-3.0,-85.0,165.0,0
1724740182,18.5633,73.8332733,539.8,26.470408163265304,98,32.66326530612245,-4.0,-85.0,163.0,0
1724740183,18.5633,73.8332733,539.8,26.402040816326533,98,32.66326530612245,-4.0,-86.0,163.0,0
1724740184,18.5633,73.8332733,539.8,26.455102040816325,98,32.66326530612245,-3.0,-85.0,164.0,0
1724740185,18.5633,73.8332733,539.8,26.259183673469387,98,32.66326530612245,-4.0,-85.0,164.0,0
1724740186,18.5633,73.8332733,539.8,26.443877551020407,98,32.66326530612245,-4.0,-85.0,163.0,0
1724740187,18.5633,73.8332733,539.8,26.46530612244898,98,32.55102040816327,-4.0,-85.0,163.0,0
1724740188,18.5633,73.8332733,539.8,26.39183673469388,98,32.55102040816327,-4.0,-85.0,163.0,0
1724740189,18.5633,73.8332733,539.8,26.557142857142857,98,32.55102040816327,-4.0,-85.0,163.0,0
1724740190,18.5633,73.8332733,539.8,26.541836734693877,98,32.54081632653061,-5.0,-85.0,163.0,0
1724740191,18.5633,73.8332733,539.8,26.481632653061222,98,32.43877551020408,-4.0,-85.0,163.0,0
1724740192,18.5633,73.8332733,539.8,26.420408163265304,98,31.459183673469386,-4.0,-85.0,164.0,0
1724740193,18.5633,73.8332733,539.8,26.473469387755102,98,32.43877551020408,-8.0,-85.0,160.0,0
1724740194,18.5633,73.8332733,539.8,26.43469387755102,98,32.43877551020408,-5.0,-85.0,162.0,0
1724740195,18.5633,73.8332733,539.8,26.389795918367344,98,32.43877551020408,0.0,-86.0,167.0,0
1724740196,18.5633,73.8332733,539.8,26.33061224489796,98,33.0,-5.0,-85.0,163.0,0
1724740197,18.5633,73.8332733,539.8,26.506122448979593,98,33.0,-5.0,-86.0,162.0,0
1724740198,18.5633,73.8332733,539.8,26.375510204081635,98,33.0,-4.0,-86.0,163.0,0
1724740199,18.5633,73.8332733,539.8,26.26530612244898,98,33.0,-5.0,-85.0,163.0,0
1724740200,18.5633,73.8332733,539.8,26.382653061224488,98,33.39795918367347,-5.0,-86.0,162.0,0
1724740201,18.5633,73.8332733,539.8,26.392857142857142,98,33.39795918367347,-5.0,-85.0,163.0,0
1724740202,18.5633,73.8332733,539.8,26.379591836734694,98,33.39795918367347,-5.0,-85.0,162.0,0
1724740203,18.5633,73.8332733,539.8,26.31122448979592,98,33.39795918367347,-5.0,-85.0,163.0,0
1724740204,18.5633,73.8332733,539.8,26.448979591836736,98,33.39795918367347,-5.0,-86.0,162.0,0
1724740205,18.5633,73.8332733,539.8,26.427551020408163,98,33.10204081632653,-5.0,-86.0,163.0,0
1724740206,18.5633,73.8332733,539.8,26.39183673469388,98,33.10204081632653,-4.0,-86.0,163.0,0
1724740207,18.5633,73.8332733,539.8,26.458163265306123,98,33.10204081632653,-5.0,-86.0,162.0,0
1724740208,18.5633,73.8332733,539.8,26.528571428571432,98,33.10204081632653,-4.0,-85.0,163.0,0
1724740209,18.5633,73.8332733,539.8,26.187755102040818,98,32.83673469387755,-5.0,-86.0,163.0,0
1724740210,18.5633,73.8332733,539.8,26.3265306122449,98,32.83673469387755,-5.0,-86.0,163.0,0
1724740211,18.5633,73.8332733,539.8,26.482653061224493,98,32.83673469387755,-5.0,-86.0,163.0,0
1724740212,18.5633,73.8332733,539.8,26.352040816326532,98,32.83673469387755,-4.0,-85.0,163.0,0
1724740213,18.5633,73.8332733,539.8,26.41530612244898,98,32.83673469387755,-5.0,-85.0,163.0,0
1724740214,18.5633,73.8332733,539.8,26.341836734693878,98,32.83673469387755,-5.0,-85.0,163.0,0
1724740215,18.5633,73.8332733,539.8,26.445918367346938,98,32.6530612244898,-5.0,-85.0,162.0,0
1724740216,18.5633,73.8332733,539.8,26.41938775510204,98,32.642857142857146,-4.0,-86.0,163.0,0
1724740217,18.5633,73.8332733,539.8,26.235714285714284,98,32.642857142857146,-5.0,-85.0,162.0,0
1724740218,18.5633,73.8332733,539.8,26.24591836734694,98,32.53061224489796,-4.0,-86.0,163.0,0
1724740219,18.5633,73.8332733,539.8,26.4,98,32.53061224489796,-5.0,-85.0,163.0,0
1724740220,18.5633,73.8332733,539.8,26.416326530612245,98,32.51020408163265,-5.0,-86.0,163.0,0
1724740221,18.5633,73.8332733,539.8,26.526530612244898,98,32.51020408163265,-5.0,-86.0,162.0,0
1724740222,18.5633,73.8332733,539.8,26.738775510204082,98,32.51020408163265,-5.0,-86.0,163.0,0
1724740223,18.5633,73.8332733,539.8,26.442857142857143,98,32.51020408163265,-5.0,-86.0,162.0,0
1724740224,18.5633,73.8332733,539.8,26.587755102040816,98,32.51020408163265,-4.0,-86.0,163.0,0
1724740225,18.5633,73.8332733,539.8,26.714285714285715,98,32.40816326530612,-4.0,-86.0,163.0,0
1724740226,18.5633,73.8332733,539.8,26.40714285714286,98,32.38775510204081,-5.0,-86.0,162.0,0
1724740227,18.5633,73.8332733,539.8,26.66122448979592,98,32.275510204081634,-4.0,-86.0,163.0,0
1724740228,18.5633,73.8332733,539.8,26.642857142857142,98,32.275510204081634,-5.0,-85.0,162.0,0
1724740229,18.5633,73.8332733,539.8,26.529591836734696,98,32.275510204081634,-4.0,-86.0,163.0,0
1724740230,18.5633,73.8332733,539.8,26.60816326530612,98,32.295918367346935,-5.0,-86.0,163.0,0
1724740231,18.5633,73.8332733,539.8,26.610204081632656,98,32.295918367346935,-5.0,-86.0,162.0,0
1724740232,18.5633,73.8332733,539.8,26.305102040816326,98,32.295918367346935,-5.0,-86.0,162.0,0
1724740233,18.5633,73.8332733,539.8,26.567346938775508,98,32.295918367346935,-5.0,-86.0,162.0,0
1724740234,18.5633,73.8332733,539.8,26.44183673469388,98,32.316326530612244,-5.0,-86.0,163.0,0
1724740235,18.5633,73.8332733,539.8,26.572448979591837,98,32.224489795918366,-5.0,-86.0,163.0,0
1724740236,18.5633,73.8332733,539.8,26.653061224489797,98,32.224489795918366,-5.0,-86.0,163.0,0
1724740237,18.5633,73.8332733,539.8,26.555102040816326,98,32.224489795918366,-5.0,-86.0,163.0,0
1724740238,18.5633,73.8332733,539.8,26.494897959183675,98,32.224489795918366,-4.0,-86.0,163.0,0
1724740239,18.5633,73.8332733,539.8,26.646938775510204,98,32.224489795918366,-4.0,-86.0,164.0,0
1724740240,18.5633,73.8332733,539.8,26.481632653061222,98,32.224489795918366,-5.0,-85.0,162.0,0
1724740241,18.5633,73.8332733,539.8,26.658163265306122,98,32.224489795918366,-5.0,-85.0,162.0,0
1724740242,18.5633,73.8332733,539.8,26.680612244897958,98,31.244897959183675,-3.0,-86.0,164.0,0
1724740243,18.5633,73.8332733,539.8,26.738775510204082,98,32.224489795918366,-5.0,-86.0,162.0,0
1724740244,18.5633,73.8332733,539.8,26.476530612244897,98,32.224489795918366,-6.0,-86.0,162.0,0
1724740245,18.5633,73.8332733,539.8,26.66122448979592,98,32.224489795918366,-5.0,-86.0,163.0,0
1724740246,18.5633,73.8332733,539.8,26.712244897959184,98,32.224489795918366,-5.0,-86.0,163.0,0
1724740247,18.5633,73.8332733,539.8,26.610204081632656,98,33.224489795918366,-5.0,-86.0,163.0,0
1724740248,18.5633,73.8332733,539.8,26.778571428571432,98,32.62244897959184,-5.0,-86.0,162.0,0
1724740249,18.5633,73.8332733,539.8,26.88877551020408,98,32.62244897959184,-5.0,-85.0,162.0,0
1724740250,18.5633,73.8332733,539.8,26.620408163265306,98,32.62244897959184,-5.0,-85.0,163.0,0
1724740251,18.5633,73.8332733,539.8,26.767346938775507,98,32.642857142857146,-4.0,-85.0,163.0,0
1724740252,18.5633,73.8332733,539.8,26.804081632653062,98,33.13265306122449,-5.0,-86.0,163.0,0
1724740253,18.5633,73.8332733,539.8,26.70612244897959,98,33.1530612244898,-4.0,-86.0,163.0,0
1724740254,18.5633,73.8332733,539.8,26.731632653061222,98,33.1530612244898,-5.0,-86.0,162.0,0
1724740255,18.5633,73.8332733,539.8,26.697959183673472,98,33.10204081632653,-6.0,-85.0,162.0,0
1724740256,18.5633,73.8332733,539.8,26.482653061224493,98,32.83673469387755,-2.0,-86.0,165.0,0
1724740257,18.5633,73.8332733,539.8,26.727551020408164,98,32.87755102040816,-3.0,-85.0,164.0,0
1724740258,18.5633,73.8332733,539.8,26.787755102040816,98,32.96938775510204,-7.0,-86.0,160.0,0
1724740259,18.5633,73.8332733,539.8,26.7,98,33.10204081632653,-4.0,-85.0,163.0,0
1724740260,18.5633,73.8332733,539.8,26.692857142857143,98,33.295918367346935,-4.0,-85.0,163.0,0
1724740261,18.5633,73.8332733,539.8,26.666326530612245,98,33.255102040816325,1.0,-85.0,169.0,0
1724740262,18.5633,73.8332733,539.8,26.458163265306123,98,33.37755102040816,-3.0,-85.0,164.0,0
1724740263,18.5633,73.8332733,539.8,26.59285714285714,98,33.326530612244895,-5.0,-85.0,162.0,0
1724740264,18.5633,73.8332733,539.8,26.557142857142857,98,33.265306122448976,-6.0,-86.0,162.0,0
1724740265,18.5633,73.8332733,539.8,26.498979591836736,98,33.05102040816327,-4.0,-85.0,164.0,0
1724740266,18.5633,73.8332733,539.8,26.625510204081635,98,33.02040816326531,-5.0,-86.0,162.0,0
1724740267,18.5633,73.8332733,539.8,26.533673469387757,98,33.0,-6.0,-86.0,162.0,0
1724740268,18.5633,73.8332733,539.8,26.06122448979592,98,33.0,-3.0,-85.0,164.0,0
1724740269,18.5633,73.8332733,539.8,26.09285714285714,98,32.98979591836735,-6.0,-86.0,162.0,0
1724740270,18.5633,73.8332733,539.8,26.35816326530612,98,32.87755102040816,-4.0,-85.0,163.0,0
1724740271,18.5633,73.8332733,539.8,26.682653061224492,98,32.87755102040816,-4.0,-85.0,163.0,0
1724740272,18.5633,73.8332733,539.8,26.402040816326533,98,32.87755102040816,-5.0,-85.0,162.0,0
1724740273,18.5633,73.8332733,539.8,26.551020408163264,98,32.88775510204081,-5.0,-85.0,162.0,0
1724740274,18.5633,73.8332733,539.8,26.370408163265306,98,32.765306122448976,-5.0,-86.0,163.0,0
1724740275,18.5633,73.8332733,539.8,26.447959183673472,98,32.765306122448976,-5.0,-85.0,163.0,0
1724740276,18.5633,73.8332733,539.8,26.319387755102042,98,32.775510204081634,-5.0,-85.0,163.0,0
1724740277,18.5633,73.8332733,539.8,26.327551020408162,98,32.775510204081634,-5.0,-85.0,162.0,0
1724740278,18.5633,73.8332733,539.8,26.386734693877553,98,32.775510204081634,-5.0,-85.0,162.0,0
1724740279,18.5633,73.8332733,539.8,26.352040816326532,98,32.785714285714285,-5.0,-85.0,163.0,0
1724740280,18.5633,73.8332733,539.8,26.362244897959183,98,32.66326530612245,-5.0,-86.0,162.0,0
1724740281,18.5633,73.8332733,539.8,26.415463917525773,97,32.70103092783505,-4.0,-86.0,163.0,0
1724740282,18.5633,73.8332733,539.8,26.49896907216495,97,32.70103092783505,-5.0,-85.0,163.0,0
1724740283,18.5633,73.8332733,539.8,26.331632653061224,98,32.6530612244898,-5.0,-86.0,162.0,0
1724740284,18.5633,73.8332733,539.8,26.38469387755102,98,32.56122448979592,-5.0,-86.0,162.0,0
1724740285,18.5633,73.8332733,539.8,26.386734693877553,98,32.56122448979592,-4.0,-86.0,163.0,0
1724740286,18.5633,73.8332733,539.8,26.406122448979595,98,32.56122448979592,-5.0,-85.0,162.0,0
1724740287,18.5633,73.8332733,539.8,26.289795918367346,98,32.55102040816327,-5.0,-86.0,163.0,0
1724740288,18.5633,73.8332733,539.8,26.444897959183674,98,32.55102040816327,-5.0,-86.0,163.0,0
1724740289,18.5633,73.8332733,539.8,26.496938775510202,98,32.55102040816327,-5.0,-86.0,163.0,0
1724740290,18.5633,73.8332733,539.8,26.788775510204083,98,32.54081632653061,-5.0,-86.0,163.0,0
1724740291,18.5633,73.8332733,539.8,26.79591836734694,98,32.54081632653061,-5.0,-86.0,163.0,0
1724740292,18.5633,73.8332733,539.8,26.797938144329898,97,31.77319587628866,-5.0,-86.0,162.0,0
1724740293,18.5633,73.8332733,539.8,26.65360824742268,97,32.75257731958763,-4.0,-86.0,163.0,0
1724740294,18.5633,73.8332733,539.8,26.546938775510203,98,32.53061224489796,-5.0,-86.0,163.0,0
1724740295,18.5633,73.8332733,539.8,26.28061224489796,98,32.5,-5.0,-86.0,163.0,0
1724740296,18.5633,73.8332733,539.8,26.30918367346939,98,32.5,-4.0,-85.0,163.0,0
1724740297,18.5633,73.8332733,539.8,26.417346938775513,98,32.52040816326531,-5.0,-85.0,163.0,0
1724740298,18.5633,73.8332733,539.8,26.437755102040818,98,32.51020408163265,-5.0,-86.0,162.0,0
1724740299,18.5633,73.8332733,539.8,26.3765306122449,98,32.51020408163265,-5.0,-86.0,162.0,0
1724740300,18.5633,73.8332733,539.8,26.443877551020407,98,32.5,-5.0,-86.0,163.0,0
1724740301,18.5633,73.8332733,539.8,26.346938775510203,98,32.5,-5.0,-86.0,163.0,0
1724740302,18.5633,73.8332733,539.8,26.613265306122447,98,32.48979591836735,-4.0,-86.0,163.0,0
1724740303,18.5633,73.8332733,539.8,26.468367346938777,98,32.47959183673469,-5.0,-86.0,163.0,0
1724740304,18.5633,73.8332733,539.8,26.70618556701031,97,32.69072164948454,-5.0,-86.0,163.0,0
1724740305,18.5633,73.8332733,539.8,26.610204081632656,98,32.46938775510204,-4.0,-86.0,164.0,0
1724740306,18.5633,73.8332733,539.8,26.531632653061223,98,32.46938775510204,-4.0,-85.0,163.0,0
1724740307,18.5633,73.8332733,539.8,26.453061224489797,98,32.45918367346939,-2.0,-85.0,165.0,0
1724740308,18.5633,73.8332733,539.8,26.636734693877553,98,32.44897959183673,-5.0,-86.0,162.0,0
1724740309,18.5633,73.8332733,539.8,26.51530612244898,98,32.43877551020408,-5.0,-86.0,163.0,0
1724740310,18.5633,73.8332733,539.8,26.621649484536086,97,32.65979381443299,-6.0,-86.0,162.0,0
1724740311,18.5633,73.8332733,539.8,26.77938144329897,97,32.63917525773196,-5.0,-85.0,162.0,0
1724740312,18.5633,73.8332733,539.8,26.645360824742266,97,32.63917525773196,-5.0,-86.0,163.0,0
1724740313,18.5633,73.8332733,539.8,26.405154639175258,97,32.628865979381445,-5.0,-86.0,162.0,0
1724740314,18.5633,73.8332733,539.8,26.709278350515465,97,33.30927835051546,-5.0,-86.0,163.0,0
1724740315,18.5633,73.8332733,539.8,26.683505154639178,97,33.30927835051546,-5.0,-85.0,163.0,0
1724740316,18.5633,73.8332733,539.8,26.45876288659794,97,33.30927835051546,-5.0,-85.0,163.0,0
1724740317,18.5633,73.8332733,539.8,26.50618556701031,97,33.81443298969072,-4.0,-86.0,163.0,0
1724740318,18.5633,73.8332733,539.8,26.578350515463917,97,33.81443298969072,-5.0,-86.0,162.0,0
1724740319,18.5633,73.8332733,539.8,26.56458333333333,96,34.125,-4.0,-85.0,163.0,0
1724740320,18.5633,73.8332733,539.8,26.476041666666664,96,34.260416666666664,-5.0,-85.0,162.0,0
1724740321,18.5633,73.8332733,539.8,26.597916666666666,96,34.114583333333336,-6.0,-86.0,162.0,0
1724740322,18.5633,73.8332733,539.8,26.605154639175257,97,33.81443298969072,-5.0,-85.0,163.0,0
1724740323,18.5633,73.8332733,539.8,26.558762886597936,97,33.8041237113402,-5.0,-85.0,162.0,0
1724740324,18.5633,73.8332733,539.8,26.57113402061856,97,33.52577319587629,-5.0,-86.0,163.0,0
1724740325,18.5633,73.8332733,539.8,26.460824742268038,97,33.52577319587629,-6.0,-86.0,162.0,0
1724740326,18.5633,73.8332733,539.8,26.376288659793815,97,33.24742268041237,-5.0,-86.0,163.0,0
1724740327,18.5633,73.8332733,539.8,26.330927835051547,97,33.24742268041237,-5.0,-86.0,163.0,0
1724740328,18.5633,73.8332733,539.8,26.323711340206188,97,33.22680412371134,-5.0,-86.0,163.0,0
1724740329,18.5633,73.8332733,539.8,26.42395833333333,96,33.25,-5.0,-86.0,162.0,0
1724740330,18.5633,73.8332733,539.8,26.431958762886598,97,33.21649484536083,-4.0,-86.0,163.0,0
1724740331,18.5633,73.8332733,539.8,26.414583333333336,96,33.520833333333336,-4.0,-85.0,163.0,0
1724740332,18.5633,73.8332733,539.8,26.336458333333336,96,33.510416666666664,-4.0,-85.0,163.0,0
1724740333,18.5633,73.8332733,539.8,26.204166666666666,96,33.322916666666664,-4.0,-85.0,163.0,0
1724740334,18.5633,73.8332733,539.8,26.39270833333333,96,33.322916666666664,-5.0,-85.0,163.0,0
1724740335,18.5633,73.8332733,539.8,26.271874999999998,96,33.208333333333336,-4.0,-85.0,163.0,0
1724740336,18.5633,73.8332733,539.8,26.51578947368421,95,33.252631578947366,-4.0,-86.0,164.0,0
1724740337,18.5633,73.8332733,539.8,26.594736842105263,95,33.252631578947366,-5.0,-86.0,162.0,0
1724740338,18.5633,73.8332733,539.8,26.750526315789475,95,33.27368421052632,-5.0,-86.0,163.0,0
1724740339,18.5633,73.8332733,539.8,26.830526315789474,95,33.27368421052632,-5.0,-85.0,163.0,0
1724740340,18.5633,73.8332733,539.8,26.804210526315792,95,33.28421052631579,-3.0,-85.0,165.0,0
1724740341,18.5633,73.8332733,539.8,26.69263157894737,95,33.28421052631579,-5.0,-85.0,162.0,0
1724740342,18.5633,73.8332733,539.8,26.767368421052634,95,32.252631578947366,-5.0,-85.0,163.0,0
1724740343,18.5633,73.8332733,539.8,26.85684210526316,95,33.26315789473684,-5.0,-85.0,163.0,0
1724740344,18.5633,73.8332733,539.8,26.75473684210526,95,33.252631578947366,-6.0,-86.0,162.0,0
1724740345,18.5633,73.8332733,539.8,26.7,95,33.23157894736842,-3.0,-85.0,164.0,0
1724740346,18.5633,73.8332733,539.8,26.68541666666667,96,32.927083333333336,-5.0,-85.0,162.0,0
1724740347,18.5633,73.8332733,539.8,26.745833333333334,96,32.927083333333336,-5.0,-86.0,163.0,0
1724740348,18.5633,73.8332733,539.8,26.783505154639176,97,32.876288659793815,-5.0,-86.0,162.0,0
1724740349,18.5633,73.8332733,539.8,26.853125000000002,96,33.166666666666664,-6.0,-86.0,161.0,0
1724740350,18.5633,73.8332733,539.8,26.76875,96,33.166666666666664,-4.0,-86.0,163.0,0
1724740351,18.5633,73.8332733,539.8,26.670833333333334,96,33.166666666666664,-5.0,-86.0,163.0,0
1724740352,18.5633,73.8332733,539.8,26.722916666666666,96,33.166666666666664,-5.0,-85.0,163.0,0
1724740353,18.5633,73.8332733,539.8,26.328865979381444,97,32.865979381443296,-6.0,-85.0,162.0,0
1724740354,18.5633,73.8332733,539.8,26.352083333333336,96,33.760416666666664,-2.0,-86.0,165.0,0
1724740355,18.5633,73.8332733,539.8,26.309375,96,33.75,-8.0,-86.0,160.0,0
1724740356,18.5633,73.8332733,539.8,26.322916666666668,96,33.75,-5.0,-86.0,162.0,0
1724740357,18.5633,73.8332733,539.8,26.415625000000002,96,33.760416666666664,-2.0,-85.0,165.0,0
1724740358,18.5633,73.8332733,539.8,26.257291666666664,96,33.760416666666664,-4.0,-85.0,163.0,0
1724740359,18.5633,73.8332733,539.8,26.378125,96,33.760416666666664,-5.0,-85.0,163.0,0
1724740360,18.5633,73.8332733,539.8,26.222916666666666,96,33.760416666666664,-5.0,-85.0,162.0,0
1724740361,18.5633,73.8332733,539.8,26.596875,96,33.75,-4.0,-86.0,163.0,0
1724740362,18.5633,73.8332733,539.8,26.54895833333333,96,33.75,-4.0,-86.0,163.0,0
1724740363,18.5633,73.8332733,539.8,26.703157894736844,95,33.526315789473685,-5.0,-85.0,162.0,0
1724740364,18.5633,73.8332733,539.8,26.71578947368421,95,33.526315789473685,-4.0,-86.0,163.0,0
1724740365,18.5633,73.8332733,539.8,26.649473684210523,95,33.526315789473685,-4.0,-86.0,163.0,0
1724740366,18.5633,73.8332733,539.8,26.683157894736844,95,33.526315789473685,-4.0,-86.0,163.0,0
1724740367,18.5633,73.8332733,539.8,26.623157894736842,95,33.526315789473685,-4.0,-86.0,164.0,0
1724740368,18.5633,73.8332733,539.8,26.566315789473688,95,33.51578947368421,-5.0,-86.0,163.0,0
1724740369,18.5633,73.8332733,539.8,26.62526315789474,95,33.51578947368421,-5.0,-86.0,163.0,0
1724740370,18.5633,73.8332733,539.8,26.653684210526315,95,33.51578947368421,-4.0,-86.0,163.0,0
1724740371,18.5633,73.8332733,539.8,26.629473684210527,95,33.51578947368421,-4.0,-86.0,163.0,0
1724740372,18.5633,73.8332733,539.8,26.618947368421054,95,33.51578947368421,-5.0,-86.0,163.0,0
1724740373,18.5633,73.8332733,539.8,26.65684210526316,95,33.4,-5.0,-86.0,163.0,0
1724740374,18.5633,73.8332733,539.8,26.66315789473684,95,33.4,-4.0,-85.0,163.0,0
1724740375,18.5633,73.8332733,539.8,26.634736842105266,95,33.4,-4.0,-86.0,163.0,0
1724740376,18.5633,73.8332733,539.8,26.849462365591396,93,33.60215053763441,-5.0,-86.0,163.0,0
1724740377,18.5633,73.8332733,539.8,26.629473684210527,95,33.136842105263156,-4.0,-85.0,163.0,0
1724740378,18.5633,73.8332733,539.8,26.51770833333333,96,33.083333333333336,-4.0,-86.0,163.0,0
1724740379,18.5633,73.8332733,539.8,26.327083333333334,96,33.083333333333336,-4.0,-85.0,163.0,0
1724740380,18.5633,73.8332733,539.8,26.3,96,33.083333333333336,-4.0,-86.0,163.0,0
1724740381,18.5633,73.8332733,539.8,26.21875,96,33.083333333333336,-4.0,-85.0,163.0,0
1724740382,18.5633,73.8332733,539.8,26.340625,96,32.927083333333336,-4.0,-85.0,163.0,0
1724740383,18.5633,73.8332733,539.8,26.272916666666664,96,32.927083333333336,-5.0,-86.0,162.0,0
1724740384,18.5633,73.8332733,539.8,26.179166666666664,96,32.927083333333336,-4.0,-85.0,163.0,0
1724740385,18.5633,73.8332733,539.8,26.192708333333332,96,32.916666666666664,-5.0,-85.0,163.0,0
1724740386,18.5633,73.8332733,539.8,26.355208333333334,96,32.927083333333336,-5.0,-86.0,162.0,0
1724740387,18.5633,73.8332733,539.8,26.211458333333336,96,32.927083333333336,-4.0,-85.0,164.0,0
1724740388,18.5633,73.8332733,539.8,26.22083333333333,96,32.927083333333336,-5.0,-85.0,162.0,0
1724740389,18.5633,73.8332733,539.8,26.20520833333333,96,32.927083333333336,-5.0,-86.0,163.0,0
1724740390,18.5633,73.8332733,539.8,26.146874999999998,96,32.927083333333336,-3.0,-86.0,165.0,0
1724740391,18.5633,73.8332733,539.8,26.196875000000002,96,32.927083333333336,-5.0,-85.0,162.0,0
1724740392,18.5633,73.8332733,539.8,26.176041666666666,96,31.8125,-4.0,-86.0,163.0,0
1724740393,18.5633,73.8332733,539.8,26.128125,96,32.833333333333336,-5.0,-85.0,162.0,0
1724740394,18.5633,73.8332733,539.8,26.480851063829785,94,33.191489361702125,-5.0,-86.0,163.0,0
1724740395,18.5633,73.8332733,539.8,26.496875,96,32.833333333333336,-3.0,-85.0,164.0,0
1724740396,18.5633,73.8332733,539.8,26.40416666666667,96,32.802083333333336,-6.0,-86.0,162.0,0
1724740397,18.5633,73.8332733,539.8,26.434375,96,32.802083333333336,-4.0,-85.0,163.0,0
1724740398,18.5633,73.8332733,539.8,26.532291666666666,96,32.802083333333336,-4.0,-86.0,163.0,0
1724740399,18.5633,73.8332733,539.8,26.43541666666667,96,32.802083333333336,-5.0,-86.0,162.0,0
1724740400,18.5633,73.8332733,539.8,26.425,96,32.802083333333336,-5.0,-85.0,163.0,0
1724740401,18.5633,73.8332733,539.8,26.386458333333334,96,32.78125,-5.0,-85.0,163.0,0
1724740402,18.5633,73.8332733,539.8,26.473958333333332,96,32.78125,-5.0,-86.0,163.0,0
1724740403,18.5633,73.8332733,539.8,26.473958333333332,96,32.78125,-5.0,-86.0,163.0,0
1724740404,18.5633,73.8332733,539.8,26.411458333333332,96,32.78125,-5.0,-86.0,162.0,0
1724740405,18.5633,73.8332733,539.8,26.349999999999998,96,32.78125,-5.0,-85.0,163.0,0
1724740406,18.5633,73.8332733,539.8,26.38854166666667,96,32.791666666666664,-5.0,-86.0,163.0,0
1724740407,18.5633,73.8332733,539.8,26.35625,96,32.791666666666664,-5.0,-86.0,163.0,0
1724740408,18.5633,73.8332733,539.8,26.364583333333332,96,32.791666666666664,-5.0,-85.0,163.0,0
1724740409,18.5633,73.8332733,539.8,26.379166666666666,96,32.78125,-5.0,-85.0,163.0,0
1724740410,18.5633,73.8332733,539.8,26.378125,96,32.6875,-5.0,-86.0,162.0,0
1724740411,18.5633,73.8332733,539.8,26.31041666666667,96,32.6875,-5.0,-86.0,163.0,0
1724740412,18.5633,73.8332733,539.8,26.109375,96,32.6875,-6.0,-86.0,161.0,0
1724740413,18.5633,73.8332733,539.8,26.24736842105263,95,32.98947368421052,-4.0,-85.0,164.0,0
1724740414,18.5633,73.8332733,539.8,26.183157894736844,95,32.98947368421052,-5.0,-86.0,162.0,0
1724740415,18.5633,73.8332733,539.8,26.268421052631577,95,32.98947368421052,-5.0,-85.0,163.0,0
1724740416,18.5633,73.8332733,539.8,26.082291666666666,96,32.989583333333336,-4.0,-86.0,163.0,0
1724740417,18.5633,73.8332733,539.8,26.12291666666667,96,32.6875,-4.0,-85.0,163.0,0
1724740418,18.5633,73.8332733,539.8,26.081052631578945,95,32.98947368421052,-5.0,-86.0,163.0,0
1724740419,18.5633,73.8332733,539.8,26.027368421052632,95,32.98947368421052,-5.0,-86.0,163.0,0
1724740420,18.5633,73.8332733,539.8,26.222105263157893,95,32.98947368421052,-5.0,-85.0,162.0,0
1724740421,18.5633,73.8332733,539.8,26.15684210526316,95,32.98947368421052,-4.0,-85.0,163.0,0
1724740422,18.5633,73.8332733,539.8,26.364210526315787,95,32.98947368421052,-4.0,-85.0,163.0,0
1724740423,18.5633,73.8332733,539.8,26.33684210526316,95,32.98947368421052,-5.0,-85.0,162.0,0
1724740424,18.5633,73.8332733,539.8,26.289473684210527,95,32.98947368421052,-4.0,-86.0,163.0,0
1724740425,18.5633,73.8332733,539.8,26.23125,96,33.020833333333336,-5.0,-86.0,163.0,0
1724740426,18.5633,73.8332733,539.8,26.266315789473687,95,33.0,-5.0,-85.0,162.0,0
1724740427,18.5633,73.8332733,539.8,25.959999999999997,95,33.02105263157895,-5.0,-85.0,162.0,0
1724740428,18.5633,73.8332733,539.8,26.134736842105266,95,33.02105263157895,-5.0,-86.0,163.0,0
1724740429,18.5633,73.8332733,539.8,26.268421052631577,95,33.04210526315789,-4.0,-85.0,163.0,0
1724740430,18.5633,73.8332733,539.8,26.266315789473687,95,33.04210526315789,-5.0,-85.0,163.0,0
1724740431,18.5633,73.8332733,539.8,26.251578947368422,95,33.04210526315789,-5.0,-85.0,163.0,0
1724740432,18.5633,73.8332733,539.8,26.222105263157893,95,33.04210526315789,-4.0,-86.0,163.0,0
1724740433,18.5633,73.8332733,539.8,26.160416666666666,96,33.083333333333336,-5.0,-85.0,163.0,0
1724740434,18.5633,73.8332733,539.8,26.257291666666664,96,32.739583333333336,-4.0,-85.0,163.0,0
1724740435,18.5633,73.8332733,539.8,26.342708333333334,96,32.739583333333336,-5.0,-86.0,162.0,0
1724740436,18.5633,73.8332733,539.8,26.245833333333334,96,32.71875,-5.0,-85.0,163.0,0
1724740437,18.5633,73.8332733,539.8,26.150000000000002,96,32.71875,-5.0,-86.0,163.0,0
1724740438,18.5633,73.8332733,539.8,26.06494845360825,97,32.76288659793814,-5.0,-86.0,162.0,0
1724740439,18.5633,73.8332733,539.8,26.136082474226804,97,32.76288659793814,-4.0,-86.0,163.0,0
1724740440,18.5633,73.8332733,539.8,26.15463917525773,97,32.76288659793814,-5.0,-86.0,162.0,0
1724740441,18.5633,73.8332733,539.8,25.92886597938144,97,32.76288659793814,-4.0,-86.0,163.0,0
1724740442,18.5633,73.8332733,539.8,26.130927835051544,97,31.75257731958763,-5.0,-85.0,163.0,0
1724740443,18.5633,73.8332733,539.8,26.197916666666668,96,33.0625,-5.0,-86.0,163.0,0
1724740444,18.5633,73.8332733,539.8,26.197916666666668,96,33.0625,-5.0,-86.0,163.0,0
1724740445,18.5633,73.8332733,539.8,26.2625,96,33.0625,-5.0,-86.0,163.0,0
1724740446,18.5633,73.8332733,539.8,26.21666666666667,96,33.052083333333336,-4.0,-86.0,163.0,0
1724740447,18.5633,73.8332733,539.8,26.34166666666667,96,33.739583333333336,-5.0,-85.0,163.0,0
1724740448,18.5633,73.8332733,539.8,26.18958333333333,96,33.739583333333336,-5.0,-86.0,163.0,0
1724740449,18.5633,73.8332733,539.8,26.335416666666664,96,33.739583333333336,-5.0,-86.0,163.0,0
1724740450,18.5633,73.8332733,539.8,26.307291666666668,96,33.71875,-5.0,-85.0,163.0,0
1724740451,18.5633,73.8332733,539.8,26.3125,96,33.71875,-5.0,-86.0,163.0,0
1724740452,18.5633,73.8332733,539.8,26.277083333333334,96,33.71875,-4.0,-86.0,163.0,0
1724740453,18.5633,73.8332733,539.8,26.288541666666664,96,33.71875,-5.0,-86.0,163.0,0
1724740454,18.5633,73.8332733,539.8,26.118750000000002,96,33.71875,-5.0,-86.0,163.0,0
1724740455,18.5633,73.8332733,539.8,26.159375,96,33.71875,-5.0,-86.0,163.0,0
1724740456,18.5633,73.8332733,539.8,26.198958333333334,96,33.53125,-4.0,-85.0,163.0,0
1724740457,18.5633,73.8332733,539.8,26.39375,96,33.520833333333336,-5.0,-86.0,163.0,0
1724740458,18.5633,73.8332733,539.8,26.48125,96,33.520833333333336,-5.0,-86.0,163.0,0
1724740459,18.5633,73.8332733,539.8,26.401041666666668,96,33.520833333333336,-4.0,-85.0,164.0,0
1724740460,18.5633,73.8332733,539.8,26.474999999999998,96,33.520833333333336,-5.0,-86.0,162.0,0
1724740461,18.5633,73.8332733,539.8,26.403125,96,33.520833333333336,-5.0,-86.0,162.0,0
1724740462,18.5633,73.8332733,539.8,26.277083333333334,96,33.520833333333336,-6.0,-85.0,162.0,0
1724740463,18.5633,73.8332733,539.8,26.376041666666666,96,33.520833333333336,-5.0,-86.0,162.0,0
1724740464,18.5633,73.8332733,539.8,26.342708333333334,96,33.520833333333336,-7.0,-85.0,161.0,0
1724740465,18.5633,73.8332733,539.8,26.35625,96,33.40625,-4.0,-86.0,163.0,0
1724740466,18.5633,73.8332733,539.8,26.261458333333334,96,33.40625,-5.0,-85.0,162.0,0
1724740467,18.5633,73.8332733,539.8,26.25208333333333,96,33.416666666666664,-5.0,-85.0,163.0,0
1724740468,18.5633,73.8332733,539.8,26.063541666666666,96,33.416666666666664,-13.0,-85.0,155.0,0
1724740469,18.5633,73.8332733,539.8,26.055208333333336,96,33.416666666666664,-12.0,-86.0,156.0,0
1724740470,18.5633,73.8332733,539.8,25.925,96,33.40625,-7.0,-86.0,161.0,0
1724740471,18.5633,73.8332733,539.8,25.882291666666664,96,33.395833333333336,-6.0,-86.0,161.0,0
1724740472,18.5633,73.8332733,539.8,25.96875,96,33.40625,-9.0,-85.0,159.0,0
1724740473,18.5633,73.8332733,539.8,26.132291666666664,96,33.416666666666664,-11.0,-85.0,157.0,0
1724740474,18.5633,73.8332733,539.8,26.030208333333334,96,33.416666666666664,-13.0,-87.0,154.0,0
1724740475,18.5633,73.8332733,539.8,25.978125000000002,96,33.260416666666664,-6.0,-85.0,161.0,0
1724740476,18.5633,73.8332733,539.8,25.921875,96,33.260416666666664,-1.0,-85.0,166.0,0
1724740477,18.5633,73.8332733,539.8,25.989583333333332,96,33.260416666666664,-11.0,-85.0,156.0,0
1724740478,18.5633,73.8332733,539.8,25.960416666666664,96,33.260416666666664,-5.0,-85.0,162.0,0
1724740479,18.5633,73.8332733,539.8,25.801041666666666,96,33.260416666666664,-8.0,-85.0,160.0,0
1724740480,18.5633,73.8332733,539.8,25.925,96,33.260416666666664,-7.0,-85.0,160.0,0
1724740481,18.5633,73.8332733,539.8,25.962500000000002,96,33.260416666666664,-7.0,-86.0,160.0,0
1724740482,18.5633,73.8332733,539.8,25.985416666666666,96,33.260416666666664,-7.0,-85.0,160.0,0
1724740483,18.5633,73.8332733,539.8,25.901041666666668,96,33.270833333333336,-8.0,-85.0,160.0,0
1724740484,18.5633,73.8332733,539.8,25.840625,96,33.15625,-8.0,-85.0,160.0,0
1724740485,18.5633,73.8332733,539.8,25.969473684210524,95,33.1578947368421,-8.0,-85.0,160.0,0
1724740486,18.5633,73.8332733,539.8,26.018947368421056,95,33.16842105263158,-8.0,-85.0,160.0,0
1724740487,18.5633,73.8332733,539.8,26.205263157894738,95,33.16842105263158,-7.0,-86.0,161.0,0
1724740488,18.5633,73.8332733,539.8,26.196842105263155,95,33.16842105263158,-8.0,-85.0,159.0,0
1724740489,18.5633,73.8332733,539.8,26.152631578947368,95,33.16842105263158,-10.0,-85.0,158.0,0
1724740490,18.5633,73.8332733,539.8,26.06421052631579,95,33.16842105263158,-2.0,-85.0,165.0,0
1724740491,18.5633,73.8332733,539.8,26.213684210526317,95,33.16842105263158,-7.0,-85.0,160.0,0
1724740492,18.5633,73.8332733,539.8,26.001052631578947,95,32.14736842105263,-7.0,-85.0,161.0,0
1724740493,18.5633,73.8332733,539.8,26.124210526315792,95,33.1578947368421,-6.0,-85.0,161.0,0
1724740494,18.5633,73.8332733,539.8,26.196842105263155,95,33.16842105263158,-7.0,-84.0,160.0,0
1724740495,18.5633,73.8332733,539.8,26.3,95,33.16842105263158,-9.0,-85.0,159.0,0
1724740496,18.5633,73.8332733,539.8,25.748421052631578,95,33.17894736842105,-5.0,-85.0,162.0,0
1724740497,18.5633,73.8332733,539.8,26.073684210526316,95,33.2,-7.0,-85.0,160.0,0
1724740498,18.5633,73.8332733,539.8,25.94736842105263,95,33.2,-7.0,-85.0,161.0,0
1724740499,18.5633,73.8332733,539.8,26.032631578947367,95,33.2,-7.0,-85.0,160.0,0
1724740500,18.5633,73.8332733,539.8,26.013684210526318,95,33.2,-7.0,-85.0,160.0,0
1724740501,18.5633,73.8332733,539.8,26.311702127659576,94,33.46808510638298,-7.0,-85.0,160.0,0
1724740502,18.5633,73.8332733,539.8,26.062105263157896,95,33.2,-8.0,-85.0,160.0,0
1724740503,18.5633,73.8332733,539.8,26.274468085106385,94,33.37234042553192,-7.0,-85.0,160.0,0
1724740504,18.5633,73.8332733,539.8,26.285106382978725,94,33.351063829787236,-8.0,-85.0,159.0,0
1724740505,18.5633,73.8332733,539.8,26.205319148936173,94,33.680851063829785,-7.0,-85.0,161.0,0
1724740506,18.5633,73.8332733,539.8,26.25957446808511,94,33.07446808510638,-7.0,-85.0,160.0,0
1724740507,18.5633,73.8332733,539.8,26.165263157894735,95,32.810526315789474,-7.0,-85.0,160.0,0
1724740508,18.5633,73.8332733,539.8,26.225531914893615,94,33.07446808510638,-7.0,-85.0,160.0,0
1724740509,18.5633,73.8332733,539.8,26.330851063829787,94,33.0531914893617,-7.0,-85.0,160.0,0
1724740510,18.5633,73.8332733,539.8,26.227659574468085,94,33.0531914893617,-7.0,-85.0,160.0,0
1724740511,18.5633,73.8332733,539.8,26.20744680851064,94,33.0,-7.0,-85.0,161.0,0
1724740512,18.5633,73.8332733,539.8,26.20744680851064,94,33.03191489361702,-7.0,-85.0,160.0,0
1724740513,18.5633,73.8332733,539.8,26.22978723404255,94,33.07446808510638,-8.0,-85.0,159.0,0
1724740514,18.5633,73.8332733,539.8,26.238297872340425,94,33.191489361702125,-6.0,-85.0,161.0,0
1724740515,18.5633,73.8332733,539.8,26.173404255319152,94,33.329787234042556,-7.0,-85.0,160.0,0
1724740516,18.5633,73.8332733,539.8,26.148936170212767,94,33.5531914893617,-7.0,-85.0,160.0,0
1724740517,18.5633,73.8332733,539.8,26.106382978723403,94,33.787234042553195,-7.0,-85.0,160.0,0
1724740518,18.5633,73.8332733,539.8,26.11063829787234,94,33.91489361702128,-7.0,-85.0,161.0,0
1724740519,18.5633,73.8332733,539.8,26.258510638297874,94,33.861702127659576,-7.0,-85.0,160.0,0
1724740520,18.5633,73.8332733,539.8,26.243617021276595,94,33.808510638297875,-7.0,-85.0,161.0,0
1724740521,18.5633,73.8332733,539.8,26.109574468085107,94,33.765957446808514,-7.0,-85.0,160.0,0
1724740522,18.5633,73.8332733,539.8,26.241489361702126,94,33.734042553191486,-7.0,-85.0,161.0,0
1724740523,18.5633,73.8332733,539.8,26.128723404255318,94,33.734042553191486,-8.0,-85.0,160.0,0
1724740524,18.5633,73.8332733,539.8,26.142553191489363,94,33.723404255319146,-7.0,-85.0,161.0,0
1724740525,18.5633,73.8332733,539.8,26.385106382978723,94,33.712765957446805,-8.0,-85.0,160.0,0
1724740526,18.5633,73.8332733,539.8,26.261702127659575,94,33.712765957446805,-8.0,-85.0,160.0,0
1724740527,18.5633,73.8332733,539.8,26.236170212765956,94,33.712765957446805,-7.0,-85.0,160.0,0
