timestamp,latitude,longitude,altitude,mean_snr,sat_count,mean_elevation,mean_azimuth,roll,pitch,yaw,is_inclined
1723717267,18.5633483,73.83318,523.1,,0,,,9.0,-79.0,200.0,0
1723717266,18.5633483,73.83318,523.1,,0,,,,,,0
1723717268,18.5633483,73.83318,523.1,22.48695652173913,92,29.82608695652174,142.67391304347825,10.0,-79.0,200.0,0
1723717269,18.5633483,73.83318,523.1,22.506521739130434,92,29.82608695652174,142.65217391304347,9.0,-79.0,200.0,0
1723717270,18.5633483,73.83318,523.1,22.49891304347826,92,31.27173913043478,146.59782608695653,10.0,-80.0,201.0,0
1723717271,18.5633483,73.83318,523.1,22.74891304347826,92,31.27173913043478,146.59782608695653,10.0,-79.0,200.0,0
1723717272,18.5633483,73.83318,523.1,22.09565217391304,92,31.27173913043478,146.59782608695653,10.0,-80.0,201.0,0
1723717273,18.5633483,73.83318,523.1,21.82391304347826,92,31.27173913043478,146.57608695652175,10.0,-80.0,201.0,0
1723717274,18.5633483,73.83318,523.1,21.797826086956523,92,31.27173913043478,146.57608695652175,10.0,-80.0,201.0,0
1723717275,18.5633483,73.83318,523.1,22.953260869565216,92,31.91304347826087,149.04347826086956,10.0,-79.0,200.0,0
1723717276,18.5633483,73.83318,523.1,22.73804347826087,92,31.91304347826087,149.04347826086956,10.0,-80.0,201.0,0
1723717277,18.5633483,73.83318,523.1,22.881521739130434,92,31.91304347826087,149.04347826086956,10.0,-80.0,201.0,0
1723717278,18.5633483,73.83318,523.1,23.053260869565218,92,31.91304347826087,149.04347826086956,10.0,-80.0,201.0,0
1723717279,18.5633483,73.83318,523.1,22.779347826086955,92,31.641304347826086,149.16304347826087,9.0,-79.0,200.0,0
1723717280,18.5633483,73.83318,523.1,22.974999999999998,92,31.641304347826086,149.16304347826087,10.0,-79.0,201.0,0
1723717281,18.5633483,73.83318,523.1,22.786021505376343,93,31.526881720430108,149.49462365591398,9.0,-79.0,200.0,0
1723717282,18.5633483,73.83318,523.1,23.348387096774193,93,31.526881720430108,149.49462365591398,9.0,-79.0,200.0,0
1723717283,18.5633483,73.83318,523.1,22.91720430107527,93,31.526881720430108,149.49462365591398,9.0,-79.0,200.0,0
1723717284,18.5633483,73.83318,523.1,23.447311827956987,93,31.526881720430108,149.49462365591398,10.0,-79.0,200.0,0
1723717285,18.5633483,73.83318,523.1,23.24516129032258,93,31.29032258064516,149.74193548387098,10.0,-79.0,200.0,0
1723717286,18.5633483,73.83318,523.1,23.3247311827957,93,31.29032258064516,149.74193548387098,9.0,-79.0,200.0,0
1723717287,18.5633483,73.83318,523.1,23.552688172043013,93,31.29032258064516,149.752688172043,9.0,-79.0,200.0,0
1723717288,18.5633483,73.83318,523.1,23.438709677419357,93,30.365591397849464,147.7741935483871,10.0,-79.0,200.0,0
1723717289,18.5633483,73.83318,523.1,23.582608695652173,92,30.01086956521739,146.6086956521739,9.0,-79.0,200.0,0
1723717290,18.5633483,73.83318,523.1,23.333333333333332,93,30.365591397849464,147.7741935483871,9.0,-79.0,200.0,0
1723717291,18.5633483,73.83318,523.1,23.177419354838708,93,30.376344086021504,147.7741935483871,9.0,-79.0,200.0,0
1723717292,18.5633483,73.83318,523.1,22.901075268817205,93,30.376344086021504,147.7741935483871,9.0,-79.0,200.0,0
1723717293,18.5633483,73.83318,523.1,22.793548387096777,93,30.376344086021504,147.7741935483871,10.0,-79.0,200.0,0
1723717294,18.5633483,73.83318,523.1,22.904301075268815,93,29.978494623655912,145.08602150537635,10.0,-79.0,200.0,0
1723717295,18.5633483,73.83318,523.1,22.903225806451612,93,29.978494623655912,145.08602150537635,10.0,-79.0,200.0,0
1723717296,18.5633483,73.83318,523.1,22.940860215053764,93,29.978494623655912,145.0752688172043,9.0,-79.0,200.0,0
1723717297,18.5633483,73.83318,523.1,23.192473118279572,93,29.978494623655912,145.0752688172043,9.0,-79.0,200.0,0
1723717298,18.5633483,73.83318,523.1,22.89354838709677,93,29.763440860215052,143.03225806451613,9.0,-79.0,200.0,0
1723717299,18.5633483,73.83318,523.1,22.83225806451613,93,29.763440860215052,143.03225806451613,9.0,-79.0,200.0,0
1723717300,18.5633483,73.83318,523.1,22.563440860215056,93,29.763440860215052,143.03225806451613,10.0,-79.0,200.0,0
1723717301,18.5633483,73.83318,523.1,22.729032258064517,93,29.763440860215052,143.03225806451613,9.0,-79.0,200.0,0
1723717302,18.5633483,73.83318,523.1,23.043010752688172,93,29.763440860215052,143.03225806451613,9.0,-79.0,200.0,0
1723717303,18.5633483,73.83318,523.1,23.059139784946236,93,29.752688172043012,143.0215053763441,9.0,-79.0,200.0,0
1723717304,18.5633483,73.83318,523.1,22.789247311827957,93,29.752688172043012,143.0215053763441,9.0,-79.0,200.0,0
1723717305,18.5633483,73.83318,523.1,23.09784946236559,93,29.752688172043012,143.0215053763441,9.0,-79.0,200.0,0
1723717306,18.5633483,73.83318,523.1,22.973118279569892,93,29.752688172043012,143.0215053763441,9.0,-79.0,200.0,0
1723717307,18.5633483,73.83318,523.1,23.001075268817203,93,29.752688172043012,143.0215053763441,9.0,-79.0,200.0,0
1723717308,18.5633483,73.83318,523.1,22.96666666666667,93,29.752688172043012,143.0215053763441,9.0,-79.0,200.0,0
1723717309,18.5633483,73.83318,523.1,22.979569892473116,93,29.752688172043012,143.0215053763441,9.0,-79.0,200.0,0
1723717310,18.5633483,73.83318,523.1,22.919354838709676,93,29.752688172043012,143.0215053763441,9.0,-79.0,200.0,0
1723717311,18.5633483,73.83318,523.1,22.86413043478261,92,29.77173913043478,141.80434782608697,9.0,-79.0,200.0,0
1723717312,18.5633483,73.83318,523.1,23.053260869565218,92,29.76086956521739,141.79347826086956,10.0,-79.0,201.0,0
1723717313,18.5633483,73.83318,523.1,22.731521739130436,92,29.76086956521739,141.7826086956522,10.0,-79.0,201.0,0
1723717314,18.5633483,73.83318,523.1,22.98695652173913,92,29.380434782608695,141.7826086956522,8.0,-78.0,199.0,0
1723717315,18.5633483,73.83318,523.1,23.13586956521739,92,29.641304347826086,141.2608695652174,10.0,-79.0,200.0,0
1723717316,18.5633483,73.83318,523.1,22.882608695652173,92,29.380434782608695,141.79347826086956,9.0,-79.0,200.0,0
1723717317,18.5633483,73.83318,523.1,22.88478260869565,92,30.08695652173913,144.07608695652175,9.0,-79.0,200.0,0
1723717318,18.5633483,73.83318,523.1,22.755913978494625,93,30.440860215053764,145.2688172043011,9.0,-79.0,200.0,0
1723717319,18.5633483,73.83318,523.1,22.66989247311828,93,30.43010752688172,145.25806451612902,9.0,-79.0,200.0,0
1723717320,18.5633483,73.83318,523.1,22.625806451612902,93,31.129032258064516,146.90322580645162,9.0,-79.0,200.0,0
1723717321,18.5633483,73.83318,523.1,22.978494623655912,93,31.129032258064516,146.90322580645162,9.0,-79.0,200.0,0
1723717322,18.5633483,73.83318,523.1,22.903225806451612,93,31.129032258064516,146.90322580645162,9.0,-79.0,200.0,0
1723717323,18.5633483,73.83318,523.1,22.83978494623656,93,31.129032258064516,146.90322580645162,9.0,-79.0,200.0,0
1723717324,18.5633483,73.83318,523.1,22.810752688172045,93,31.763440860215052,149.34408602150538,9.0,-79.0,200.0,0
1723717325,18.5633483,73.83318,523.1,22.59462365591398,93,31.763440860215052,149.34408602150538,9.0,-79.0,200.0,0
1723717326,18.5633483,73.83318,523.1,22.973118279569892,93,31.698924731182796,148.4731182795699,9.0,-79.0,200.0,0
1723717327,18.5633483,73.83318,523.1,23.06021505376344,93,31.698924731182796,148.4731182795699,9.0,-79.0,200.0,0
1723717328,18.5633483,73.83318,523.1,22.993548387096777,93,31.698924731182796,148.4516129032258,9.0,-79.0,200.0,0
1723717329,18.5633483,73.83318,523.1,23.03333333333333,93,31.516129032258064,149.41935483870967,9.0,-79.0,200.0,0
1723717330,18.5633483,73.83318,523.1,22.848387096774193,93,31.516129032258064,149.3978494623656,9.0,-79.0,200.0,0
1723717331,18.5633483,73.83318,523.1,22.934408602150537,93,31.49462365591398,149.3978494623656,9.0,-79.0,200.0,0
1723717332,18.5633483,73.83318,523.1,22.811827956989248,93,31.49462365591398,149.3978494623656,9.0,-79.0,200.0,0
1723717333,18.5633483,73.83318,523.1,22.827956989247312,93,31.258064516129032,149.63440860215053,9.0,-79.0,200.0,0
1723717334,18.5633483,73.83318,523.1,22.792473118279567,93,31.258064516129032,149.63440860215053,9.0,-79.0,200.0,0
1723717335,18.5633483,73.83318,523.1,22.988172043010753,93,31.258064516129032,149.6451612903226,9.0,-79.0,200.0,0
1723717336,18.5633483,73.83318,523.1,23.263440860215052,93,30.752688172043012,149.2688172043011,9.0,-79.0,200.0,0
1723717337,18.5633483,73.83318,523.1,23.156989247311827,93,30.752688172043012,149.2688172043011,9.0,-79.0,200.0,0
1723717338,18.5633483,73.83318,523.1,23.486021505376343,93,30.333333333333332,147.68817204301075,9.0,-79.0,200.0,0
1723717339,18.5633483,73.83318,523.1,23.569565217391304,92,30.358695652173914,146.5326086956522,9.0,-79.0,200.0,0
1723717340,18.5633483,73.83318,523.1,23.92065217391304,92,30.380434782608695,146.5326086956522,9.0,-79.0,200.0,0
1723717341,18.5633483,73.83318,523.1,23.60645161290323,93,30.118279569892472,146.91397849462365,9.0,-79.0,200.0,0
1723717342,18.5633483,73.83318,523.1,23.48709677419355,93,30.43010752688172,146.48387096774192,9.0,-79.0,200.0,0
1723717343,18.5633483,73.83318,523.1,23.768817204301076,93,30.43010752688172,146.48387096774192,9.0,-79.0,200.0,0
1723717344,18.5633483,73.83318,523.1,23.631182795698923,93,30.43010752688172,146.48387096774192,9.0,-79.0,200.0,0
1723717345,18.5633483,73.83318,523.1,23.644086021505377,93,31.010752688172044,147.11827956989248,9.0,-79.0,200.0,0
1723717346,18.5633483,73.83318,523.1,24.746236559139785,93,31.010752688172044,147.11827956989248,9.0,-79.0,200.0,0
1723717347,18.5633483,73.83318,523.1,25.096774193548388,93,31.548387096774192,148.5268817204301,9.0,-79.0,200.0,0
1723717348,18.5633483,73.83318,523.1,25.19139784946237,93,31.548387096774192,148.5268817204301,9.0,-79.0,200.0,0
1723717349,18.5633483,73.83318,523.1,24.9,93,31.548387096774192,148.5268817204301,9.0,-79.0,200.0,0
1723717350,18.5633483,73.83318,523.1,25.10531914893617,94,31.28723404255319,147.58510638297872,9.0,-79.0,200.0,0
1723717351,18.5633483,73.83318,523.1,24.698947368421052,95,31.25263157894737,148.70526315789473,9.0,-79.0,200.0,0
1723717352,18.5633483,73.83318,523.1,24.797894736842107,95,31.16842105263158,147.8736842105263,9.0,-79.0,201.0,0
1723717353,18.5633483,73.83318,523.1,24.85473684210526,95,31.16842105263158,147.8736842105263,9.0,-79.0,201.0,0
1723717354,18.5633483,73.83318,523.1,24.898936170212767,94,31.20212765957447,146.74468085106383,9.0,-79.0,201.0,0
1723717355,18.5633483,73.83318,523.1,24.91578947368421,95,31.16842105263158,147.8736842105263,9.0,-79.0,201.0,0
1723717356,18.5633483,73.83318,523.1,24.918947368421055,95,31.05263157894737,148.0421052631579,9.0,-79.0,201.0,0
1723717357,18.5633483,73.83318,523.1,24.896842105263158,95,31.05263157894737,148.0421052631579,9.0,-79.0,201.0,0
1723717358,18.5633483,73.83318,523.1,24.789473684210527,95,31.05263157894737,148.0421052631579,9.0,-79.0,201.0,0
1723717359,18.5633483,73.83318,523.1,24.89263157894737,95,31.05263157894737,148.03157894736842,9.0,-79.0,200.0,0
1723717360,18.5633483,73.83318,523.1,24.88631578947368,95,31.063157894736843,148.02105263157895,9.0,-79.0,200.0,0
1723717361,18.5633483,73.83318,523.1,24.90736842105263,95,31.063157894736843,148.02105263157895,9.0,-79.0,200.0,0
1723717362,18.5633483,73.83318,523.1,24.924210526315793,95,30.842105263157894,149.2736842105263,9.0,-79.0,200.0,0
1723717363,18.5633483,73.83318,523.1,24.90736842105263,95,30.842105263157894,149.2736842105263,9.0,-79.0,201.0,0
1723717364,18.5633483,73.83318,523.1,24.82736842105263,95,30.842105263157894,149.2736842105263,9.0,-79.0,201.0,0
1723717365,18.5633483,73.83318,523.1,24.8,95,30.45263157894737,147.70526315789473,9.0,-79.0,200.0,0
1723717366,18.5633483,73.83318,523.1,24.759999999999998,95,30.45263157894737,147.70526315789473,9.0,-79.0,201.0,0
1723717367,18.5633483,73.83318,523.1,24.786315789473683,95,30.45263157894737,147.70526315789473,9.0,-79.0,201.0,0
1723717368,18.5633483,73.83318,523.1,24.993684210526318,95,30.45263157894737,147.70526315789473,9.0,-79.0,200.0,0
1723717369,18.5633483,73.83318,523.1,24.865263157894734,95,30.45263157894737,147.70526315789473,9.0,-79.0,201.0,0
1723717370,18.5633483,73.83318,523.1,24.65157894736842,95,30.45263157894737,147.70526315789473,9.0,-79.0,201.0,0
1723717371,18.5633483,73.83318,523.1,24.791578947368418,95,30.45263157894737,147.70526315789473,9.0,-79.0,201.0,0
1723717372,18.5633483,73.83318,523.1,24.862105263157897,95,30.157894736842106,146.0842105263158,9.0,-79.0,200.0,0
1723717373,18.5633483,73.83318,523.1,24.88631578947368,95,30.157894736842106,146.0842105263158,9.0,-79.0,200.0,0
1723717374,18.5633483,73.83318,523.1,25.027368421052632,95,30.157894736842106,146.0842105263158,9.0,-79.0,201.0,0
1723717375,18.5633483,73.83318,523.1,24.853684210526314,95,30.042105263157893,145.09473684210528,9.0,-79.0,201.0,0
1723717376,18.5633483,73.83318,523.1,25.089473684210525,95,30.042105263157893,145.09473684210528,9.0,-79.0,201.0,0
1723717377,18.5633483,73.83318,523.1,25.04736842105263,95,30.042105263157893,145.09473684210528,9.0,-79.0,200.0,0
1723717378,18.5633483,73.83318,523.1,24.88421052631579,95,30.042105263157893,145.09473684210528,9.0,-79.0,201.0,0
1723717379,18.5633483,73.83318,523.1,24.794736842105262,95,30.042105263157893,145.09473684210528,9.0,-79.0,201.0,0
1723717380,18.5633483,73.83318,523.1,24.80210526315789,95,30.042105263157893,145.09473684210528,9.0,-79.0,201.0,0
1723717381,18.5633483,73.83318,523.1,24.47083333333333,96,29.697916666666668,144.66666666666666,9.0,-79.0,201.0,0
1723717382,18.5633483,73.83318,523.1,24.573958333333334,96,29.708333333333332,144.64583333333334,9.0,-79.0,201.0,0
1723717383,18.5633483,73.83318,523.1,24.447916666666668,96,29.71875,144.64583333333334,9.0,-79.0,201.0,0
1723717384,18.5633483,73.83318,523.1,24.45104166666667,96,29.71875,144.65625,9.0,-79.0,201.0,0
1723717385,18.5633483,73.83318,523.1,24.454166666666666,96,29.71875,144.65625,9.0,-79.0,201.0,0
1723717386,18.5633483,73.83318,523.1,24.34583333333333,96,29.71875,144.65625,9.0,-79.0,201.0,0
1723717387,18.5633483,73.83318,523.1,24.538541666666664,96,29.71875,144.65625,9.0,-79.0,201.0,0
1723717388,18.5633483,73.83318,523.1,24.28125,96,29.697916666666668,144.63541666666666,9.0,-79.0,201.0,0
1723717389,18.5633483,73.83318,523.1,24.358333333333334,96,29.697916666666668,144.63541666666666,9.0,-79.0,200.0,0
1723717390,18.5633483,73.83318,523.1,24.297916666666666,96,29.677083333333332,144.67708333333334,9.0,-79.0,201.0,0
1723717391,18.5633483,73.83318,523.1,24.280208333333334,96,29.677083333333332,144.67708333333334,9.0,-79.0,201.0,0
1723717392,18.5633483,73.83318,523.1,24.360416666666666,96,28.864583333333332,138.36458333333334,9.0,-79.0,201.0,0
1723717393,18.5633483,73.83318,523.1,24.325,96,30.364583333333332,146.88541666666666,9.0,-79.0,201.0,0
1723717394,18.5633483,73.83318,523.1,24.204166666666666,96,30.364583333333332,146.88541666666666,9.0,-79.0,201.0,0
1723717395,18.5633483,73.83318,523.1,24.33125,96,30.364583333333332,146.88541666666666,9.0,-79.0,201.0,0
1723717396,18.5633483,73.83318,523.1,24.334374999999998,96,30.375,146.875,9.0,-79.0,201.0,0
1723717397,18.5633483,73.83318,523.1,24.264583333333334,96,30.375,146.875,9.0,-79.0,200.0,0
1723717398,18.5633483,73.83318,523.1,24.43894736842105,95,30.63157894736842,146.31578947368422,9.0,-79.0,201.0,0
1723717399,18.5633483,73.83318,523.1,24.49578947368421,95,31.25263157894737,148.70526315789473,9.0,-79.0,201.0,0
1723717400,18.5633483,73.83318,523.1,24.340000000000003,95,31.25263157894737,148.70526315789473,9.0,-79.0,201.0,0
1723717401,18.5633483,73.83318,523.1,24.332631578947368,95,31.25263157894737,148.68421052631578,9.0,-79.0,200.0,0
1723717402,18.5633483,73.83318,523.1,24.40421052631579,95,31.25263157894737,148.68421052631578,9.0,-79.0,200.0,0
1723717403,18.5633483,73.83318,523.1,22.67659574468085,94,31.47872340425532,149.4468085106383,9.0,-79.0,200.0,0
1723717404,18.5633483,73.83318,523.1,22.993617021276595,94,31.47872340425532,149.4468085106383,9.0,-79.0,200.0,0
1723717405,18.5633483,73.83318,523.1,22.993684210526318,95,31.210526315789473,149.9578947368421,9.0,-79.0,201.0,0
1723717406,18.5633483,73.83318,523.1,23.10842105263158,95,31.231578947368423,149.93684210526317,9.0,-79.0,200.0,0
1723717407,18.5633483,73.83318,523.1,23.286315789473683,95,31.231578947368423,149.9157894736842,9.0,-79.0,201.0,0
1723717408,18.5633483,73.83318,523.1,23.35684210526316,95,31.094736842105263,150.0842105263158,9.0,-79.0,201.0,0
1723717409,18.5633483,73.83318,523.1,23.42736842105263,95,31.094736842105263,150.0842105263158,9.0,-79.0,201.0,0
1723717410,18.5633483,73.83318,523.1,23.601063829787233,94,31.361702127659573,149.56382978723406,9.0,-79.0,201.0,0
1723717411,18.5633483,73.83318,523.1,23.482978723404255,94,31.372340425531913,149.63829787234042,9.0,-79.0,201.0,0
1723717412,18.5633483,73.83318,523.1,23.508510638297874,94,31.148936170212767,150.9468085106383,9.0,-79.0,201.0,0
1723717413,18.5633483,73.83318,523.1,23.5531914893617,94,31.148936170212767,150.9468085106383,9.0,-79.0,201.0,0
1723717414,18.5633483,73.83318,523.1,23.444680851063833,94,31.148936170212767,150.9468085106383,9.0,-79.0,201.0,0
1723717415,18.5633483,73.83318,523.1,23.424468085106383,94,31.148936170212767,150.9468085106383,9.0,-79.0,201.0,0
1723717416,18.5633483,73.83318,523.1,23.44787234042553,94,31.148936170212767,150.9468085106383,9.0,-79.0,200.0,0
1723717417,18.5633483,73.83318,523.1,23.456382978723404,94,31.148936170212767,150.9468085106383,9.0,-79.0,201.0,0
1723717418,18.5633483,73.83318,523.1,23.393617021276597,94,30.75531914893617,149.36170212765958,9.0,-79.0,201.0,0
1723717419,18.5633483,73.83318,523.1,23.167021276595744,94,30.76595744680851,149.3404255319149,9.0,-79.0,201.0,0
1723717420,18.5633483,73.83318,523.1,23.535483870967745,93,30.795698924731184,148.21505376344086,9.0,-79.0,201.0,0
1723717421,18.5633483,73.83318,523.1,23.370212765957447,94,30.76595744680851,149.3404255319149,9.0,-79.0,201.0,0
1723717422,18.5633483,73.83318,523.1,23.277659574468085,94,30.46808510638298,147.70212765957447,9.0,-79.0,201.0,0
1723717423,18.5633483,73.83318,523.1,23.040000000000003,95,30.48421052631579,146.65263157894736,9.0,-79.0,201.0,0
1723717424,18.5633483,73.83318,523.1,23.1,95,30.48421052631579,146.65263157894736,9.0,-79.0,201.0,0
1723717425,18.5633483,73.83318,523.1,23.287368421052633,95,30.48421052631579,146.65263157894736,9.0,-79.0,201.0,0
1723717426,18.5633483,73.83318,523.1,23.63894736842105,95,30.48421052631579,146.67368421052632,9.0,-79.0,201.0,0
1723717427,18.5633483,73.83318,523.1,23.72421052631579,95,30.347368421052632,145.70526315789473,9.0,-79.0,201.0,0
1723717428,18.5633483,73.83318,523.1,23.80736842105263,95,30.347368421052632,145.70526315789473,9.0,-79.0,201.0,0
1723717429,18.5633483,73.83318,523.1,23.803157894736845,95,30.347368421052632,145.70526315789473,9.0,-79.0,201.0,0
1723717430,18.5633483,73.83318,523.1,23.917894736842104,95,30.347368421052632,145.70526315789473,9.0,-79.0,201.0,0
1723717431,18.5633483,73.83318,523.1,24.478947368421053,95,30.25263157894737,144.69473684210527,9.0,-79.0,201.0,0
1723717432,18.5633483,73.83318,523.1,24.587234042553188,94,30.25531914893617,143.53191489361703,9.0,-79.0,201.0,0
1723717433,18.5633483,73.83318,523.1,24.498947368421053,95,30.231578947368423,144.69473684210527,9.0,-79.0,200.0,0
1723717434,18.5633483,73.83318,523.1,24.481052631578944,95,30.231578947368423,144.69473684210527,9.0,-79.0,200.0,0
1723717435,18.5633483,73.83318,523.1,24.79578947368421,95,30.231578947368423,144.69473684210527,9.0,-79.0,200.0,0
1723717436,18.5633483,73.83318,523.1,24.74736842105263,95,30.231578947368423,144.69473684210527,9.0,-79.0,201.0,0
1723717437,18.5633483,73.83318,523.1,24.733684210526313,95,30.231578947368423,144.69473684210527,9.0,-79.0,200.0,0
1723717438,18.5633483,73.83318,523.1,24.95894736842105,95,30.010526315789473,144.13684210526316,9.0,-79.0,200.0,0
1723717439,18.5633483,73.83318,523.1,24.771874999999998,96,29.989583333333332,145.28125,9.0,-79.0,201.0,0
1723717440,18.5633483,73.83318,523.1,24.48645833333333,96,30.0,145.27083333333334,9.0,-79.0,201.0,0
1723717441,18.5633483,73.83318,523.1,24.90842105263158,95,30.021052631578947,144.1263157894737,9.0,-79.0,201.0,0
1723717442,18.5633483,73.83318,523.1,24.814736842105265,95,29.2,137.7263157894737,9.0,-79.0,201.0,0
1723717443,18.5633483,73.83318,523.1,24.846315789473685,95,30.021052631578947,144.14736842105262,9.0,-79.0,201.0,0
1723717444,18.5633483,73.83318,523.1,24.840000000000003,95,29.53684210526316,142.53684210526316,9.0,-79.0,200.0,0
1723717445,18.5633483,73.83318,523.1,24.77684210526316,95,29.694736842105264,145.92631578947368,9.0,-79.0,201.0,0
1723717446,18.5633483,73.83318,523.1,24.418947368421055,95,29.694736842105264,145.89473684210526,9.0,-79.0,201.0,0
1723717447,18.5633483,73.83318,523.1,24.545263157894738,95,29.694736842105264,145.89473684210526,9.0,-79.0,201.0,0
1723717448,18.5633483,73.83318,523.1,24.726315789473684,95,29.694736842105264,145.89473684210526,9.0,-79.0,201.0,0
1723717449,18.5633483,73.83318,523.1,24.722105263157893,95,29.71578947368421,145.86315789473684,9.0,-79.0,201.0,0
1723717450,18.5633483,73.83318,523.1,24.706315789473685,95,29.71578947368421,145.86315789473684,9.0,-79.0,201.0,0
1723717451,18.5633483,73.83318,523.1,24.69789473684211,95,29.71578947368421,145.86315789473684,9.0,-79.0,201.0,0
1723717452,18.5633483,73.83318,523.1,24.750526315789475,95,29.726315789473684,145.8421052631579,9.0,-79.0,201.0,0
1723717453,18.5633483,73.83318,523.1,24.766315789473687,95,29.736842105263158,145.8421052631579,9.0,-79.0,201.0,0
1723717454,18.5633483,73.83318,523.1,24.721052631578946,95,29.736842105263158,145.8421052631579,9.0,-79.0,200.0,0
1723717455,18.5633483,73.83318,523.1,24.556842105263158,95,29.736842105263158,145.8421052631579,9.0,-79.0,200.0,0
1723717456,18.5633483,73.83318,523.1,24.64421052631579,95,29.736842105263158,145.85263157894738,9.0,-79.0,200.0,0
1723717457,18.5633483,73.83318,523.1,24.85684210526316,95,29.74736842105263,145.8736842105263,9.0,-79.0,200.0,0
1723717458,18.5633483,73.83318,523.1,24.706315789473685,95,29.74736842105263,145.8736842105263,9.0,-79.0,201.0,0
1723717459,18.5633483,73.83318,523.1,24.75894736842105,95,29.74736842105263,145.86315789473684,9.0,-79.0,200.0,0
1723717460,18.5633483,73.83318,523.1,24.732631578947366,95,29.74736842105263,145.86315789473684,9.0,-79.0,200.0,0
1723717461,18.5633483,73.83318,523.1,24.82,95,30.442105263157895,148.07368421052632,9.0,-79.0,200.0,0
1723717462,18.5633483,73.83318,523.1,24.527368421052632,95,30.442105263157895,148.06315789473683,9.0,-79.0,200.0,0
1723717463,18.5633483,73.83318,523.1,24.777894736842107,95,30.442105263157895,148.07368421052632,9.0,-79.0,200.0,0
1723717464,18.5633483,73.83318,523.1,24.709473684210526,95,30.442105263157895,148.07368421052632,9.0,-79.0,200.0,0
1723717465,18.5633483,73.83318,523.1,24.708421052631582,95,31.063157894736843,150.45263157894738,9.0,-79.0,200.0,0
1723717466,18.5633483,73.83318,523.1,24.662105263157894,95,31.05263157894737,150.45263157894738,9.0,-79.0,201.0,0
1723717467,18.5633483,73.83318,523.1,24.522105263157894,95,31.063157894736843,150.43157894736842,9.0,-79.0,201.0,0
1723717468,18.5633483,73.83318,523.1,24.634736842105266,95,31.08421052631579,150.42105263157896,9.0,-79.0,200.0,0
1723717469,18.5633483,73.83318,523.1,24.563157894736843,95,31.08421052631579,150.42105263157896,9.0,-79.0,201.0,0
1723717470,18.5633483,73.83318,523.1,24.641052631578948,95,31.0,149.58947368421053,9.0,-79.0,200.0,0
1723717471,18.5633483,73.83318,523.1,24.525263157894738,95,31.0,149.57894736842104,9.0,-79.0,200.0,0
1723717472,18.5633483,73.83318,523.1,24.474999999999998,96,30.979166666666668,151.25,9.0,-79.0,201.0,0
1723717473,18.5633483,73.83318,523.1,24.488541666666666,96,30.979166666666668,151.25,9.0,-79.0,201.0,0
1723717474,18.5633483,73.83318,523.1,24.198958333333334,96,30.864583333333332,151.41666666666666,9.0,-79.0,201.0,0
1723717475,18.5633483,73.83318,523.1,24.494791666666668,96,30.864583333333332,151.40625,9.0,-79.0,201.0,0
1723717476,18.5633483,73.83318,523.1,24.309375,96,30.864583333333332,151.40625,9.0,-79.0,201.0,0
1723717477,18.5633483,73.83318,523.1,24.5,96,30.864583333333332,151.40625,9.0,-79.0,201.0,0
1723717478,18.5633483,73.83318,523.1,24.51354166666667,96,30.854166666666668,151.38541666666666,9.0,-79.0,201.0,0
1723717479,18.5633483,73.83318,523.1,24.443749999999998,96,30.625,152.60416666666666,9.0,-79.0,201.0,0
1723717480,18.5633483,73.83318,523.1,24.897916666666664,96,30.625,152.60416666666666,9.0,-79.0,201.0,0
1723717481,18.5633483,73.83318,523.1,24.90416666666667,96,30.625,152.59375,9.0,-79.0,201.0,0
1723717482,18.5633483,73.83318,523.1,24.926041666666666,96,30.625,152.59375,9.0,-79.0,201.0,0
1723717483,18.5633483,73.83318,523.1,24.660416666666666,96,30.239583333333332,151.04166666666666,9.0,-79.0,201.0,0
1723717484,18.5633483,73.83318,523.1,24.462500000000002,96,30.239583333333332,151.03125,9.0,-79.0,201.0,0
1723717485,18.5633483,73.83318,523.1,24.442708333333332,96,30.229166666666668,151.03125,9.0,-79.0,201.0,0
1723717486,18.5633483,73.83318,523.1,24.479166666666668,96,30.239583333333332,151.03125,9.0,-79.0,201.0,0
1723717487,18.5633483,73.83318,523.1,24.381249999999998,96,30.25,151.05208333333334,9.0,-79.0,201.0,0
1723717488,18.5633483,73.83318,523.1,24.34375,96,29.958333333333332,149.42708333333334,9.0,-79.0,201.0,0
1723717489,18.5633483,73.83318,523.1,24.46666666666667,96,29.958333333333332,149.42708333333334,9.0,-79.0,201.0,0
1723717490,18.5633483,73.83318,523.1,24.28041237113402,97,29.938144329896907,150.50515463917526,9.0,-79.0,201.0,0
1723717491,18.5633483,73.83318,523.1,24.298969072164947,97,29.938144329896907,150.49484536082474,9.0,-79.0,201.0,0
1723717492,18.5633483,73.83318,523.1,24.269072164948454,97,29.1340206185567,144.2164948453608,9.0,-79.0,201.0,0
1723717493,18.5633483,73.83318,523.1,24.236082474226805,97,30.50515463917526,151.71134020618555,9.0,-79.0,201.0,0
1723717494,18.5633483,73.83318,523.1,24.238144329896905,97,30.50515463917526,151.70103092783506,9.0,-79.0,201.0,0
1723717495,18.5633483,73.83318,523.1,24.244329896907214,97,30.50515463917526,151.70103092783506,9.0,-79.0,201.0,0
1723717496,18.5633483,73.83318,523.1,24.13298969072165,97,30.50515463917526,151.70103092783506,9.0,-79.0,201.0,0
1723717497,18.5633483,73.83318,523.1,24.503125,96,31.28125,154.22916666666666,9.0,-79.0,201.0,0
1723717498,18.5633483,73.83318,523.1,24.526041666666668,96,31.28125,154.21875,9.0,-79.0,201.0,0
1723717499,18.5633483,73.83318,523.1,24.6125,96,31.28125,154.21875,9.0,-79.0,201.0,0
1723717500,18.5633483,73.83318,523.1,24.515625,96,31.28125,154.21875,9.0,-79.0,201.0,0
1723717501,18.5633483,73.83318,523.1,24.58125,96,31.28125,154.20833333333334,9.0,-79.0,201.0,0
1723717502,18.5633483,73.83318,523.1,24.488541666666666,96,31.21875,153.38541666666666,9.0,-79.0,200.0,0
1723717503,18.5633483,73.83318,523.1,24.41340206185567,97,30.938144329896907,152.1958762886598,9.0,-79.0,201.0,0
1723717504,18.5633483,73.83318,523.1,24.475257731958763,97,30.917525773195877,152.15463917525773,9.0,-79.0,201.0,0
1723717505,18.5633483,73.83318,523.1,24.304123711340207,97,30.917525773195877,152.1443298969072,9.0,-79.0,201.0,0
1723717506,18.5633483,73.83318,523.1,24.261855670103095,97,30.77319587628866,152.2680412371134,9.0,-79.0,201.0,0
1723717507,18.5633483,73.83318,523.1,24.287628865979382,97,30.75257731958763,152.24742268041237,9.0,-79.0,200.0,0
1723717508,18.5633483,73.83318,523.1,24.35729166666667,96,31.020833333333332,153.41666666666666,9.0,-79.0,200.0,0
1723717509,18.5633483,73.83318,523.1,24.305208333333336,96,31.020833333333332,153.40625,9.0,-79.0,201.0,0
1723717510,18.5633483,73.83318,523.1,24.305208333333336,96,31.020833333333332,153.40625,9.0,-79.0,201.0,0
1723717511,18.5633483,73.83318,523.1,24.37291666666667,96,31.020833333333332,153.41666666666666,9.0,-79.0,200.0,0
1723717512,18.5633483,73.83318,523.1,24.613541666666666,96,30.802083333333332,154.6875,9.0,-79.0,201.0,0
1723717513,18.5633483,73.83318,523.1,24.514583333333334,96,30.802083333333332,154.6875,9.0,-79.0,201.0,0
1723717514,18.5633483,73.83318,523.1,24.510416666666668,96,30.802083333333332,154.6875,9.0,-79.0,201.0,0
1723717515,18.5633483,73.83318,523.1,24.40833333333333,96,30.416666666666668,153.13541666666666,9.0,-79.0,201.0,0
1723717516,18.5633483,73.83318,523.1,24.381249999999998,96,30.4375,153.125,9.0,-79.0,201.0,0
1723717517,18.5633483,73.83318,523.1,24.25257731958763,97,30.175257731958762,151.94845360824743,9.0,-79.0,201.0,0
1723717518,18.5633483,73.83318,523.1,24.24845360824742,97,30.175257731958762,151.94845360824743,9.0,-79.0,201.0,0
1723717519,18.5633483,73.83318,523.1,24.46701030927835,97,30.175257731958762,151.94845360824743,9.0,-79.0,201.0,0
1723717520,18.5633483,73.83318,523.1,24.441237113402064,97,30.175257731958762,151.93814432989691,9.0,-79.0,200.0,0
1723717521,18.5633483,73.83318,523.1,24.38144329896907,97,30.175257731958762,151.93814432989691,9.0,-79.0,200.0,0
1723717522,18.5633483,73.83318,523.1,24.538144329896905,97,29.88659793814433,150.35051546391753,9.0,-79.0,200.0,0
1723717523,18.5633483,73.83318,523.1,24.66082474226804,97,29.88659793814433,150.35051546391753,9.0,-79.0,200.0,0
1723717524,18.5633483,73.83318,523.1,24.61340206185567,97,29.77319587628866,149.37113402061857,9.0,-79.0,200.0,0
1723717525,18.5633483,73.83318,523.1,24.33917525773196,97,29.77319587628866,149.37113402061857,9.0,-79.0,200.0,0
1723717526,18.5633483,73.83318,523.1,24.63854166666667,96,29.84375,147.35416666666666,9.0,-79.0,200.0,0
1723717527,18.5633483,73.83318,523.1,24.644791666666666,96,29.822916666666668,147.36458333333334,9.0,-79.0,200.0,0
1723717528,18.5633483,73.83318,523.1,24.615624999999998,96,29.822916666666668,147.36458333333334,9.0,-79.0,201.0,0
1723717529,18.5633483,73.83318,523.1,25.032291666666666,96,29.822916666666668,147.36458333333334,9.0,-79.0,200.0,0
1723717530,18.5633483,73.83318,523.1,24.988541666666666,96,29.822916666666668,147.36458333333334,9.0,-79.0,200.0,0
1723717531,18.5633483,73.83318,523.1,24.988541666666666,96,29.729166666666668,146.36458333333334,9.0,-79.0,201.0,0
1723717532,18.5633483,73.83318,523.1,24.905154639175258,97,29.47422680412371,145.2577319587629,9.0,-79.0,201.0,0
1723717533,18.5633483,73.83318,523.1,24.835051546391753,97,29.484536082474225,145.2577319587629,9.0,-79.0,201.0,0
1723717534,18.5633483,73.83318,523.1,24.484536082474225,97,29.484536082474225,145.24742268041237,9.0,-79.0,201.0,0
1723717535,18.5633483,73.83318,523.1,24.555670103092783,97,29.47422680412371,145.24742268041237,9.0,-79.0,201.0,0
1723717536,18.5633483,73.83318,523.1,24.64020618556701,97,29.47422680412371,145.22680412371133,9.0,-79.0,200.0,0
1723717537,18.5633483,73.83318,523.1,24.797938144329898,97,29.47422680412371,145.22680412371133,9.0,-79.0,201.0,0
1723717538,18.5633483,73.83318,523.1,24.5659793814433,97,29.47422680412371,145.22680412371133,9.0,-79.0,201.0,0
1723717539,18.5633483,73.83318,523.1,24.4340206185567,97,29.47422680412371,145.22680412371133,9.0,-79.0,201.0,0
1723717540,18.5633483,73.83318,523.1,24.362886597938143,97,29.47422680412371,145.22680412371133,9.0,-79.0,201.0,0
1723717541,18.5633483,73.83318,523.1,24.288659793814432,97,29.47422680412371,145.22680412371133,9.0,-79.0,200.0,0
1723717542,18.5633483,73.83318,523.1,24.404123711340205,97,28.670103092783506,138.93814432989691,9.0,-79.0,201.0,0
1723717543,18.5633483,73.83318,523.1,24.371134020618555,97,29.484536082474225,145.22680412371133,9.0,-79.0,200.0,0
1723717544,18.5633483,73.83318,523.1,24.352577319587628,97,30.175257731958762,147.39175257731958,9.0,-79.0,200.0,0
1723717545,18.5633483,73.83318,523.1,24.308247422680413,97,30.164948453608247,147.39175257731958,9.0,-79.0,200.0,0
1723717546,18.5633483,73.83318,523.1,24.257731958762886,97,30.164948453608247,147.39175257731958,9.0,-79.0,200.0,0
1723717547,18.5633483,73.83318,523.1,24.238775510204082,98,29.918367346938776,148.9387755102041,9.0,-79.0,200.0,0
1723717548,18.5633483,73.83318,523.1,23.998979591836736,98,30.53061224489796,151.25510204081633,9.0,-79.0,200.0,0
1723717549,18.5633483,73.83318,523.1,24.186597938144327,97,30.77319587628866,149.7422680412371,9.0,-79.0,200.0,0
1723717550,18.5633483,73.83318,523.1,24.031958762886596,97,30.762886597938145,151.5463917525773,9.0,-79.0,200.0,0
1723717551,18.5633483,73.83318,523.1,24.04285714285714,98,30.53061224489796,151.25510204081633,9.0,-79.0,200.0,0
1723717552,18.5633483,73.83318,523.1,23.95714285714286,98,30.540816326530614,151.25510204081633,9.0,-79.0,200.0,0
1723717553,18.5633483,73.83318,523.1,23.974489795918366,98,30.540816326530614,154.91836734693877,9.0,-79.0,200.0,0
1723717554,18.5633483,73.83318,523.1,23.95612244897959,98,30.459183673469386,154.1122448979592,9.0,-79.0,200.0,0
1723717555,18.5633483,73.83318,523.1,23.961224489795917,98,30.459183673469386,154.1122448979592,9.0,-79.0,200.0,0
1723717556,18.5633483,73.83318,523.1,24.166326530612245,98,30.459183673469386,154.1122448979592,9.0,-79.0,200.0,0
1723717557,18.5633483,73.83318,523.1,24.140816326530615,98,30.346938775510203,154.27551020408163,9.0,-79.0,200.0,0
1723717558,18.5633483,73.83318,523.1,23.990816326530613,98,30.346938775510203,154.26530612244898,9.0,-79.0,200.0,0
1723717559,18.5633483,73.83318,523.1,24.009278350515466,97,30.608247422680414,153.81443298969072,9.0,-79.0,200.0,0
1723717560,18.5633483,73.83318,523.1,23.976530612244897,98,30.377551020408163,154.28571428571428,9.0,-79.0,200.0,0
1723717561,18.5633483,73.83318,523.1,23.998979591836736,98,30.377551020408163,154.28571428571428,9.0,-79.0,201.0,0
1723717562,18.5633483,73.83318,523.1,24.003061224489798,98,30.377551020408163,154.28571428571428,9.0,-79.0,201.0,0
1723717563,18.5633483,73.83318,523.1,24.14183673469388,98,30.377551020408163,154.28571428571428,9.0,-79.0,201.0,0
1723717564,18.5633483,73.83318,523.1,24.283505154639176,97,30.422680412371133,156.68041237113403,9.0,-79.0,200.0,0
1723717565,18.5633483,73.83318,523.1,24.038144329896905,97,30.422680412371133,156.6701030927835,9.0,-79.0,201.0,0
1723717566,18.5633483,73.83318,523.1,23.955670103092782,97,30.02061855670103,155.15463917525773,9.0,-79.0,201.0,0
1723717567,18.5633483,73.83318,523.1,24.01443298969072,97,30.02061855670103,155.15463917525773,9.0,-79.0,200.0,0
1723717568,18.5633483,73.83318,523.1,23.931958762886598,97,30.02061855670103,155.15463917525773,9.0,-79.0,201.0,0
1723717569,18.5633483,73.83318,523.1,24.159375,96,30.270833333333332,153.66666666666666,9.0,-79.0,200.0,0
1723717570,18.5633483,73.83318,523.1,23.970408163265304,98,29.775510204081634,153.96938775510205,9.0,-79.0,200.0,0
1723717571,18.5633483,73.83318,523.1,24.014285714285716,98,29.775510204081634,153.96938775510205,9.0,-79.0,201.0,0
1723717572,18.5633483,73.83318,523.1,19.164285714285715,98,29.785714285714285,153.9591836734694,9.0,-79.0,201.0,0
1723717573,18.5633483,73.83318,523.1,20.636082474226804,97,29.7319587628866,150.88659793814432,9.0,-79.0,200.0,0
1723717574,18.5633483,73.83318,523.1,23.15979381443299,97,29.7319587628866,150.88659793814432,9.0,-79.0,201.0,0
1723717575,18.5633483,73.83318,523.1,23.4979381443299,97,29.61855670103093,149.90721649484536,9.0,-79.0,201.0,0
1723717576,18.5633483,73.83318,523.1,23.410204081632653,98,29.387755102040817,151.41836734693877,9.0,-79.0,201.0,0
1723717577,18.5633483,73.83318,523.1,23.596938775510203,98,29.397959183673468,151.39795918367346,9.0,-79.0,201.0,0
1723717578,18.5633483,73.83318,523.1,23.69081632653061,98,29.397959183673468,151.39795918367346,9.0,-79.0,201.0,0
1723717579,18.5633483,73.83318,523.1,23.347959183673467,98,29.377551020408163,151.41836734693877,9.0,-79.0,201.0,0
1723717580,18.5633483,73.83318,523.1,23.294897959183675,98,29.377551020408163,151.41836734693877,9.0,-79.0,201.0,0
1723717581,18.5633483,73.83318,523.1,23.4020618556701,97,29.587628865979383,149.88659793814432,9.0,-79.0,201.0,0
1723717582,18.5633483,73.83318,523.1,23.261224489795918,98,29.285714285714285,150.37755102040816,9.0,-79.0,201.0,0
1723717583,18.5633483,73.83318,523.1,23.4340206185567,97,29.49484536082474,148.82474226804123,9.0,-79.0,201.0,0
1723717584,18.5633483,73.83318,523.1,23.588659793814433,97,29.484536082474225,148.81443298969072,9.0,-79.0,201.0,0
1723717585,18.5633483,73.83318,523.1,23.38469387755102,98,29.26530612244898,150.33673469387756,9.0,-79.0,201.0,0
1723717586,18.5633483,73.83318,523.1,23.442268041237114,97,29.49484536082474,148.81443298969072,9.0,-79.0,201.0,0
1723717587,18.5633483,73.83318,523.1,23.197959183673472,98,29.275510204081634,150.4387755102041,9.0,-79.0,201.0,0
1723717588,18.5633483,73.83318,523.1,23.329591836734696,98,29.255102040816325,150.4591836734694,9.0,-79.0,201.0,0
1723717589,18.5633483,73.83318,523.1,23.183673469387756,98,29.255102040816325,150.4591836734694,9.0,-79.0,201.0,0
1723717590,18.5633483,73.83318,523.1,23.068367346938775,98,29.255102040816325,150.42857142857142,9.0,-79.0,201.0,0
1723717591,18.5633483,73.83318,523.1,23.319387755102042,98,29.255102040816325,150.42857142857142,9.0,-79.0,201.0,0
1723717592,18.5633483,73.83318,523.1,23.34591836734694,98,28.459183673469386,144.21428571428572,10.0,-79.0,201.0,0
1723717593,18.5633483,73.83318,523.1,23.412244897959184,98,29.26530612244898,150.4591836734694,10.0,-79.0,201.0,0
1723717594,18.5633483,73.83318,523.1,23.220408163265304,98,29.26530612244898,150.4591836734694,9.0,-79.0,201.0,0
1723717595,18.5633483,73.83318,523.1,23.182653061224492,98,29.26530612244898,150.44897959183675,9.0,-79.0,201.0,0
1723717596,18.5633483,73.83318,523.1,23.16530612244898,98,29.26530612244898,150.44897959183675,9.0,-79.0,201.0,0
1723717597,18.5633483,73.83318,523.1,23.194897959183674,98,29.26530612244898,150.4387755102041,9.0,-79.0,201.0,0
1723717598,18.5633483,73.83318,523.1,23.235714285714284,98,29.26530612244898,150.4387755102041,9.0,-79.0,201.0,0
1723717599,18.5633483,73.83318,523.1,23.186734693877554,98,29.26530612244898,150.4387755102041,9.0,-79.0,201.0,0
1723717600,18.5633483,73.83318,523.1,23.163265306122447,98,29.26530612244898,150.4387755102041,9.0,-79.0,201.0,0
1723717601,18.5633483,73.83318,523.1,23.148979591836735,98,29.275510204081634,150.4387755102041,9.0,-79.0,201.0,0
1723717602,18.5633483,73.83318,523.1,23.375510204081635,98,29.255102040816325,150.4591836734694,9.0,-79.0,201.0,0
1723717603,18.5633483,73.83318,523.1,23.25,98,29.255102040816325,150.46938775510205,9.0,-79.0,201.0,0
1723717604,18.5633483,73.83318,523.1,23.26224489795918,98,29.255102040816325,150.46938775510205,9.0,-79.0,201.0,0
1723717605,18.5633483,73.83318,523.1,23.36938775510204,98,29.255102040816325,150.46938775510205,9.0,-79.0,201.0,0
1723717606,18.5633483,73.83318,523.1,23.333673469387755,98,29.255102040816325,150.46938775510205,9.0,-79.0,201.0,0
1723717607,18.5633483,73.83318,523.1,23.38061224489796,98,29.255102040816325,150.46938775510205,9.0,-79.0,201.0,0
1723717608,18.5633483,73.83318,523.1,23.26938775510204,98,29.214285714285715,150.4591836734694,9.0,-79.0,201.0,0
1723717609,18.5633483,73.83318,523.1,23.502040816326527,98,29.224489795918366,150.4591836734694,9.0,-79.0,201.0,0
1723717610,18.5633483,73.83318,523.1,23.63877551020408,98,29.224489795918366,150.4591836734694,9.0,-79.0,201.0,0
1723717611,18.5633483,73.83318,523.1,23.591836734693878,98,29.224489795918366,150.4591836734694,9.0,-79.0,201.0,0
1723717612,18.5633483,73.83318,523.1,23.593877551020405,98,29.224489795918366,150.4591836734694,9.0,-79.0,201.0,0
1723717613,18.5633483,73.83318,523.1,23.560204081632655,98,30.5,154.91836734693877,9.0,-79.0,201.0,0
1723717614,18.5633483,73.83318,523.1,23.53469387755102,98,30.5,154.91836734693877,9.0,-79.0,201.0,0
1723717615,18.5633483,73.83318,523.1,23.89183673469388,98,30.5,154.91836734693877,9.0,-79.0,201.0,0
1723717616,18.5633483,73.83318,523.1,23.85408163265306,98,30.510204081632654,154.90816326530611,9.0,-79.0,201.0,0
1723717617,18.5633483,73.83318,523.1,24.149484536082475,97,30.762886597938145,153.43298969072166,9.0,-79.0,201.0,0
1723717618,18.5633483,73.83318,523.1,24.15567010309278,97,30.762886597938145,153.43298969072166,9.0,-79.0,201.0,0
1723717619,18.5633483,73.83318,523.1,24.081632653061224,98,30.520408163265305,154.89795918367346,9.0,-79.0,201.0,0
1723717620,18.5633483,73.83318,523.1,24.096938775510203,98,30.520408163265305,154.89795918367346,9.0,-79.0,201.0,0
1723717621,18.5633483,73.83318,523.1,24.044897959183675,98,30.520408163265305,154.85714285714286,9.0,-79.0,201.0,0
1723717622,18.5633483,73.83318,523.1,24.148979591836735,98,30.346938775510203,154.19387755102042,9.0,-79.0,201.0,0
1723717623,18.5633483,73.83318,523.1,24.053061224489795,98,30.346938775510203,154.18367346938774,9.0,-79.0,201.0,0
1723717624,18.5633483,73.83318,523.1,24.06530612244898,98,30.346938775510203,154.18367346938774,10.0,-79.0,201.0,0
1723717625,18.5633483,73.83318,523.1,24.1265306122449,98,30.357142857142858,154.16326530612244,10.0,-79.0,201.0,0
1723717626,18.5633483,73.83318,523.1,24.14183673469388,98,30.346938775510203,156.1530612244898,9.0,-79.0,201.0,0
1723717627,18.5633483,73.83318,523.1,23.889898989898988,99,30.11111111111111,155.82828282828282,10.0,-79.0,201.0,0
1723717628,18.5633483,73.83318,523.1,24.011224489795918,98,30.367346938775512,155.3673469387755,10.0,-79.0,201.0,0
1723717629,18.5633483,73.83318,523.1,24.078571428571426,98,30.367346938775512,155.3673469387755,10.0,-79.0,201.0,0
1723717630,18.5633483,73.83318,523.1,23.881818181818183,99,30.11111111111111,155.7979797979798,10.0,-79.0,201.0,0
1723717631,18.5633483,73.83318,523.1,23.99090909090909,99,29.525252525252526,155.4949494949495,10.0,-79.0,201.0,0
1723717632,18.5633483,73.83318,523.1,23.77474747474747,99,29.525252525252526,155.5050505050505,10.0,-79.0,201.0,0
1723717633,18.5633483,73.83318,523.1,23.774489795918367,98,29.755102040816325,156.5408163265306,10.0,-79.0,201.0,0
1723717634,18.5633483,73.83318,523.1,23.793939393939393,99,29.535353535353536,155.5151515151515,9.0,-79.0,201.0,0
1723717635,18.5633483,73.83318,523.1,23.925252525252525,99,29.535353535353536,155.5151515151515,9.0,-79.0,201.0,0
1723717636,18.5633483,73.83318,523.1,23.872727272727275,99,29.535353535353536,155.5050505050505,9.0,-79.0,201.0,0
1723717637,18.5633483,73.83318,523.1,23.972727272727276,99,29.535353535353536,155.5050505050505,10.0,-79.0,201.0,0
1723717638,18.5633483,73.83318,523.1,23.966666666666665,99,29.535353535353536,155.5050505050505,10.0,-79.0,201.0,0
1723717639,18.5633483,73.83318,523.1,23.953061224489797,98,29.775510204081634,155.09183673469389,9.0,-79.0,201.0,0
1723717640,18.5633483,73.83318,523.1,24.06122448979592,98,30.051020408163264,154.70408163265307,9.0,-79.0,201.0,0
1723717641,18.5633483,73.83318,523.1,24.22828282828283,99,29.80808080808081,155.13131313131314,10.0,-79.0,201.0,0
1723717642,18.5633483,73.83318,523.1,24.25959595959596,99,29.02020202020202,148.92929292929293,9.0,-79.0,201.0,0
1723717643,18.5633483,73.83318,523.1,24.156565656565657,99,29.828282828282827,155.08080808080808,10.0,-79.0,201.0,0
1723717644,18.5633483,73.83318,523.1,24.123232323232322,99,29.838383838383837,155.07070707070707,9.0,-79.0,201.0,0
1723717645,18.5633483,73.83318,523.1,24.225510204081633,98,30.071428571428573,153.60204081632654,10.0,-79.0,201.0,0
1723717646,18.5633483,73.83318,523.1,24.454639175257732,97,30.329896907216494,153.1443298969072,10.0,-79.0,201.0,0
1723717647,18.5633483,73.83318,523.1,24.382653061224488,98,30.091836734693878,154.62244897959184,10.0,-79.0,201.0,0
1723717648,18.5633483,73.83318,523.1,24.296938775510203,98,30.091836734693878,154.59183673469389,9.0,-79.0,201.0,0
1723717649,18.5633483,73.83318,523.1,24.275510204081634,98,30.459183673469386,155.44897959183675,10.0,-79.0,201.0,0
1723717650,18.5633483,73.83318,523.1,24.15714285714286,98,30.46938775510204,155.44897959183675,9.0,-79.0,201.0,0
1723717651,18.5633483,73.83318,523.1,24.125510204081635,98,30.46938775510204,155.44897959183675,9.0,-79.0,201.0,0
1723717652,18.5633483,73.83318,523.1,24.209183673469386,98,30.46938775510204,155.4387755102041,9.0,-79.0,201.0,0
1723717653,18.5633483,73.83318,523.1,24.353061224489796,98,30.46938775510204,155.4387755102041,9.0,-79.0,201.0,0
1723717654,18.5633483,73.83318,523.1,24.431632653061225,98,30.459183673469386,155.42857142857142,9.0,-79.0,201.0,0
1723717655,18.5633483,73.83318,523.1,24.50408163265306,98,30.448979591836736,155.41836734693877,9.0,-79.0,201.0,0
1723717656,18.5633483,73.83318,523.1,24.240816326530613,98,30.448979591836736,155.40816326530611,10.0,-79.0,201.0,0
1723717657,18.5633483,73.83318,523.1,24.382653061224488,98,30.448979591836736,155.40816326530611,10.0,-79.0,201.0,0
1723717658,18.5633483,73.83318,523.1,24.377551020408163,98,30.448979591836736,155.40816326530611,10.0,-79.0,201.0,0
1723717659,18.5633483,73.83318,523.1,24.305102040816326,98,30.132653061224488,156.77551020408163,10.0,-79.0,201.0,0
1723717660,18.5633483,73.83318,523.1,24.28061224489796,98,30.132653061224488,156.77551020408163,10.0,-79.0,201.0,0
1723717661,18.5633483,73.83318,523.1,24.298979591836737,98,30.132653061224488,156.76530612244898,9.0,-79.0,201.0,0
1723717662,18.5633483,73.83318,523.1,24.25,98,30.132653061224488,156.75510204081633,10.0,-79.0,201.0,0
1723717663,18.5633483,73.83318,523.1,24.1765306122449,98,30.132653061224488,156.75510204081633,10.0,-79.0,201.0,0
1723717664,18.5633483,73.83318,523.1,24.11938775510204,98,30.122448979591837,156.74489795918367,10.0,-79.0,201.0,0
1723717665,18.5633483,73.83318,523.1,24.01224489795918,98,30.132653061224488,156.74489795918367,10.0,-79.0,201.0,0
1723717666,18.5633483,73.83318,523.1,24.087755102040816,98,30.132653061224488,156.73469387755102,10.0,-79.0,201.0,0
1723717667,18.5633483,73.83318,523.1,24.072448979591837,98,30.132653061224488,156.73469387755102,10.0,-79.0,201.0,0
1723717668,18.5633483,73.83318,523.1,24.205102040816325,98,29.46938775510204,153.66326530612244,10.0,-79.0,201.0,0
1723717669,18.5633483,73.83318,523.1,24.28673469387755,98,29.479591836734695,153.68367346938774,9.0,-79.0,201.0,0
1723717670,18.5633483,73.83318,523.1,24.346938775510203,98,29.479591836734695,153.6734693877551,10.0,-79.0,201.0,0
1723717671,18.5633483,73.83318,523.1,23.80816326530612,98,29.46938775510204,153.6734693877551,10.0,-79.0,201.0,0
1723717672,18.5633483,73.83318,523.1,23.8734693877551,98,29.46938775510204,153.6734693877551,9.0,-79.0,201.0,0
1723717673,18.5633483,73.83318,523.1,23.88469387755102,98,29.46938775510204,153.66326530612244,10.0,-79.0,201.0,0
1723717674,18.5633483,73.83318,523.1,23.764285714285716,98,29.46938775510204,153.66326530612244,10.0,-79.0,201.0,0
1723717675,18.5633483,73.83318,523.1,23.742857142857144,98,29.46938775510204,153.66326530612244,9.0,-79.0,201.0,0
1723717676,18.5633483,73.83318,523.1,23.851020408163265,98,29.46938775510204,153.66326530612244,10.0,-79.0,201.0,0
1723717677,18.5633483,73.83318,523.1,23.839795918367347,98,29.26530612244898,151.71428571428572,10.0,-79.0,201.0,0
1723717678,18.5633483,73.83318,523.1,24.010204081632654,98,29.306122448979593,151.69387755102042,10.0,-79.0,201.0,0
1723717679,18.5633483,73.83318,523.1,24.10408163265306,98,29.285714285714285,151.69387755102042,10.0,-79.0,201.0,0
1723717680,18.5633483,73.83318,523.1,24.118367346938776,98,29.29591836734694,151.64285714285714,10.0,-79.0,201.0,0
1723717681,18.5633483,73.83318,523.1,23.979591836734695,98,29.29591836734694,151.64285714285714,10.0,-79.0,201.0,0
1723717682,18.5633483,73.83318,523.1,23.982653061224493,98,29.29591836734694,151.62244897959184,10.0,-79.0,201.0,0
1723717683,18.5633483,73.83318,523.1,24.068367346938775,98,29.29591836734694,151.59183673469389,10.0,-79.0,201.0,0
1723717684,18.5633483,73.83318,523.1,24.08061224489796,98,29.29591836734694,151.59183673469389,9.0,-79.0,201.0,0
1723717685,18.5633483,73.83318,523.1,24.03469387755102,98,29.29591836734694,151.58163265306123,10.0,-79.0,201.0,0
1723717686,18.5633483,73.83318,523.1,24.209183673469386,98,29.29591836734694,151.57142857142858,10.0,-79.0,201.0,0
1723717687,18.5633483,73.83318,523.1,23.998979591836736,98,29.306122448979593,151.58163265306123,10.0,-79.0,201.0,0
1723717688,18.5633483,73.83318,523.1,24.08469387755102,98,29.285714285714285,151.60204081632654,10.0,-79.0,201.0,0
1723717689,18.5633483,73.83318,523.1,24.09591836734694,98,29.285714285714285,151.60204081632654,10.0,-79.0,201.0,0
1723717690,18.5633483,73.83318,523.1,24.261224489795918,98,29.285714285714285,151.59183673469389,10.0,-79.0,201.0,0
1723717691,18.5633483,73.83318,523.1,24.20714285714286,98,29.285714285714285,151.59183673469389,10.0,-79.0,201.0,0
1723717692,18.5633483,73.83318,523.1,24.533673469387757,98,28.520408163265305,145.3469387755102,10.0,-79.0,201.0,0
1723717693,18.5633483,73.83318,523.1,24.444897959183674,98,29.316326530612244,151.60204081632654,10.0,-79.0,201.0,0
1723717694,18.5633483,73.83318,523.1,24.144897959183673,98,29.316326530612244,151.60204081632654,10.0,-79.0,201.0,0
1723717695,18.5633483,73.83318,523.1,24.101020408163265,98,29.316326530612244,151.60204081632654,10.0,-79.0,201.0,0
1723717696,18.5633483,73.83318,523.1,24.007142857142856,98,29.142857142857142,148.23469387755102,10.0,-79.0,201.0,0
1723717697,18.5633483,73.83318,523.1,24.155102040816324,98,30.591836734693878,156.05102040816325,10.0,-79.0,201.0,0
1723717698,18.5633483,73.83318,523.1,24.066326530612244,98,30.591836734693878,156.05102040816325,10.0,-79.0,201.0,0
1723717699,18.5633483,73.83318,523.1,23.781632653061223,98,30.591836734693878,156.0408163265306,10.0,-79.0,201.0,0
1723717700,18.5633483,73.83318,523.1,23.874489795918365,98,30.591836734693878,156.0408163265306,10.0,-79.0,201.0,0
1723717701,18.5633483,73.83318,523.1,23.768367346938778,98,30.591836734693878,156.0408163265306,10.0,-79.0,201.0,0
1723717702,18.5633483,73.83318,523.1,23.847959183673467,98,30.591836734693878,156.03061224489795,10.0,-79.0,201.0,0
1723717703,18.5633483,73.83318,523.1,23.76224489795918,98,30.591836734693878,156.03061224489795,10.0,-79.0,201.0,0
1723717704,18.5633483,73.83318,523.1,23.86530612244898,98,30.591836734693878,156.03061224489795,10.0,-79.0,201.0,0
1723717705,18.5633483,73.83318,523.1,23.714285714285715,98,30.591836734693878,156.0204081632653,10.0,-79.0,201.0,0
1723717706,18.5633483,73.83318,523.1,23.738775510204082,98,30.591836734693878,156.0204081632653,9.0,-79.0,201.0,0
1723717707,18.5633483,73.83318,523.1,23.36938775510204,98,30.397959183673468,155.37755102040816,10.0,-79.0,201.0,0
1723717708,18.5633483,73.83318,523.1,23.28673469387755,98,30.397959183673468,155.3673469387755,10.0,-79.0,201.0,0
1723717709,18.5633483,73.83318,523.1,23.229591836734695,98,30.408163265306122,155.3673469387755,10.0,-79.0,201.0,0
1723717710,18.5633483,73.83318,523.1,23.4265306122449,98,30.408163265306122,155.3673469387755,10.0,-79.0,201.0,0
1723717711,18.5633483,73.83318,523.1,23.4234693877551,98,30.408163265306122,155.35714285714286,10.0,-79.0,201.0,0
1723717712,18.5633483,73.83318,523.1,23.624489795918365,98,30.408163265306122,155.33673469387756,10.0,-79.0,201.0,0
1723717713,18.5633483,73.83318,523.1,23.455102040816325,98,30.408163265306122,155.33673469387756,10.0,-79.0,201.0,0
1723717714,18.5633483,73.83318,523.1,23.339795918367347,98,30.408163265306122,155.33673469387756,10.0,-79.0,201.0,0
1723717715,18.5633483,73.83318,523.1,23.406122448979595,98,30.408163265306122,155.3265306122449,10.0,-79.0,201.0,0
1723717716,18.5633483,73.83318,523.1,23.389795918367344,98,29.816326530612244,155.0204081632653,10.0,-79.0,201.0,0
1723717717,18.5633483,73.83318,523.1,23.625510204081635,98,29.816326530612244,155.0204081632653,10.0,-79.0,201.0,0
1723717718,18.5633483,73.83318,523.1,23.501020408163264,98,29.816326530612244,155.01020408163265,10.0,-79.0,201.0,0
1723717719,18.5633483,73.83318,523.1,23.46326530612245,98,29.816326530612244,155.01020408163265,10.0,-79.0,201.0,0
1723717720,18.5633483,73.83318,523.1,23.51530612244898,98,29.816326530612244,155.01020408163265,10.0,-79.0,201.0,0
1723717721,18.5633483,73.83318,523.1,23.474489795918366,98,29.816326530612244,155.0,10.0,-79.0,201.0,0
1723717722,18.5633483,73.83318,523.1,23.397959183673468,98,29.816326530612244,154.98979591836735,10.0,-79.0,201.0,0
1723717723,18.5633483,73.83318,523.1,23.458163265306123,98,29.816326530612244,154.98979591836735,10.0,-79.0,201.0,0
1723717724,18.5633483,73.83318,523.1,23.375510204081635,98,29.816326530612244,154.9795918367347,10.0,-79.0,201.0,0
1723717725,18.5633483,73.83318,523.1,23.321428571428573,98,29.418367346938776,152.44897959183675,10.0,-79.0,201.0,0
1723717726,18.5633483,73.83318,523.1,23.375510204081635,98,29.418367346938776,152.44897959183675,9.0,-79.0,201.0,0
1723717727,18.5633483,73.83318,523.1,23.575257731958764,97,29.65979381443299,150.7319587628866,10.0,-79.0,201.0,0
1723717728,18.5633483,73.83318,523.1,23.52755102040816,98,29.418367346938776,152.44897959183675,10.0,-79.0,201.0,0
1723717729,18.5633483,73.83318,523.1,21.905102040816324,98,29.418367346938776,152.44897959183675,10.0,-79.0,201.0,0
1723717730,18.5633483,73.83318,523.1,22.21326530612245,98,29.418367346938776,152.44897959183675,10.0,-79.0,201.0,0
1723717731,18.5633483,73.83318,523.1,22.73469387755102,98,29.418367346938776,152.4387755102041,10.0,-79.0,201.0,0
1723717732,18.5633483,73.83318,523.1,22.71530612244898,98,29.418367346938776,152.4387755102041,10.0,-79.0,201.0,0
1723717733,18.5633483,73.83318,523.1,22.572448979591837,98,29.418367346938776,152.4387755102041,10.0,-79.0,201.0,0
1723717734,18.5633483,73.83318,523.1,22.498979591836736,98,29.336734693877553,151.42857142857142,10.0,-79.0,201.0,0
1723717735,18.5633483,73.83318,523.1,22.567346938775508,98,29.357142857142858,151.44897959183675,10.0,-79.0,201.0,0
1723717736,18.5633483,73.83318,523.1,22.73469387755102,98,29.357142857142858,151.46938775510205,10.0,-79.0,201.0,0
1723717737,18.5633483,73.83318,523.1,22.86701030927835,97,29.02061855670103,150.44329896907217,10.0,-79.0,201.0,0
1723717738,18.5633483,73.83318,523.1,22.79278350515464,97,29.02061855670103,150.44329896907217,10.0,-79.0,201.0,0
1723717739,18.5633483,73.83318,523.1,23.008247422680416,97,29.02061855670103,150.44329896907217,10.0,-79.0,201.0,0
1723717740,18.5633483,73.83318,523.1,23.28125,96,29.25,148.64583333333334,9.0,-79.0,201.0,0
1723717741,18.5633483,73.83318,523.1,23.05,96,29.25,148.64583333333334,10.0,-79.0,201.0,0
1723717742,18.5633483,73.83318,523.1,22.987628865979385,97,28.216494845360824,144.1237113402062,10.0,-79.0,201.0,0
1723717743,18.5633483,73.83318,523.1,22.939175257731957,97,29.030927835051546,150.4536082474227,10.0,-79.0,201.0,0
1723717744,18.5633483,73.83318,523.1,23.316666666666666,96,29.260416666666668,148.67708333333334,10.0,-79.0,201.0,0
1723717745,18.5633483,73.83318,523.1,23.29479166666667,96,29.260416666666668,148.67708333333334,10.0,-79.0,201.0,0
1723717746,18.5633483,73.83318,523.1,23.527083333333334,96,29.260416666666668,148.67708333333334,10.0,-79.0,201.0,0
1723717747,18.5633483,73.83318,523.1,23.506249999999998,96,29.260416666666668,148.66666666666666,10.0,-79.0,201.0,0
1723717748,18.5633483,73.83318,523.1,23.925,96,29.270833333333332,148.66666666666666,10.0,-79.0,201.0,0
1723717749,18.5633483,73.83318,523.1,24.184375,96,29.270833333333332,148.66666666666666,10.0,-79.0,201.0,0
1723717750,18.5633483,73.83318,523.1,24.139583333333334,96,29.270833333333332,148.65625,10.0,-79.0,201.0,0
1723717751,18.5633483,73.83318,523.1,24.104166666666668,96,29.270833333333332,148.65625,10.0,-79.0,201.0,0
1723717752,18.5633483,73.83318,523.1,24.05,96,29.270833333333332,148.65625,10.0,-79.0,201.0,0
1723717753,18.5633483,73.83318,523.1,24.02916666666667,96,29.270833333333332,148.63541666666666,10.0,-79.0,201.0,0
1723717754,18.5633483,73.83318,523.1,24.035416666666666,96,29.270833333333332,148.625,10.0,-79.0,201.0,0
1723717755,18.5633483,73.83318,523.1,23.980208333333334,96,29.25,148.64583333333334,10.0,-79.0,201.0,0
1723717756,18.5633483,73.83318,523.1,23.80210526315789,95,29.49473684210526,148.89473684210526,10.0,-79.0,201.0,0
1723717757,18.5633483,73.83318,523.1,23.8,95,29.49473684210526,148.86315789473684,10.0,-79.0,201.0,0
1723717758,18.5633483,73.83318,523.1,23.844210526315788,95,29.51578947368421,148.8421052631579,10.0,-79.0,201.0,0
1723717759,18.5633483,73.83318,523.1,23.753684210526316,95,29.51578947368421,148.83157894736843,10.0,-79.0,201.0,0
1723717760,18.5633483,73.83318,523.1,23.683333333333334,96,29.25,150.11458333333334,10.0,-79.0,201.0,0
1723717761,18.5633483,73.83318,523.1,23.75,96,29.9375,152.29166666666666,10.0,-79.0,201.0,0
1723717762,18.5633483,73.83318,523.1,23.7,97,29.690721649484537,153.7835051546392,10.0,-79.0,201.0,0
1723717763,18.5633483,73.83318,523.1,23.862886597938143,97,29.701030927835053,153.90721649484536,10.0,-79.0,201.0,0
1723717764,18.5633483,73.83318,523.1,24.11134020618557,97,29.68041237113402,153.91752577319588,10.0,-79.0,201.0,0
1723717765,18.5633483,73.83318,523.1,23.917525773195877,97,30.288659793814432,156.2577319587629,10.0,-79.0,201.0,0
1723717766,18.5633483,73.83318,523.1,23.87319587628866,97,30.288659793814432,156.2577319587629,10.0,-79.0,201.0,0
1723717767,18.5633483,73.83318,523.1,23.897938144329895,97,30.288659793814432,156.2577319587629,10.0,-79.0,201.0,0
1723717768,18.5633483,73.83318,523.1,23.871428571428574,98,30.040816326530614,155.92857142857142,10.0,-79.0,201.0,0
1723717769,18.5633483,73.83318,523.1,23.682653061224492,98,30.040816326530614,155.92857142857142,10.0,-79.0,201.0,0
1723717770,18.5633483,73.83318,523.1,23.802040816326528,98,29.959183673469386,155.12244897959184,10.0,-79.0,201.0,0
1723717771,18.5633483,73.83318,523.1,23.742857142857144,98,29.959183673469386,155.1122448979592,10.0,-79.0,201.0,0
1723717772,18.5633483,73.83318,523.1,23.801020408163264,98,29.959183673469386,155.10204081632654,10.0,-79.0,201.0,0
1723717773,18.5633483,73.83318,523.1,23.683673469387756,98,29.959183673469386,155.10204081632654,10.0,-79.0,201.0,0
1723717774,18.5633483,73.83318,523.1,23.65,98,29.846938775510203,155.26530612244898,10.0,-79.0,201.0,0
1723717775,18.5633483,73.83318,523.1,23.697959183673472,98,29.846938775510203,155.26530612244898,10.0,-79.0,201.0,0
1723717776,18.5633483,73.83318,523.1,23.69183673469388,98,29.846938775510203,155.25510204081633,10.0,-79.0,201.0,0
1723717777,18.5633483,73.83318,523.1,23.635714285714286,98,29.846938775510203,155.25510204081633,10.0,-79.0,201.0,0
1723717778,18.5633483,73.83318,523.1,23.867346938775512,98,29.846938775510203,155.29591836734693,10.0,-79.0,201.0,0
1723717779,18.5633483,73.83318,523.1,23.973469387755102,98,29.632653061224488,156.51020408163265,10.0,-79.0,201.0,0
1723717780,18.5633483,73.83318,523.1,24.013265306122452,98,29.632653061224488,156.5,10.0,-79.0,201.0,0
1723717781,18.5633483,73.83318,523.1,24.16938775510204,98,29.632653061224488,156.5,10.0,-79.0,201.0,0
1723717782,18.5633483,73.83318,523.1,24.38659793814433,97,29.876288659793815,156.82474226804123,10.0,-79.0,201.0,0
1723717783,18.5633483,73.83318,523.1,24.260824742268042,97,29.257731958762886,153.37113402061857,10.0,-79.0,201.0,0
1723717784,18.5633483,73.83318,523.1,24.434375,96,29.291666666666668,150.5,10.0,-79.0,201.0,0
1723717785,18.5633483,73.83318,523.1,24.400000000000002,97,29.2680412371134,152.16494845360825,10.0,-79.0,201.0,0
1723717786,18.5633483,73.83318,523.1,24.32164948453608,97,29.2680412371134,152.16494845360825,10.0,-79.0,201.0,0
1723717787,18.5633483,73.83318,523.1,24.389690721649487,97,29.2680412371134,152.16494845360825,10.0,-79.0,201.0,0
1723717788,18.5633483,73.83318,523.1,24.288659793814432,97,29.2680412371134,152.16494845360825,10.0,-79.0,201.0,0
1723717789,18.5633483,73.83318,523.1,24.242268041237114,97,28.989690721649485,150.57731958762886,10.0,-79.0,201.0,0
1723717790,18.5633483,73.83318,523.1,24.258762886597935,97,28.989690721649485,150.57731958762886,10.0,-79.0,201.0,0
1723717791,18.5633483,73.83318,523.1,24.156701030927834,97,28.989690721649485,150.57731958762886,10.0,-79.0,201.0,0
1723717792,18.5633483,73.83318,523.1,24.037113402061856,97,28.762886597938145,145.44329896907217,10.0,-79.0,201.0,0
1723717793,18.5633483,73.83318,523.1,24.082474226804123,97,29.567010309278352,151.77319587628867,10.0,-79.0,201.0,0
1723717794,18.5633483,73.83318,523.1,23.988659793814435,97,29.567010309278352,151.77319587628867,10.0,-79.0,201.0,0
1723717795,18.5633483,73.83318,523.1,24.103092783505154,97,29.567010309278352,151.77319587628867,10.0,-79.0,201.0,0
1723717796,18.5633483,73.83318,523.1,24.094845360824742,97,29.567010309278352,151.77319587628867,10.0,-79.0,201.0,0
1723717797,18.5633483,73.83318,523.1,24.094845360824742,97,29.556701030927837,151.7422680412371,10.0,-79.0,201.0,0
1723717798,18.5633483,73.83318,523.1,24.008247422680416,97,29.577319587628867,151.72164948453607,10.0,-79.0,201.0,0
