timestamp,latitude,longitude,altitude,mean_snr,sat_count,mean_elevation,roll,pitch,yaw,is_inclined
1724313691,18.5631013,73.8332827,535.6999999999999,,0,,11.0,-88.0,192.0,0
1724313690,18.5631081,73.8332699,535.8,,0,,,,,0
1724313692,18.5630988,73.8332862,535.6999999999999,20.13181818181818,88,35.68181818181818,18.0,-88.0,199.0,0
1724313693,18.5630969,73.8332853,535.6999999999999,20.836363636363636,88,35.68181818181818,6.0,-87.0,187.0,0
1724313694,18.5630967,73.833282,535.5,21.220454545454547,88,35.68181818181818,6.0,-87.0,187.0,0
1724313695,18.5630939,73.8332803,535.5,20.697727272727274,88,35.25,16.0,-87.0,197.0,0
1724313696,18.563089,73.8332784,535.5,21.10111111111111,90,34.78888888888889,16.0,-87.0,197.0,0
1724313697,18.5630854,73.8332797,535.5,20.98111111111111,90,34.78888888888889,13.0,-88.0,194.0,0
1724313698,18.5631103,73.8332787,535.4,21.274444444444445,90,34.78888888888889,17.0,-88.0,198.0,0
1724313699,18.5631142,73.8332785,535.4,21.006666666666664,90,34.766666666666666,4.0,-86.0,186.0,0
1724313700,18.5631712,73.8332715,535.3,21.21797752808989,89,33.92134831460674,9.0,-88.0,190.0,0
1724313701,18.5631799,73.8332703,535.3,21.04111111111111,90,34.15555555555556,20.0,-88.0,201.0,0
1724313702,18.5631814,73.8332702,535.3,20.921111111111113,90,34.15555555555556,13.0,-88.0,194.0,0
1724313703,18.5631816,73.8332702,535.3,20.822222222222223,90,34.15555555555556,12.0,-88.0,193.0,0
1724313704,18.5631817,73.83327,535.3,20.884615384615383,91,33.37362637362637,14.0,-88.0,196.0,0
1724313705,18.5631817,73.83327,535.3,20.68901098901099,91,33.879120879120876,12.0,-88.0,193.0,0
1724313706,18.5631817,73.83327,535.3,21.329213483146066,89,33.93258426966292,12.0,-88.0,194.0,0
1724313707,18.5631817,73.83327,535.3,21.24021739130435,92,33.58695652173913,13.0,-88.0,195.0,0
1724313708,18.5632406,73.8332517,535.1999999999999,21.207608695652173,92,33.58695652173913,13.0,-88.0,195.0,0
1724313709,18.5632499,73.8332446,535.1999999999999,21.246739130434783,92,33.58695652173913,13.0,-88.0,194.0,0
1724313710,18.5632514,73.8332422,535.0,21.14516129032258,93,34.526881720430104,14.0,-88.0,195.0,0
1724313711,18.5632517,73.8332418,535.0,21.141935483870967,93,34.526881720430104,13.0,-88.0,195.0,0
1724313712,18.5632517,73.8332417,535.0,21.24838709677419,93,34.526881720430104,13.0,-88.0,194.0,0
1724313713,18.5632517,73.8332417,535.0,21.153763440860214,93,34.526881720430104,13.0,-88.0,194.0,0
1724313714,18.5632517,73.8332417,535.0,21.048387096774192,93,34.526881720430104,12.0,-88.0,194.0,0
1724313715,18.5632517,73.8332417,535.0,21.06989247311828,93,34.44086021505376,13.0,-88.0,195.0,0
1724313716,18.5632517,73.8332417,535.0,21.003225806451614,93,34.44086021505376,13.0,-88.0,194.0,0
1724313717,18.5632517,73.8332417,535.0,21.46989247311828,93,34.44086021505376,12.0,-88.0,193.0,0
1724313718,18.5632517,73.8332417,535.0,21.475268817204302,93,34.44086021505376,13.0,-88.0,194.0,0
1724313719,18.5632517,73.8332417,535.0,21.363440860215054,93,34.02150537634409,13.0,-88.0,194.0,0
1724313720,18.5632517,73.8332417,535.0,21.40967741935484,93,34.02150537634409,12.0,-88.0,194.0,0
1724313721,18.5632517,73.8332417,535.0,21.43225806451613,93,34.02150537634409,13.0,-88.0,194.0,0
1724313722,18.5632517,73.8332417,535.0,21.372043010752687,93,34.02150537634409,12.0,-88.0,193.0,0
1724313723,18.5632517,73.8332417,535.0,21.418279569892473,93,34.0,12.0,-88.0,193.0,0
1724313724,18.5632517,73.8332417,535.0,21.43695652173913,92,33.78260869565217,13.0,-88.0,195.0,0
1724313725,18.5632517,73.8332417,535.0,21.434782608695652,92,33.78260869565217,13.0,-88.0,194.0,0
1724313726,18.5632517,73.8332417,535.0,21.454838709677418,93,34.0,13.0,-88.0,194.0,0
1724313727,18.5632517,73.8332417,535.0,21.716129032258067,93,34.0,13.0,-88.0,194.0,0
1724313728,18.5632517,73.8332417,535.0,21.61397849462366,93,34.02150537634409,14.0,-88.0,195.0,0
1724313729,18.5632517,73.8332417,535.0,21.589247311827958,93,33.526881720430104,13.0,-88.0,195.0,0
1724313730,18.5632517,73.8332417,535.0,21.627956989247313,93,33.526881720430104,12.0,-88.0,194.0,0
1724313731,18.5632517,73.8332417,535.0,21.56774193548387,93,33.526881720430104,13.0,-88.0,195.0,0
1724313732,18.5632517,73.8332417,535.0,21.955913978494625,93,33.526881720430104,12.0,-88.0,194.0,0
1724313733,18.5632517,73.8332417,535.0,21.897849462365592,93,33.526881720430104,12.0,-88.0,194.0,0
1724313734,18.5632517,73.8332417,535.0,21.833333333333332,93,33.526881720430104,12.0,-88.0,194.0,0
1724313735,18.5632517,73.8332417,535.0,22.258064516129032,93,33.526881720430104,13.0,-88.0,195.0,0
1724313736,18.5632517,73.8332417,535.0,22.401063829787233,94,33.244680851063826,13.0,-88.0,195.0,0
1724313737,18.5632517,73.8332417,535.0,22.79255319148936,94,33.244680851063826,12.0,-88.0,194.0,0
1724313738,18.5632517,73.8332417,535.0,22.76489361702128,94,32.9468085106383,12.0,-88.0,193.0,0
1724313739,18.5632517,73.8332417,535.0,22.844210526315788,95,32.97894736842105,12.0,-88.0,193.0,0
1724313740,18.5632517,73.8332417,535.0,22.762105263157896,95,32.97894736842105,13.0,-88.0,194.0,0
1724313741,18.5632517,73.8332417,535.0,22.514736842105265,95,32.98947368421052,13.0,-88.0,194.0,0
1724313742,18.5632517,73.8332417,535.0,22.969791666666666,96,32.645833333333336,12.0,-88.0,194.0,0
1724313743,18.5632517,73.8332417,535.0,23.25,96,32.645833333333336,12.0,-88.0,193.0,0
1724313744,18.5632517,73.8332417,535.0,23.325773195876288,97,32.47422680412371,12.0,-88.0,194.0,0
1724313745,18.5632517,73.8332417,535.0,23.415463917525773,97,32.49484536082474,13.0,-88.0,194.0,0
1724313746,18.5632517,73.8332417,535.0,23.296907216494848,97,32.49484536082474,11.0,-88.0,193.0,0
1724313747,18.5632517,73.8332417,535.0,23.649484536082475,97,32.49484536082474,13.0,-88.0,194.0,0
1724313748,18.5632517,73.8332417,535.0,23.489583333333332,96,32.552083333333336,12.0,-88.0,194.0,0
1724313749,18.5632517,73.8332417,535.0,23.358333333333334,96,32.552083333333336,12.0,-88.0,193.0,0
1724313750,18.5632517,73.8332417,535.0,23.483333333333334,96,32.552083333333336,13.0,-88.0,194.0,0
1724313751,18.5632517,73.8332417,535.0,23.40625,96,32.552083333333336,12.0,-88.0,194.0,0
1724313752,18.5632517,73.8332417,535.0,23.484375,96,32.177083333333336,12.0,-88.0,193.0,0
1724313753,18.5632517,73.8332417,535.0,23.27938144329897,97,32.01030927835052,12.0,-88.0,193.0,0
1724313754,18.5632517,73.8332417,535.0,23.35876288659794,97,32.01030927835052,14.0,-88.0,195.0,0
1724313755,18.5632517,73.8332417,535.0,23.483505154639175,97,32.01030927835052,13.0,-88.0,195.0,0
1724313756,18.5632517,73.8332417,535.0,23.48556701030928,97,32.01030927835052,12.0,-88.0,194.0,0
1724313757,18.5632517,73.8332417,535.0,23.462886597938144,97,32.69072164948454,13.0,-88.0,195.0,0
1724313758,18.5632517,73.8332417,535.0,23.57422680412371,97,32.68041237113402,14.0,-88.0,195.0,0
1724313759,18.5632517,73.8332417,535.0,23.552577319587627,97,32.68041237113402,13.0,-88.0,195.0,0
1724313760,18.5632517,73.8332417,535.0,23.594897959183676,98,33.40816326530612,12.0,-88.0,194.0,0
1724313761,18.5632517,73.8332417,535.0,23.523469387755103,98,33.40816326530612,13.0,-88.0,195.0,0
1724313762,18.5632517,73.8332417,535.0,23.557731958762886,97,33.48453608247423,13.0,-88.0,194.0,0
1724313763,18.5632517,73.8332417,535.0,23.782474226804126,97,33.48453608247423,13.0,-88.0,195.0,0
1724313764,18.5632517,73.8332417,535.0,23.750515463917527,97,33.48453608247423,12.0,-88.0,194.0,0
1724313765,18.5632517,73.8332417,535.0,23.815463917525772,97,33.48453608247423,13.0,-88.0,195.0,0
1724313766,18.5632517,73.8332417,535.0,23.778350515463917,97,33.41237113402062,13.0,-88.0,194.0,0
1724313767,18.5632517,73.8332417,535.0,23.770103092783504,97,33.41237113402062,13.0,-88.0,194.0,0
1724313768,18.5632517,73.8332417,535.0,23.737113402061855,97,33.41237113402062,12.0,-88.0,194.0,0
1724313769,18.5632517,73.8332417,535.0,23.785567010309276,97,33.23711340206186,12.0,-88.0,194.0,0
1724313770,18.5632517,73.8332417,535.0,23.689795918367345,98,33.173469387755105,12.0,-88.0,194.0,0
1724313771,18.5632517,73.8332417,535.0,23.552040816326528,98,33.173469387755105,13.0,-88.0,195.0,0
1724313772,18.5632517,73.8332417,535.0,23.66938775510204,98,33.16326530612245,12.0,-88.0,194.0,0
1724313773,18.5632517,73.8332417,535.0,23.839795918367347,98,33.1530612244898,13.0,-88.0,194.0,0
1724313774,18.5632517,73.8332417,535.0,23.65,98,33.1530612244898,13.0,-88.0,194.0,0
1724313775,18.5632517,73.8332417,535.0,23.747959183673473,98,32.92857142857143,12.0,-88.0,193.0,0
1724313776,18.5632517,73.8332417,535.0,23.757142857142856,98,32.92857142857143,12.0,-88.0,193.0,0
1724313777,18.5632517,73.8332417,535.0,23.687755102040818,98,32.92857142857143,11.0,-87.0,192.0,0
1724313778,18.5632517,73.8332417,535.0,23.78673469387755,98,32.642857142857146,13.0,-88.0,194.0,0
1724313779,18.5632517,73.8332417,535.0,23.718367346938777,98,32.642857142857146,13.0,-88.0,194.0,0
1724313780,18.5632517,73.8332417,535.0,23.727551020408164,98,32.642857142857146,12.0,-88.0,193.0,0
1724313781,18.5632517,73.8332417,535.0,23.84432989690722,97,32.402061855670105,12.0,-88.0,193.0,0
1724313782,18.5632517,73.8332417,535.0,23.803092783505157,97,32.402061855670105,13.0,-88.0,195.0,0
1724313783,18.5632517,73.8332417,535.0,23.890721649484536,97,32.402061855670105,12.0,-88.0,193.0,0
1724313784,18.5632517,73.8332417,535.0,23.9020618556701,97,32.11340206185567,13.0,-88.0,194.0,0
1724313785,18.5632517,73.8332417,535.0,23.815625,96,32.166666666666664,13.0,-88.0,194.0,0
1724313786,18.5632517,73.8332417,535.0,23.78041237113402,97,32.103092783505154,14.0,-88.0,195.0,0
1724313787,18.5632517,73.8332417,535.0,23.736082474226805,97,32.01030927835052,13.0,-88.0,194.0,0
1724313788,18.5632517,73.8332417,535.0,23.70618556701031,97,32.01030927835052,14.0,-88.0,196.0,0
1724313789,18.5632517,73.8332417,535.0,23.63917525773196,97,32.0,11.0,-88.0,193.0,0
1724313790,18.5632517,73.8332417,535.0,23.49278350515464,97,32.0,13.0,-88.0,194.0,0
1724313791,18.5632517,73.8332417,535.0,23.386734693877553,98,32.244897959183675,12.0,-88.0,194.0,0
1724313792,18.5632517,73.8332417,535.0,23.533673469387757,98,32.244897959183675,13.0,-88.0,194.0,0
1724313793,18.5632517,73.8332417,535.0,23.562244897959182,98,32.1530612244898,12.0,-88.0,193.0,0
1724313794,18.5632517,73.8332417,535.0,23.625510204081635,98,32.1530612244898,13.0,-88.0,194.0,0
1724313795,18.5632517,73.8332417,535.0,23.871134020618555,97,31.90721649484536,13.0,-88.0,195.0,0
1724313796,18.5632517,73.8332417,535.0,23.727551020408164,98,32.04081632653061,12.0,-88.0,194.0,0
1724313797,18.5632517,73.8332417,535.0,23.776530612244898,98,32.04081632653061,13.0,-88.0,194.0,0
1724313798,18.5632517,73.8332417,535.0,23.85,98,32.05102040816327,13.0,-88.0,195.0,0
1724313799,18.5632517,73.8332417,535.0,23.69183673469388,98,32.05102040816327,12.0,-88.0,193.0,0
1724313800,18.5632517,73.8332417,535.0,23.825510204081635,98,32.05102040816327,13.0,-88.0,195.0,0
1724313801,18.5632517,73.8332417,535.0,23.828865979381444,97,31.804123711340207,12.0,-88.0,194.0,0
1724313802,18.5632517,73.8332417,535.0,23.83917525773196,97,31.814432989690722,14.0,-88.0,195.0,0
1724313803,18.5632517,73.8332417,535.0,23.847422680412368,97,31.79381443298969,13.0,-88.0,195.0,0
1724313804,18.5632517,73.8332417,535.0,23.74591836734694,98,32.05102040816327,13.0,-88.0,195.0,0
1724313805,18.5632517,73.8332417,535.0,23.757142857142856,98,32.05102040816327,14.0,-88.0,195.0,0
1724313806,18.5632517,73.8332417,535.0,23.806122448979593,98,32.05102040816327,13.0,-88.0,195.0,0
1724313807,18.5632517,73.8332417,535.0,23.744897959183675,98,32.06122448979592,14.0,-88.0,195.0,0
1724313808,18.5632517,73.8332417,535.0,23.82061855670103,97,31.814432989690722,14.0,-88.0,195.0,0
1724313809,18.5632517,73.8332417,535.0,23.58877551020408,98,32.06122448979592,14.0,-88.0,195.0,0
1724313810,18.5632517,73.8332417,535.0,23.804081632653062,98,32.06122448979592,13.0,-88.0,194.0,0
1724313811,18.5632517,73.8332417,535.0,23.82164948453608,97,31.814432989690722,13.0,-88.0,195.0,0
1724313812,18.5632517,73.8332417,535.0,23.85979381443299,97,31.814432989690722,13.0,-88.0,195.0,0
1724313813,18.5632517,73.8332417,535.0,23.77216494845361,97,31.814432989690722,13.0,-88.0,194.0,0
1724313814,18.5632517,73.8332417,535.0,23.93505154639175,97,31.814432989690722,14.0,-88.0,195.0,0
1724313815,18.5632517,73.8332417,535.0,23.758762886597935,97,31.814432989690722,14.0,-88.0,195.0,0
1724313816,18.5632517,73.8332417,535.0,23.81855670103093,97,31.814432989690722,13.0,-88.0,195.0,0
1724313817,18.5632517,73.8332417,535.0,23.95360824742268,97,31.79381443298969,13.0,-88.0,194.0,0
1724313818,18.5632517,73.8332417,535.0,24.049484536082478,97,31.77319587628866,14.0,-88.0,195.0,0
1724313819,18.5632517,73.8332417,535.0,23.921649484536083,97,31.77319587628866,14.0,-88.0,195.0,0
1724313820,18.5632517,73.8332417,535.0,23.910309278350518,97,31.77319587628866,14.0,-88.0,195.0,0
1724313821,18.5632517,73.8332417,535.0,23.93505154639175,97,31.77319587628866,13.0,-88.0,195.0,0
1724313822,18.5632517,73.8332417,535.0,23.79484536082474,97,31.77319587628866,14.0,-88.0,195.0,0
1724313823,18.5632517,73.8332417,535.0,23.92886597938144,97,31.77319587628866,13.0,-88.0,195.0,0
1724313824,18.5632517,73.8332417,535.0,23.962244897959184,98,32.69387755102041,13.0,-88.0,195.0,0
1724313825,18.5632517,73.8332417,535.0,23.921428571428574,98,32.69387755102041,13.0,-88.0,194.0,0
1724313826,18.5632517,73.8332417,535.0,23.80816326530612,98,33.357142857142854,13.0,-88.0,194.0,0
1724313827,18.5632517,73.8332417,535.0,23.679591836734694,98,33.357142857142854,12.0,-88.0,194.0,0
1724313828,18.5632517,73.8332417,535.0,23.717346938775513,98,33.357142857142854,13.0,-88.0,194.0,0
1724313829,18.5632517,73.8332417,535.0,23.794897959183675,98,33.357142857142854,12.0,-88.0,194.0,0
1724313830,18.5632517,73.8332417,535.0,23.609183673469385,98,33.357142857142854,13.0,-88.0,194.0,0
1724313831,18.5632517,73.8332417,535.0,23.942708333333332,96,33.395833333333336,12.0,-88.0,194.0,0
1724313832,18.5632517,73.8332417,535.0,23.92886597938144,97,33.628865979381445,13.0,-88.0,194.0,0
1724313833,18.5632517,73.8332417,535.0,23.62061855670103,97,33.55670103092783,12.0,-88.0,194.0,0
1724313834,18.5632517,73.8332417,535.0,23.73061224489796,98,33.285714285714285,13.0,-88.0,194.0,0
1724313835,18.5632517,73.8332417,535.0,23.837755102040816,98,33.11224489795919,12.0,-88.0,193.0,0
1724313836,18.5632517,73.8332417,535.0,23.78469387755102,98,33.11224489795919,12.0,-88.0,193.0,0
1724313837,18.5632517,73.8332417,535.0,23.68877551020408,98,33.10204081632653,12.0,-88.0,193.0,0
1724313838,18.5632517,73.8332417,535.0,23.829591836734696,98,33.11224489795919,12.0,-88.0,194.0,0
1724313839,18.5632517,73.8332417,535.0,23.45,98,33.11224489795919,12.0,-88.0,194.0,0
1724313840,18.5632517,73.8332417,535.0,23.75,98,33.11224489795919,12.0,-88.0,193.0,0
1724313841,18.5632517,73.8332417,535.0,23.9,98,33.11224489795919,12.0,-88.0,193.0,0
1724313842,18.5632517,73.8332417,535.0,23.791836734693877,98,32.88775510204081,12.0,-88.0,194.0,0
1724313843,18.5632517,73.8332417,535.0,23.708163265306123,98,32.88775510204081,11.0,-88.0,192.0,0
1724313844,18.5632517,73.8332417,535.0,23.936734693877554,98,32.60204081632653,12.0,-88.0,193.0,0
1724313845,18.5632517,73.8332417,535.0,23.901020408163266,98,32.60204081632653,11.0,-88.0,192.0,0
1724313846,18.5632517,73.8332417,535.0,23.772448979591836,98,32.60204081632653,11.0,-88.0,193.0,0
1724313847,18.5632517,73.8332417,535.0,23.677551020408163,98,32.60204081632653,11.0,-88.0,193.0,0
1724313848,18.5632517,73.8332417,535.0,23.875257731958765,97,32.865979381443296,11.0,-88.0,193.0,0
1724313849,18.5632517,73.8332417,535.0,23.835051546391753,97,32.865979381443296,11.0,-88.0,193.0,0
1724313850,18.5632517,73.8332417,535.0,23.86494845360825,97,32.865979381443296,11.0,-88.0,193.0,0
1724313851,18.5632517,73.8332417,535.0,23.996907216494844,97,32.597938144329895,11.0,-88.0,193.0,0
1724313852,18.5632517,73.8332417,535.0,24.12783505154639,97,32.597938144329895,11.0,-88.0,193.0,0
1724313853,18.5632517,73.8332417,535.0,24.075257731958764,97,32.48453608247423,11.0,-88.0,193.0,0
1724313854,18.5632517,73.8332417,535.0,23.829591836734696,98,32.16326530612245,11.0,-88.0,192.0,0
1724313855,18.5632517,73.8332417,535.0,23.803061224489795,98,32.16326530612245,11.0,-88.0,193.0,0
1724313856,18.5632517,73.8332417,535.0,23.796938775510203,98,32.16326530612245,11.0,-88.0,193.0,0
1724313857,18.5632517,73.8332417,535.0,23.903061224489797,98,32.16326530612245,11.0,-88.0,193.0,0
1724313858,18.5632517,73.8332417,535.0,23.76530612244898,98,32.16326530612245,12.0,-88.0,193.0,0
1724313859,18.5632517,73.8332417,535.0,23.871428571428574,98,32.16326530612245,11.0,-88.0,193.0,0
1724313860,18.5632517,73.8332417,535.0,23.73061224489796,98,32.16326530612245,10.0,-88.0,192.0,0
1724313861,18.5632517,73.8332417,535.0,23.68877551020408,98,32.724489795918366,11.0,-88.0,193.0,0
1724313862,18.5632517,73.8332417,535.0,23.738144329896905,97,33.371134020618555,11.0,-88.0,193.0,0
1724313863,18.5632517,73.8332417,535.0,23.711340206185568,97,33.06185567010309,12.0,-88.0,193.0,0
1724313864,18.5632517,73.8332417,535.0,23.564285714285717,98,33.295918367346935,10.0,-88.0,192.0,0
1724313865,18.5632517,73.8332417,535.0,23.468367346938777,98,33.295918367346935,11.0,-88.0,193.0,0
1724313866,18.5632517,73.8332417,535.0,23.405102040816324,98,33.295918367346935,11.0,-88.0,192.0,0
1724313867,18.5632517,73.8332417,535.0,23.44081632653061,98,33.295918367346935,11.0,-88.0,193.0,0
1724313868,18.5632517,73.8332417,535.0,23.539795918367346,98,33.295918367346935,11.0,-88.0,193.0,0
1724313869,18.5632517,73.8332417,535.0,23.429591836734694,98,33.295918367346935,11.0,-88.0,192.0,0
1724313870,18.5632517,73.8332417,535.0,23.511224489795918,98,33.204081632653065,11.0,-88.0,193.0,0
1724313871,18.5632517,73.8332417,535.0,23.436734693877554,98,33.03061224489796,12.0,-88.0,194.0,0
1724313872,18.5632517,73.8332417,535.0,23.436734693877554,98,33.03061224489796,12.0,-88.0,194.0,0
1724313873,18.5632517,73.8332417,535.0,23.27171717171717,99,32.77777777777778,11.0,-88.0,193.0,0
1724313874,18.5632517,73.8332417,535.0,23.252525252525253,99,32.77777777777778,13.0,-88.0,194.0,0
1724313875,18.5632517,73.8332417,535.0,23.133333333333333,99,32.77777777777778,13.0,-88.0,194.0,0
1724313876,18.5632517,73.8332417,535.0,23.14242424242424,99,32.78787878787879,12.0,-88.0,194.0,0
1724313877,18.5632517,73.8332417,535.0,23.16262626262626,99,32.80808080808081,12.0,-88.0,194.0,0
1724313878,18.5632517,73.8332417,535.0,23.307070707070707,99,32.81818181818182,12.0,-88.0,193.0,0
1724313879,18.5632517,73.8332417,535.0,23.44141414141414,99,32.57575757575758,12.0,-88.0,193.0,0
1724313880,18.5632517,73.8332417,535.0,23.314141414141414,99,32.313131313131315,12.0,-88.0,193.0,0
1724313881,18.5632517,73.8332417,535.0,23.305050505050502,99,32.313131313131315,11.0,-88.0,193.0,0
1724313882,18.5632517,73.8332417,535.0,23.32323232323232,99,32.313131313131315,12.0,-88.0,194.0,0
1724313883,18.5632517,73.8332417,535.0,23.315151515151513,99,32.333333333333336,12.0,-88.0,194.0,0
1724313884,18.5632517,73.8332417,535.0,23.267676767676768,99,32.313131313131315,12.0,-88.0,194.0,0
1724313885,18.5632517,73.8332417,535.0,23.544897959183675,98,32.37755102040816,12.0,-88.0,193.0,0
1724313886,18.5632517,73.8332417,535.0,23.365656565656565,99,32.313131313131315,11.0,-88.0,193.0,0
1724313887,18.5632517,73.8332417,535.0,23.43030303030303,99,32.303030303030305,12.0,-88.0,193.0,0
1724313888,18.5632517,73.8332417,535.0,23.45612244897959,98,32.142857142857146,11.0,-88.0,193.0,0
1724313889,18.5632517,73.8332417,535.0,23.311111111111114,99,31.92929292929293,12.0,-88.0,194.0,0
1724313890,18.5632517,73.8332417,535.0,23.401010101010097,99,31.92929292929293,11.0,-88.0,193.0,0
1724313891,18.5632517,73.8332417,535.0,23.471428571428568,98,31.989795918367346,11.0,-88.0,193.0,0
1724313892,18.5632517,73.8332417,535.0,23.422448979591838,98,31.989795918367346,11.0,-88.0,193.0,0
1724313893,18.5632517,73.8332417,535.0,23.402040816326533,98,31.989795918367346,11.0,-88.0,193.0,0
1724313894,18.5632517,73.8332417,535.0,23.2979797979798,99,31.90909090909091,12.0,-88.0,193.0,0
1724313895,18.5632517,73.8332417,535.0,23.053535353535356,99,31.90909090909091,12.0,-88.0,193.0,0
1724313896,18.5632517,73.8332417,535.0,23.134343434343435,99,31.90909090909091,12.0,-88.0,193.0,0
1724313897,18.5632517,73.8332417,535.0,23.134343434343435,99,31.7979797979798,12.0,-88.0,193.0,0
1724313898,18.5632517,73.8332417,535.0,23.264646464646464,99,31.727272727272727,11.0,-88.0,192.0,0
1724313899,18.5632517,73.8332417,535.0,23.301020408163264,98,31.785714285714285,11.0,-88.0,192.0,0
1724313900,18.5632517,73.8332417,535.0,23.302040816326528,98,31.785714285714285,10.0,-88.0,191.0,0
1724313901,18.5632517,73.8332417,535.0,23.287755102040816,98,31.785714285714285,10.0,-88.0,192.0,0
1724313902,18.5632517,73.8332417,535.0,23.140816326530615,98,31.785714285714285,10.0,-88.0,192.0,0
1724313903,18.5632517,73.8332417,535.0,23.313265306122446,98,31.785714285714285,10.0,-88.0,192.0,0
1724313904,18.5632517,73.8332417,535.0,23.231632653061222,98,31.806122448979593,11.0,-88.0,192.0,0
1724313905,18.5632517,73.8332417,535.0,23.205102040816325,98,31.806122448979593,10.0,-88.0,191.0,0
1724313906,18.5632517,73.8332417,535.0,23.255102040816325,98,31.785714285714285,10.0,-88.0,192.0,0
1724313907,18.5632517,73.8332417,535.0,23.159183673469386,98,31.785714285714285,10.0,-88.0,191.0,0
1724313908,18.5632517,73.8332417,535.0,23.1,99,31.727272727272727,10.0,-88.0,191.0,0
1724313909,18.5632517,73.8332417,535.0,23.144444444444446,99,31.727272727272727,10.0,-88.0,191.0,0
1724313910,18.5632517,73.8332417,535.0,23.15959595959596,99,32.39393939393939,10.0,-88.0,192.0,0
1724313911,18.5632517,73.8332417,535.0,23.08469387755102,98,32.16326530612245,10.0,-88.0,191.0,0
1724313912,18.5632517,73.8332417,535.0,22.99591836734694,98,32.16326530612245,10.0,-88.0,191.0,0
1724313913,18.5632517,73.8332417,535.0,23.029591836734696,98,32.16326530612245,9.0,-88.0,191.0,0
1724313914,18.5632517,73.8332417,535.0,22.977777777777778,99,32.39393939393939,9.0,-88.0,191.0,0
1724313915,18.5632517,73.8332417,535.0,22.995959595959594,99,33.05050505050505,10.0,-88.0,191.0,0
1724313916,18.5632517,73.8332417,535.0,22.83737373737374,99,33.05050505050505,9.0,-88.0,191.0,0
1724313917,18.5632517,73.8332417,535.0,22.786868686868686,99,33.05050505050505,10.0,-88.0,192.0,0
1724313918,18.5632517,73.8332417,535.0,22.833333333333332,99,33.05050505050505,9.0,-88.0,191.0,0
1724313919,18.5632517,73.8332417,535.0,22.884848484848483,99,32.97979797979798,10.0,-88.0,191.0,0
1724313920,18.5632517,73.8332417,535.0,22.871717171717172,99,32.97979797979798,10.0,-88.0,192.0,0
1724313921,18.5632517,73.8332417,535.0,23.035353535353536,99,32.97979797979798,9.0,-88.0,191.0,0
1724313922,18.5632517,73.8332417,535.0,23.044897959183675,98,33.244897959183675,9.0,-88.0,190.0,0
1724313923,18.5632517,73.8332417,535.0,23.07272727272727,99,32.97979797979798,10.0,-88.0,192.0,0
1724313924,18.5632517,73.8332417,535.0,23.110101010101012,99,32.97979797979798,10.0,-88.0,191.0,0
1724313925,18.5632517,73.8332417,535.0,23.015151515151516,99,32.78787878787879,9.0,-88.0,191.0,0
1724313926,18.5632517,73.8332417,535.0,22.875757575757575,99,32.78787878787879,9.0,-88.0,190.0,0
1724313927,18.5632517,73.8332417,535.0,22.966666666666665,99,32.78787878787879,8.0,-88.0,190.0,0
1724313928,18.5632517,73.8332417,535.0,22.95757575757576,99,32.54545454545455,9.0,-88.0,190.0,0
1724313929,18.5632517,73.8332417,535.0,22.884848484848483,99,32.56565656565657,9.0,-88.0,190.0,0
1724313930,18.5632517,73.8332417,535.0,22.812121212121212,99,32.56565656565657,8.0,-88.0,190.0,0
1724313931,18.5632517,73.8332417,535.0,22.747474747474747,99,32.56565656565657,10.0,-88.0,191.0,0
1724313932,18.5632517,73.8332417,535.0,22.638383838383838,99,32.56565656565657,9.0,-88.0,191.0,0
1724313933,18.5632517,73.8332417,535.0,22.706060606060607,99,32.56565656565657,10.0,-88.0,191.0,0
1724313934,18.5632517,73.8332417,535.0,22.817171717171718,99,32.282828282828284,9.0,-88.0,190.0,0
1724313935,18.5632517,73.8332417,535.0,22.73030303030303,99,32.27272727272727,9.0,-88.0,190.0,0
1724313936,18.5632517,73.8332417,535.0,22.68080808080808,99,32.27272727272727,9.0,-88.0,190.0,0
1724313937,18.5632517,73.8332417,535.0,22.46969696969697,99,32.02020202020202,8.0,-88.0,190.0,0
1724313938,18.5632517,73.8332417,535.0,22.613131313131312,99,32.03030303030303,9.0,-88.0,190.0,0
1724313939,18.5632517,73.8332417,535.0,22.638383838383838,99,32.03030303030303,9.0,-88.0,190.0,0
1724313940,18.5632517,73.8332417,535.0,22.358,100,31.83,9.0,-88.0,191.0,0
1724313941,18.5632517,73.8332417,535.0,22.011999999999997,100,31.83,8.0,-88.0,190.0,0
1724313942,18.5632517,73.8332417,535.0,22.514,100,31.83,9.0,-88.0,190.0,0
1724313943,18.5632517,73.8332417,535.0,22.636999999999997,100,31.72,9.0,-88.0,191.0,0
1724313944,18.5632517,73.8332417,535.0,22.500999999999998,100,31.72,9.0,-88.0,190.0,0
1724313945,18.5632517,73.8332417,535.0,22.456999999999997,100,31.72,9.0,-88.0,190.0,0
1724313946,18.5632517,73.8332417,535.0,22.506999999999998,100,31.61,9.0,-88.0,190.0,0
1724313947,18.5632517,73.8332417,535.0,22.203000000000003,100,31.61,8.0,-88.0,190.0,0
1724313948,18.5632517,73.8332417,535.0,22.348000000000003,100,31.6,9.0,-88.0,191.0,0
1724313949,18.5632517,73.8332417,535.0,22.414,100,31.59,9.0,-88.0,191.0,0
1724313950,18.5632517,73.8332417,535.0,22.351,100,31.6,10.0,-88.0,191.0,0
1724313951,18.5632517,73.8332417,535.0,22.298000000000002,100,31.6,8.0,-88.0,190.0,0
1724313952,18.5632517,73.8332417,535.0,22.391,100,31.5,9.0,-88.0,191.0,0
1724313953,18.5632517,73.8332417,535.0,22.108080808080807,99,31.727272727272727,9.0,-88.0,191.0,0
1724313954,18.5632517,73.8332417,535.0,22.37070707070707,99,31.727272727272727,9.0,-88.0,191.0,0
1724313955,18.5632517,73.8332417,535.0,,0,,9.0,-88.0,191.0,0
1724313956,18.5632517,73.8332417,535.0,22.453535353535354,198,31.727272727272727,11.0,-88.0,192.0,0
1724313957,18.5632517,73.8332417,535.0,22.584848484848486,99,31.727272727272727,11.0,-88.0,193.0,0
1724313958,18.5632517,73.8332417,535.0,22.5020202020202,99,31.727272727272727,11.0,-88.0,192.0,0
1724313959,18.5632517,73.8332417,535.0,22.50808080808081,99,31.737373737373737,10.0,-88.0,192.0,0
1724313960,18.5632517,73.8332417,535.0,22.727272727272727,99,31.747474747474747,11.0,-88.0,193.0,0
1724313961,18.5632517,73.8332417,535.0,23.015151515151516,99,31.747474747474747,10.0,-88.0,192.0,0
1724313962,18.5632517,73.8332417,535.0,22.872727272727275,99,31.737373737373737,11.0,-88.0,193.0,0
1724313963,18.5632517,73.8332417,535.0,23.12121212121212,99,31.737373737373737,11.0,-88.0,193.0,0
1724313964,18.5632517,73.8332417,535.0,23.03838383838384,99,31.747474747474747,10.0,-88.0,192.0,0
1724313965,18.5632517,73.8332417,535.0,22.792929292929294,99,31.747474747474747,11.0,-88.0,193.0,0
1724313966,18.5632517,73.8332417,535.0,23.114141414141415,99,31.747474747474747,11.0,-88.0,193.0,0
1724313967,18.5632517,73.8332417,535.0,23.015151515151516,99,31.747474747474747,11.0,-88.0,192.0,0
1724313968,18.5632517,73.8332417,535.0,23.068367346938775,98,31.663265306122447,11.0,-88.0,192.0,0
1724313969,18.5632517,73.8332417,535.0,23.171428571428574,98,31.663265306122447,11.0,-88.0,193.0,0
1724313970,18.5632517,73.8332417,535.0,22.92828282828283,99,31.747474747474747,12.0,-88.0,193.0,0
1724313971,18.5632517,73.8332417,535.0,22.86060606060606,99,31.747474747474747,12.0,-88.0,193.0,0
1724313972,18.5632517,73.8332417,535.0,23.198989898989897,99,31.747474747474747,12.0,-88.0,193.0,0
1724313973,18.5632517,73.8332417,535.0,22.996969696969696,99,31.747474747474747,12.0,-88.0,193.0,0
1724313974,18.5632517,73.8332417,535.0,23.0020202020202,99,31.757575757575758,12.0,-88.0,193.0,0
1724313975,18.5632517,73.8332417,535.0,23.05151515151515,99,31.757575757575758,12.0,-88.0,194.0,0
1724313976,18.5632517,73.8332417,535.0,23.066666666666666,99,31.77777777777778,13.0,-88.0,194.0,0
1724313977,18.5632517,73.8332417,535.0,22.83030303030303,99,32.44444444444444,12.0,-88.0,193.0,0
1724313978,18.5632517,73.8332417,535.0,23.076767676767677,99,32.45454545454545,12.0,-88.0,193.0,0
1724313979,18.5632517,73.8332417,535.0,23.135353535353538,99,32.45454545454545,12.0,-88.0,194.0,0
1724313980,18.5632517,73.8332417,535.0,23.158585858585855,99,32.45454545454545,12.0,-88.0,194.0,0
1724313981,18.5632517,73.8332417,535.0,23.11111111111111,99,32.45454545454545,11.0,-88.0,192.0,0
1724313982,18.5632517,73.8332417,535.0,23.086868686868687,99,32.45454545454545,12.0,-88.0,193.0,0
1724313983,18.5632517,73.8332417,535.0,22.934343434343436,99,33.111111111111114,12.0,-88.0,193.0,0
1724313984,18.5632517,73.8332417,535.0,23.151515151515152,99,33.111111111111114,13.0,-88.0,194.0,0
1724313985,18.5632517,73.8332417,535.0,23.03838383838384,99,33.111111111111114,12.0,-88.0,193.0,0
1724313986,18.5632517,73.8332417,535.0,22.98181818181818,99,33.04040404040404,12.0,-88.0,193.0,0
1724313987,18.5632517,73.8332417,535.0,22.993939393939396,99,33.04040404040404,12.0,-88.0,194.0,0
1724313988,18.5632517,73.8332417,535.0,23.023232323232325,99,33.04040404040404,12.0,-88.0,193.0,0
1724313989,18.5632517,73.8332417,535.0,22.677777777777777,99,33.06060606060606,11.0,-88.0,192.0,0
1724313990,18.5632517,73.8332417,535.0,22.966666666666665,99,33.06060606060606,12.0,-88.0,194.0,0
1724313991,18.5632517,73.8332417,535.0,23.05151515151515,99,33.06060606060606,13.0,-88.0,194.0,0
1724313992,18.5632517,73.8332417,535.0,23.236734693877548,98,33.173469387755105,12.0,-88.0,193.0,0
1724313993,18.5632517,73.8332417,535.0,23.187755102040818,98,33.173469387755105,12.0,-88.0,193.0,0
1724313994,18.5632517,73.8332417,535.0,23.094949494949496,99,32.888888888888886,12.0,-88.0,194.0,0
1724313995,18.5632517,73.8332417,535.0,22.721212121212123,99,32.676767676767675,12.0,-88.0,193.0,0
1724313996,18.5632517,73.8332417,535.0,23.17070707070707,99,32.676767676767675,12.0,-88.0,193.0,0
1724313997,18.5632517,73.8332417,535.0,23.16969696969697,99,32.676767676767675,12.0,-88.0,193.0,0
1724313998,18.5632517,73.8332417,535.0,23.210101010101013,99,32.676767676767675,11.0,-88.0,192.0,0
1724313999,18.5632517,73.8332417,535.0,23.145454545454545,99,32.676767676767675,11.0,-88.0,193.0,0
1724314000,18.5632517,73.8332417,535.0,22.955555555555556,99,32.676767676767675,12.0,-88.0,193.0,0
1724314001,18.5632517,73.8332417,535.0,22.71818181818182,99,32.39393939393939,12.0,-88.0,193.0,0
1724314002,18.5632517,73.8332417,535.0,23.07979797979798,99,32.39393939393939,13.0,-88.0,194.0,0
1724314003,18.5632517,73.8332417,535.0,23.10408163265306,98,32.6530612244898,12.0,-88.0,193.0,0
1724314004,18.5632517,73.8332417,535.0,23.297959183673466,98,32.38775510204081,11.0,-88.0,193.0,0
1724314005,18.5632517,73.8332417,535.0,22.91122448979592,98,32.357142857142854,12.0,-88.0,193.0,0
1724314006,18.5632517,73.8332417,535.0,23.031632653061223,98,32.357142857142854,12.0,-88.0,194.0,0
1724314007,18.5632517,73.8332417,535.0,22.75,98,32.36734693877551,12.0,-88.0,193.0,0
1724314008,18.5632517,73.8332417,535.0,23.139795918367344,98,32.36734693877551,11.0,-88.0,193.0,0
1724314009,18.5632517,73.8332417,535.0,23.209278350515465,97,32.28865979381443,11.0,-88.0,193.0,0
1724314010,18.5632517,73.8332417,535.0,22.98989898989899,99,32.0,12.0,-88.0,194.0,0
1724314011,18.5632517,73.8332417,535.0,23.050505050505052,99,32.0,12.0,-88.0,193.0,0
1724314012,18.5632517,73.8332417,535.0,23.175510204081633,98,32.02040816326531,12.0,-88.0,193.0,0
1724314013,18.5632517,73.8332417,535.0,22.737373737373737,99,32.55555555555556,12.0,-88.0,193.0,0
1724314014,18.5632517,73.8332417,535.0,23.05816326530612,98,32.47959183673469,12.0,-88.0,193.0,0
1724314015,18.5632517,73.8332417,535.0,23.15,98,32.47959183673469,13.0,-88.0,194.0,0
1724314016,18.5632517,73.8332417,535.0,23.056122448979593,98,32.47959183673469,12.0,-88.0,194.0,0
1724314017,18.5632517,73.8332417,535.0,23.118367346938776,98,32.47959183673469,12.0,-88.0,194.0,0
1724314018,18.5632517,73.8332417,535.0,23.128571428571426,98,32.47959183673469,13.0,-88.0,194.0,0
1724314019,18.5632517,73.8332417,535.0,22.71530612244898,98,33.05102040816327,13.0,-88.0,194.0,0
1724314020,18.5632517,73.8332417,535.0,23.089795918367347,98,33.05102040816327,13.0,-88.0,194.0,0
1724314021,18.5632517,73.8332417,535.0,23.04285714285714,98,33.05102040816327,13.0,-88.0,194.0,0
1724314022,18.5632517,73.8332417,535.0,23.05918367346939,98,32.97959183673469,13.0,-88.0,195.0,0
1724314023,18.5632517,73.8332417,535.0,23.15463917525773,97,32.75257731958763,13.0,-88.0,194.0,0
1724314024,18.5632517,73.8332417,535.0,23.0765306122449,98,32.97959183673469,13.0,-88.0,194.0,0
1724314025,18.5632517,73.8332417,535.0,22.709183673469386,98,32.97959183673469,14.0,-88.0,195.0,0
1724314026,18.5632517,73.8332417,535.0,23.142857142857142,98,32.97959183673469,13.0,-88.0,194.0,0
1724314027,18.5632517,73.8332417,535.0,23.124489795918365,98,32.97959183673469,13.0,-88.0,195.0,0
1724314028,18.5632517,73.8332417,535.0,23.15408163265306,98,32.80612244897959,13.0,-88.0,195.0,0
1724314029,18.5632517,73.8332417,535.0,23.246938775510202,98,32.80612244897959,12.0,-88.0,194.0,0
1724314030,18.5632517,73.8332417,535.0,23.060204081632655,98,32.816326530612244,13.0,-88.0,194.0,0
1724314031,18.5632517,73.8332417,535.0,22.671428571428574,98,32.59183673469388,13.0,-88.0,194.0,0
1724314032,18.5632517,73.8332417,535.0,23.04639175257732,97,32.36082474226804,12.0,-88.0,194.0,0
1724314033,18.5632517,73.8332417,535.0,23.02680412371134,97,32.36082474226804,13.0,-88.0,195.0,0
1724314034,18.5632517,73.8332417,535.0,22.900000000000002,97,32.36082474226804,13.0,-88.0,194.0,0
1724314035,18.5632517,73.8332417,535.0,22.941237113402064,97,32.36082474226804,13.0,-88.0,195.0,0
1724314036,18.5632517,73.8332417,535.0,22.82061855670103,97,32.350515463917525,13.0,-88.0,195.0,0
1724314037,18.5632517,73.8332417,535.0,22.461224489795917,98,32.30612244897959,13.0,-88.0,195.0,0
1724314038,18.5632517,73.8332417,535.0,22.868367346938776,98,32.326530612244895,13.0,-88.0,195.0,0
1724314039,18.5632517,73.8332417,535.0,22.979591836734695,98,32.326530612244895,13.0,-88.0,194.0,0
1724314040,18.5632517,73.8332417,535.0,22.993877551020407,98,32.06122448979592,12.0,-88.0,194.0,0
1724314041,18.5632517,73.8332417,535.0,23.02164948453608,97,31.824742268041238,12.0,-88.0,194.0,0
1724314042,18.5632517,73.8332417,535.0,23.1340206185567,97,31.824742268041238,12.0,-88.0,194.0,0
1724314043,18.5632517,73.8332417,535.0,22.849484536082475,97,31.824742268041238,11.0,-88.0,193.0,0
1724314044,18.5632517,73.8332417,535.0,23.105102040816327,98,32.06122448979592,11.0,-88.0,193.0,0
1724314045,18.5632517,73.8332417,535.0,22.88787878787879,99,31.77777777777778,12.0,-88.0,194.0,0
1724314046,18.5632517,73.8332417,535.0,22.88787878787879,99,31.646464646464647,12.0,-88.0,193.0,0
1724314047,18.5632517,73.8332417,535.0,22.959183673469386,98,31.408163265306122,11.0,-88.0,192.0,0
1724314048,18.5632517,73.8332417,535.0,22.906122448979595,98,31.408163265306122,11.0,-88.0,193.0,0
1724314049,18.5632517,73.8332417,535.0,22.710204081632654,98,31.306122448979593,10.0,-88.0,192.0,0
1724314050,18.5632517,73.8332417,535.0,22.76666666666667,99,31.545454545454547,10.0,-88.0,192.0,0
1724314051,18.5632517,73.8332417,535.0,22.891919191919193,99,31.545454545454547,10.0,-88.0,191.0,0
1724314052,18.5632517,73.8332417,535.0,22.689898989898992,99,31.393939393939394,8.0,-88.0,190.0,0
1724314053,18.5632517,73.8332417,535.0,22.671,100,31.63,9.0,-88.0,191.0,0
1724314054,18.5632517,73.8332417,535.0,22.681818181818183,99,31.545454545454547,10.0,-88.0,191.0,0
1724314055,18.5632517,73.8332417,535.0,22.23333333333333,99,31.454545454545453,9.0,-88.0,191.0,0
1724314056,18.5632517,73.8332417,535.0,22.65050505050505,99,31.464646464646464,10.0,-88.0,191.0,0
1724314057,18.5632517,73.8332417,535.0,22.723232323232324,99,31.464646464646464,10.0,-88.0,191.0,0
1724314058,18.5632517,73.8332417,535.0,22.724242424242423,99,31.464646464646464,10.0,-88.0,191.0,0
1724314059,18.5632517,73.8332417,535.0,22.807070707070707,99,31.474747474747474,10.0,-88.0,191.0,0
1724314060,18.5632517,73.8332417,535.0,22.843434343434343,99,31.464646464646464,10.0,-88.0,191.0,0
1724314061,18.5632517,73.8332417,535.0,22.51212121212121,99,31.464646464646464,9.0,-88.0,191.0,0
1724314062,18.5632517,73.8332417,535.0,22.731313131313133,99,31.464646464646464,9.0,-88.0,190.0,0
1724314063,18.5632517,73.8332417,535.0,23.02828282828283,99,31.464646464646464,9.0,-88.0,191.0,0
1724314064,18.5632517,73.8332417,535.0,23.16969696969697,99,31.464646464646464,9.0,-88.0,191.0,0
1724314065,18.5632517,73.8332417,535.0,23.0010101010101,99,31.464646464646464,9.0,-88.0,191.0,0
1724314066,18.5632517,73.8332417,535.0,22.945454545454545,99,31.464646464646464,9.0,-88.0,190.0,0
1724314067,18.5632517,73.8332417,535.0,22.717171717171716,99,32.78787878787879,9.0,-88.0,190.0,0
1724314068,18.5632517,73.8332417,535.0,22.831313131313134,99,32.78787878787879,9.0,-88.0,190.0,0
1724314069,18.5632517,73.8332417,535.0,22.964646464646464,99,32.80808080808081,9.0,-88.0,191.0,0
1724314070,18.5632517,73.8332417,535.0,23.0010101010101,99,32.78787878787879,8.0,-88.0,190.0,0
1724314071,18.5632517,73.8332417,535.0,23.013131313131314,99,32.78787878787879,8.0,-88.0,190.0,0
1724314072,18.5632517,73.8332417,535.0,22.942424242424245,99,32.78787878787879,8.0,-88.0,190.0,0
1724314073,18.5632517,73.8332417,535.0,22.773737373737372,99,32.78787878787879,8.0,-88.0,189.0,0
1724314074,18.5632517,73.8332417,535.0,22.977777777777778,99,32.78787878787879,8.0,-88.0,190.0,0
1724314075,18.5632517,73.8332417,535.0,22.779797979797976,99,32.76767676767677,8.0,-88.0,189.0,0
1724314076,18.5632517,73.8332417,535.0,22.7020202020202,99,32.525252525252526,8.0,-88.0,190.0,0
1724314077,18.5632517,73.8332417,535.0,22.828282828282827,99,32.525252525252526,9.0,-88.0,190.0,0
1724314078,18.5632517,73.8332417,535.0,22.893939393939394,99,32.525252525252526,9.0,-88.0,190.0,0
1724314079,18.5632517,73.8332417,535.0,22.617171717171715,99,32.525252525252526,9.0,-88.0,190.0,0
1724314080,18.5632517,73.8332417,535.0,22.775757575757577,99,32.54545454545455,8.0,-88.0,190.0,0
1724314081,18.5632517,73.8332417,535.0,22.672727272727272,99,32.54545454545455,8.0,-88.0,190.0,0
1724314082,18.5632517,73.8332417,535.0,22.523232323232325,99,32.525252525252526,8.0,-88.0,190.0,0
1724314083,18.5632517,73.8332417,535.0,22.602020202020203,99,32.525252525252526,8.0,-88.0,190.0,0
1724314084,18.5632517,73.8332417,535.0,22.586868686868687,99,32.525252525252526,8.0,-88.0,189.0,0
1724314085,18.5632517,73.8332417,535.0,22.25353535353535,99,32.525252525252526,8.0,-88.0,190.0,0
1724314086,18.5632517,73.8332417,535.0,22.36060606060606,99,32.02020202020202,8.0,-88.0,190.0,0
1724314087,18.5632517,73.8332417,535.0,22.50808080808081,99,32.02020202020202,9.0,-88.0,190.0,0
1724314088,18.5632517,73.8332417,535.0,22.54848484848485,99,32.02020202020202,8.0,-88.0,190.0,0
1724314089,18.5632517,73.8332417,535.0,22.42828282828283,99,32.02020202020202,9.0,-88.0,190.0,0
1724314090,18.5632517,73.8332417,535.0,22.436999999999998,100,32.09,8.0,-88.0,189.0,0
1724314091,18.5632517,73.8332417,535.0,21.936999999999998,100,32.1,9.0,-88.0,190.0,0
1724314092,18.5632517,73.8332417,535.0,22.156,100,32.1,8.0,-88.0,190.0,0
1724314093,18.5632517,73.8332417,535.0,22.238000000000003,100,32.12,8.0,-88.0,190.0,0
1724314094,18.5632517,73.8332417,535.0,22.234,100,32.12,8.0,-88.0,189.0,0
1724314095,18.5632517,73.8332417,535.0,22.186999999999998,100,32.12,9.0,-88.0,190.0,0
1724314096,18.5632517,73.8332417,535.0,22.248,100,31.75,8.0,-88.0,190.0,0
1724314097,18.5632517,73.8332417,535.0,22.035999999999998,100,31.75,8.0,-88.0,189.0,0
1724314098,18.5632517,73.8332417,535.0,22.478,100,31.75,8.0,-88.0,189.0,0
1724314099,18.5632517,73.8332417,535.0,22.246,100,31.75,8.0,-88.0,189.0,0
1724314100,18.5632517,73.8332417,535.0,22.24,100,31.75,9.0,-88.0,190.0,0
1724314101,18.5632517,73.8332417,535.0,22.29,100,31.73,7.0,-88.0,189.0,0
1724314102,18.5632517,73.8332417,535.0,22.428,100,31.73,7.0,-88.0,188.0,0
1724314103,18.5632517,73.8332417,535.0,22.13,100,31.73,7.0,-88.0,188.0,0
1724314104,18.5632517,73.8332417,535.0,22.449494949494948,99,31.96969696969697,8.0,-88.0,189.0,0
1724314105,18.5632517,73.8332417,535.0,22.564646464646465,99,31.96969696969697,7.0,-88.0,188.0,0
1724314106,18.5632517,73.8332417,535.0,22.720202020202024,99,31.767676767676768,7.0,-88.0,188.0,0
1724314107,18.5632517,73.8332417,535.0,22.60909090909091,99,31.767676767676768,7.0,-88.0,188.0,0
1724314108,18.5632517,73.8332417,535.0,22.525252525252526,99,31.767676767676768,7.0,-88.0,188.0,0
1724314109,18.5632517,73.8332417,535.0,22.268686868686867,99,31.767676767676768,6.0,-88.0,188.0,0
1724314110,18.5632517,73.8332417,535.0,22.633333333333333,99,31.757575757575758,6.0,-88.0,187.0,0
1724314111,18.5632517,73.8332417,535.0,22.404040404040405,99,31.757575757575758,6.0,-88.0,188.0,0
1724314112,18.5632517,73.8332417,535.0,22.577551020408162,98,32.03061224489796,7.0,-88.0,188.0,0
1724314113,18.5632517,73.8332417,535.0,22.51818181818182,99,31.767676767676768,6.0,-88.0,187.0,0
1724314114,18.5632517,73.8332417,535.0,22.6,99,31.77777777777778,7.0,-88.0,188.0,0
1724314115,18.5632517,73.8332417,535.0,22.30808080808081,99,31.77777777777778,6.0,-88.0,187.0,0
1724314116,18.5632517,73.8332417,535.0,22.723469387755102,98,31.979591836734695,6.0,-88.0,188.0,0
1724314117,18.5632517,73.8332417,535.0,23.077319587628867,97,31.75257731958763,6.0,-88.0,188.0,0
1724314118,18.5632517,73.8332417,535.0,23.143298969072166,97,31.75257731958763,7.0,-88.0,188.0,0
1724314119,18.5632517,73.8332417,535.0,23.189690721649484,97,31.75257731958763,6.0,-88.0,187.0,0
1724314120,18.5632517,73.8332417,535.0,23.07010309278351,97,31.75257731958763,7.0,-88.0,189.0,0
1724314121,18.5632517,73.8332417,535.0,22.84639175257732,97,31.75257731958763,7.0,-88.0,188.0,0
1724314122,18.5632517,73.8332417,535.0,23.150515463917525,97,31.75257731958763,8.0,-88.0,189.0,0
1724314123,18.5632517,73.8332417,535.0,23.159375,96,31.489583333333332,7.0,-88.0,189.0,0
1724314124,18.5632517,73.8332417,535.0,23.20104166666667,96,32.0,7.0,-88.0,189.0,0
1724314125,18.5632517,73.8332417,535.0,23.1125,96,31.979166666666668,7.0,-88.0,189.0,0
1724314126,18.5632517,73.8332417,535.0,23.226041666666664,96,31.989583333333332,8.0,-88.0,189.0,0
1724314127,18.5632517,73.8332417,535.0,23.22083333333333,96,31.989583333333332,8.0,-88.0,189.0,0
1724314128,18.5632517,73.8332417,535.0,23.209374999999998,96,31.989583333333332,8.0,-88.0,189.0,0
1724314129,18.5632517,73.8332417,535.0,23.145833333333332,96,31.989583333333332,7.0,-88.0,189.0,0
1724314130,18.5632517,73.8332417,535.0,23.202083333333334,96,31.989583333333332,8.0,-88.0,189.0,0
1724314131,18.5632517,73.8332417,535.0,23.277083333333334,96,31.989583333333332,8.0,-88.0,190.0,0
1724314132,18.5632517,73.8332417,535.0,23.193749999999998,96,32.0,8.0,-88.0,190.0,0
1724314133,18.5632517,73.8332417,535.0,23.218556701030927,97,31.7319587628866,8.0,-88.0,189.0,0
1724314134,18.5632517,73.8332417,535.0,23.084536082474227,97,31.7319587628866,8.0,-88.0,189.0,0
1724314135,18.5632517,73.8332417,535.0,23.130927835051544,97,31.7319587628866,7.0,-88.0,189.0,0
1724314136,18.5632517,73.8332417,535.0,22.99484536082474,97,33.08247422680412,9.0,-88.0,190.0,0
1724314137,18.5632517,73.8332417,535.0,23.058762886597936,97,33.08247422680412,8.0,-88.0,189.0,0
1724314138,18.5632517,73.8332417,535.0,23.144329896907216,97,33.07216494845361,8.0,-88.0,189.0,0
1724314139,18.5632517,73.8332417,535.0,23.215463917525774,97,33.07216494845361,8.0,-88.0,190.0,0
1724314140,18.5632517,73.8332417,535.0,23.176041666666666,96,33.354166666666664,8.0,-88.0,190.0,0
1724314141,18.5632517,73.8332417,535.0,23.158762886597938,97,33.07216494845361,8.0,-88.0,190.0,0
1724314142,18.5632517,73.8332417,535.0,23.069387755102042,98,32.816326530612244,8.0,-88.0,190.0,0
1724314143,18.5632517,73.8332417,535.0,23.070408163265306,98,32.816326530612244,8.0,-88.0,189.0,0
1724314144,18.5632517,73.8332417,535.0,22.989795918367346,98,32.816326530612244,8.0,-88.0,189.0,0
1724314145,18.5632517,73.8332417,535.0,23.0734693877551,98,32.816326530612244,9.0,-88.0,190.0,0
1724314146,18.5632517,73.8332417,535.0,23.255102040816325,98,32.57142857142857,8.0,-88.0,189.0,0
1724314147,18.5632517,73.8332417,535.0,23.15714285714286,98,32.57142857142857,9.0,-88.0,190.0,0
1724314148,18.5632517,73.8332417,535.0,23.319387755102042,98,32.57142857142857,9.0,-88.0,190.0,0
1724314149,18.5632517,73.8332417,535.0,23.19183673469388,98,32.57142857142857,8.0,-88.0,189.0,0
1724314150,18.5632517,73.8332417,535.0,23.214285714285715,98,32.57142857142857,9.0,-88.0,191.0,0
1724314151,18.5632517,73.8332417,535.0,23.217346938775513,98,32.57142857142857,9.0,-88.0,191.0,0
1724314152,18.5632517,73.8332417,535.0,23.29387755102041,98,32.59183673469388,9.0,-88.0,191.0,0
1724314153,18.5632517,73.8332417,535.0,23.360204081632656,98,32.59183673469388,9.0,-88.0,191.0,0
1724314154,18.5632517,73.8332417,535.0,23.247959183673473,98,32.60204081632653,9.0,-88.0,190.0,0
1724314155,18.5632517,73.8332417,535.0,23.238775510204082,98,32.09183673469388,9.0,-88.0,190.0,0
1724314156,18.5632517,73.8332417,535.0,23.236734693877548,98,32.09183673469388,10.0,-88.0,191.0,0
1724314157,18.5632517,73.8332417,535.0,23.26530612244898,98,32.09183673469388,8.0,-88.0,189.0,0
1724314158,18.5632517,73.8332417,535.0,23.25,98,32.09183673469388,9.0,-88.0,190.0,0
1724314159,18.5632517,73.8332417,535.0,23.25408163265306,98,32.09183673469388,9.0,-88.0,190.0,0
1724314160,18.5632517,73.8332417,535.0,23.51224489795918,98,32.07142857142857,10.0,-88.0,191.0,0
1724314161,18.5632517,73.8332417,535.0,23.310204081632655,98,32.07142857142857,10.0,-88.0,191.0,0
1724314162,18.5632517,73.8332417,535.0,23.320408163265306,98,32.07142857142857,9.0,-88.0,191.0,0
1724314163,18.5632517,73.8332417,535.0,23.272448979591836,98,32.07142857142857,9.0,-88.0,191.0,0
1724314164,18.5632517,73.8332417,535.0,23.28061224489796,98,32.07142857142857,9.0,-88.0,191.0,0
1724314165,18.5632517,73.8332417,535.0,23.479591836734695,98,31.693877551020407,9.0,-88.0,191.0,0
1724314166,18.5632517,73.8332417,535.0,23.171428571428574,98,31.693877551020407,10.0,-88.0,191.0,0
1724314167,18.5632517,73.8332417,535.0,23.43469387755102,98,31.693877551020407,10.0,-88.0,191.0,0
1724314168,18.5632517,73.8332417,535.0,23.551020408163264,98,31.693877551020407,9.0,-88.0,191.0,0
1724314169,18.5632517,73.8332417,535.0,23.306122448979593,98,31.693877551020407,9.0,-88.0,190.0,0
1724314170,18.5632517,73.8332417,535.0,23.48061224489796,98,31.6734693877551,9.0,-88.0,191.0,0
1724314171,18.5632517,73.8332417,535.0,23.589795918367347,98,31.6734693877551,10.0,-88.0,192.0,0
1724314172,18.5632517,73.8332417,535.0,23.591836734693878,98,31.6734693877551,9.0,-88.0,191.0,0
1724314173,18.5632517,73.8332417,535.0,23.383673469387755,98,31.6734693877551,10.0,-88.0,191.0,0
1724314174,18.5632517,73.8332417,535.0,23.30816326530612,98,31.6734693877551,9.0,-88.0,191.0,0
1724314175,18.5632517,73.8332417,535.0,23.447959183673472,98,32.80612244897959,9.0,-88.0,191.0,0
1724314176,18.5632517,73.8332417,535.0,23.44081632653061,98,32.80612244897959,9.0,-88.0,190.0,0
1724314177,18.5632517,73.8332417,535.0,23.370408163265306,98,32.80612244897959,9.0,-88.0,191.0,0
1724314178,18.5632517,73.8332417,535.0,23.455102040816325,98,32.80612244897959,10.0,-88.0,191.0,0
1724314179,18.5632517,73.8332417,535.0,23.382653061224488,98,32.80612244897959,9.0,-88.0,190.0,0
1724314180,18.5632517,73.8332417,535.0,23.539795918367346,98,32.785714285714285,9.0,-88.0,190.0,0
1724314181,18.5632517,73.8332417,535.0,23.496938775510202,98,32.80612244897959,10.0,-88.0,192.0,0
1724314182,18.5632517,73.8332417,535.0,23.488775510204082,98,32.80612244897959,9.0,-88.0,191.0,0
1724314183,18.5632517,73.8332417,535.0,23.491836734693877,98,32.80612244897959,9.0,-88.0,190.0,0
1724314184,18.5632517,73.8332417,535.0,23.587755102040816,98,32.56122448979592,10.0,-88.0,191.0,0
1724314185,18.5632517,73.8332417,535.0,23.3265306122449,98,32.56122448979592,10.0,-88.0,192.0,0
1724314186,18.5632517,73.8332417,535.0,23.412244897959184,98,32.56122448979592,9.0,-88.0,191.0,0
1724314187,18.5632517,73.8332417,535.0,23.508163265306123,98,32.56122448979592,9.0,-88.0,190.0,0
1724314188,18.5632517,73.8332417,535.0,23.444897959183674,98,32.56122448979592,9.0,-88.0,191.0,0
1724314189,18.5632517,73.8332417,535.0,23.33061224489796,98,32.56122448979592,10.0,-88.0,191.0,0
1724314190,18.5632517,73.8332417,535.0,23.244897959183675,98,32.56122448979592,10.0,-88.0,191.0,0
1724314191,18.5632517,73.8332417,535.0,23.375510204081635,98,32.56122448979592,9.0,-88.0,191.0,0
1724314192,18.5632517,73.8332417,535.0,23.070408163265306,98,32.56122448979592,9.0,-88.0,191.0,0
1724314193,18.5632517,73.8332417,535.0,23.132653061224488,98,32.05102040816327,10.0,-88.0,191.0,0
1724314194,18.5632517,73.8332417,535.0,23.346938775510203,98,32.05102040816327,9.0,-88.0,191.0,0
1724314195,18.5632517,73.8332417,535.0,23.339795918367347,98,32.05102040816327,10.0,-88.0,191.0,0
1724314196,18.5632517,73.8332417,535.0,23.379591836734694,98,32.05102040816327,8.0,-88.0,189.0,0
1724314197,18.5632517,73.8332417,535.0,23.021428571428572,98,32.05102040816327,10.0,-88.0,191.0,0
1724314198,18.5632517,73.8332417,535.0,23.34285714285714,98,32.05102040816327,10.0,-88.0,191.0,0
1724314199,18.5632517,73.8332417,535.0,23.054081632653062,98,32.05102040816327,11.0,-88.0,193.0,0
1724314200,18.5632517,73.8332417,535.0,23.002040816326527,98,32.05102040816327,9.0,-88.0,191.0,0
1724314201,18.5632517,73.8332417,535.0,23.235714285714284,98,32.05102040816327,9.0,-88.0,190.0,0
1724314202,18.5632517,73.8332417,535.0,23.102040816326532,98,31.6734693877551,10.0,-88.0,191.0,0
1724314203,18.5632517,73.8332417,535.0,23.183673469387756,98,31.6734693877551,10.0,-88.0,191.0,0
1724314204,18.5632517,73.8332417,535.0,23.21530612244898,98,31.6734693877551,10.0,-88.0,191.0,0
1724314205,18.5632517,73.8332417,535.0,23.187755102040818,98,31.6734693877551,11.0,-88.0,192.0,0
1724314206,18.5632517,73.8332417,535.0,23.195918367346938,98,31.683673469387756,10.0,-88.0,191.0,0
1724314207,18.5632517,73.8332417,535.0,23.070408163265306,98,31.683673469387756,10.0,-88.0,191.0,0
1724314208,18.5632517,73.8332417,535.0,23.011224489795918,98,31.683673469387756,9.0,-88.0,191.0,0
1724314209,18.5632517,73.8332417,535.0,23.210204081632654,98,31.683673469387756,9.0,-88.0,191.0,0
1724314210,18.5632517,73.8332417,535.0,23.212244897959184,98,31.683673469387756,9.0,-88.0,191.0,0
1724314211,18.5632517,73.8332417,535.0,23.163265306122447,98,31.479591836734695,9.0,-88.0,191.0,0
1724314212,18.5632517,73.8332417,535.0,23.288775510204083,98,31.46938775510204,9.0,-88.0,191.0,0
1724314213,18.5632517,73.8332417,535.0,23.297959183673466,98,31.46938775510204,9.0,-88.0,191.0,0
1724314214,18.5632517,73.8332417,535.0,23.343877551020405,98,31.46938775510204,9.0,-88.0,191.0,0
1724314215,18.5632517,73.8332417,535.0,23.489795918367346,98,31.46938775510204,9.0,-88.0,191.0,0
1724314216,18.5632517,73.8332417,535.0,23.433673469387756,98,31.46938775510204,9.0,-88.0,191.0,0
1724314217,18.5632517,73.8332417,535.0,23.496938775510202,98,31.46938775510204,10.0,-88.0,191.0,0
1724314218,18.5632517,73.8332417,535.0,23.38469387755102,98,31.46938775510204,10.0,-88.0,191.0,0
1724314219,18.5632517,73.8332417,535.0,23.4,98,31.46938775510204,9.0,-88.0,191.0,0
1724314220,18.5632517,73.8332417,535.0,23.362244897959183,98,31.46938775510204,11.0,-88.0,192.0,0
1724314221,18.5632517,73.8332417,535.0,23.452040816326534,98,31.46938775510204,10.0,-88.0,191.0,0
1724314222,18.5632517,73.8332417,535.0,23.239795918367346,98,31.448979591836736,10.0,-88.0,192.0,0
1724314223,18.5632517,73.8332417,535.0,23.241836734693877,98,32.12244897959184,11.0,-88.0,192.0,0
1724314224,18.5632517,73.8332417,535.0,23.216494845360824,97,32.402061855670105,10.0,-88.0,192.0,0
1724314225,18.5632517,73.8332417,535.0,23.1734693877551,98,32.13265306122449,10.0,-88.0,192.0,0
1724314226,18.5632517,73.8332417,535.0,23.383673469387755,98,32.13265306122449,10.0,-88.0,192.0,0
1724314227,18.5632517,73.8332417,535.0,23.449484536082473,97,32.36082474226804,11.0,-88.0,192.0,0
1724314228,18.5632517,73.8332417,535.0,23.357142857142858,98,32.11224489795919,10.0,-88.0,192.0,0
1724314229,18.5632517,73.8332417,535.0,23.31530612244898,98,32.775510204081634,10.0,-88.0,192.0,0
1724314230,18.5632517,73.8332417,535.0,23.23469387755102,98,32.785714285714285,10.0,-88.0,191.0,0
1724314231,18.5632517,73.8332417,535.0,23.178571428571427,98,32.765306122448976,10.0,-88.0,191.0,0
1724314232,18.5632517,73.8332417,535.0,23.40714285714286,98,32.714285714285715,10.0,-88.0,191.0,0
1724314233,18.5632517,73.8332417,535.0,23.3265306122449,98,32.714285714285715,10.0,-88.0,191.0,0
1724314234,18.5632517,73.8332417,535.0,23.337755102040816,98,32.714285714285715,10.0,-88.0,192.0,0
1724314235,18.5632517,73.8332417,535.0,23.226530612244897,98,32.724489795918366,10.0,-88.0,192.0,0
1724314236,18.5632517,73.8332417,535.0,23.15408163265306,98,32.714285714285715,9.0,-88.0,191.0,0
1724314237,18.5632517,73.8332417,535.0,23.16938775510204,98,32.714285714285715,9.0,-88.0,191.0,0
1724314238,18.5632517,73.8332417,535.0,23.131632653061224,98,32.714285714285715,10.0,-88.0,192.0,0
1724314239,18.5632517,73.8332417,535.0,22.967346938775513,98,32.54081632653061,10.0,-88.0,191.0,0
1724314240,18.5632517,73.8332417,535.0,23.054081632653062,98,32.54081632653061,10.0,-88.0,192.0,0
1724314241,18.5632517,73.8332417,535.0,23.297959183673466,98,32.316326530612244,10.0,-88.0,192.0,0
1724314242,18.5632517,73.8332417,535.0,23.236734693877548,98,32.316326530612244,10.0,-88.0,191.0,0
1724314243,18.5632517,73.8332417,535.0,22.893877551020406,98,32.6530612244898,10.0,-88.0,192.0,0
1724314244,18.5632517,73.8332417,535.0,23.024242424242424,99,32.525252525252526,5.0,-88.0,187.0,0
1724314245,18.5632517,73.8332417,535.0,23.171428571428574,98,32.80612244897959,44.0,-88.0,225.0,0
1724314246,18.5632517,73.8332417,535.0,23.296938775510203,98,32.785714285714285,9.0,-88.0,190.0,0
1724314247,18.5632517,73.8332417,535.0,23.429591836734694,98,32.785714285714285,9.0,-88.0,190.0,0
1724314248,18.5632517,73.8332417,535.0,23.34285714285714,98,32.5,14.0,-88.0,195.0,0
1724314249,18.5632517,73.8332417,535.0,23.664285714285715,98,32.5,8.0,-88.0,190.0,0
1724314250,18.5632517,73.8332417,535.0,23.76938775510204,98,32.234693877551024,16.0,-88.0,197.0,0
1724314251,18.5632517,73.8332417,535.0,23.38061224489796,98,32.224489795918366,10.0,-87.0,192.0,0
1724314252,18.5632517,73.8332417,535.0,23.385714285714286,98,32.224489795918366,5.0,-84.0,187.0,0
1724314253,18.5632517,73.8332417,535.0,23.333673469387755,98,32.224489795918366,4.0,-88.0,185.0,0
1724314254,18.5632517,73.8332417,535.0,23.335714285714285,98,32.224489795918366,23.0,-89.0,205.0,0
1724314255,18.5632517,73.8332417,535.0,22.929591836734694,98,32.224489795918366,4.0,-87.0,185.0,0
1724314256,18.5632517,73.8332417,535.0,22.88061224489796,98,32.244897959183675,14.0,-88.0,195.0,0
1724314257,18.5632517,73.8332417,535.0,23.415463917525773,97,32.08247422680412,38.0,-89.0,219.0,0
1724314258,18.5632517,73.8332417,535.0,22.960824742268038,97,32.06185567010309,7.0,-86.0,189.0,0
1724314259,18.5632517,73.8332417,535.0,22.124742268041235,97,32.24742268041237,10.0,-87.0,191.0,0
1724314260,18.5632517,73.8332417,535.0,23.450515463917522,97,32.24742268041237,10.0,-88.0,191.0,0
1724314261,18.5632517,73.8332417,535.0,23.271134020618558,97,32.24742268041237,8.0,-87.0,190.0,0
1724314262,18.5632517,73.8332417,535.0,23.877319587628865,97,32.21649484536083,5.0,-87.0,186.0,0
1724314263,18.5632517,73.8332417,535.0,23.423711340206186,97,32.21649484536083,10.0,-87.0,192.0,0
1724314264,18.5632517,73.8332417,535.0,23.260824742268042,97,32.21649484536083,5.0,-87.0,187.0,0
1724314265,18.5632517,73.8332417,535.0,23.34166666666667,96,32.0,7.0,-87.0,189.0,0
1724314266,18.5632517,73.8332417,535.0,23.401041666666668,96,31.90625,7.0,-87.0,188.0,0
1724314267,18.5632517,73.8332417,535.0,23.47835051546392,97,32.123711340206185,7.0,-88.0,189.0,0
1724314268,18.5632517,73.8332417,535.0,23.26060606060606,99,31.606060606060606,8.0,-88.0,189.0,0
1724314269,18.5632517,73.8332417,535.0,23.368367346938776,98,31.755102040816325,7.0,-88.0,189.0,0
1724314270,18.5632517,73.8332417,535.0,23.511224489795918,98,31.755102040816325,8.0,-88.0,189.0,0
1724314271,18.5632517,73.8332417,535.0,23.285858585858588,99,31.626262626262626,7.0,-88.0,188.0,0
1724314272,18.5632517,73.8332417,535.0,23.241414141414143,99,31.626262626262626,7.0,-88.0,189.0,0
1724314273,18.5632517,73.8332417,535.0,23.26969696969697,99,31.646464646464647,6.0,-88.0,188.0,0
1724314274,18.5632517,73.8332417,535.0,23.137373737373736,99,31.646464646464647,7.0,-88.0,188.0,0
1724314275,18.5632517,73.8332417,535.0,23.226262626262628,99,31.646464646464647,7.0,-88.0,189.0,0
1724314276,18.5632517,73.8332417,535.0,23.268686868686867,99,31.646464646464647,7.0,-88.0,189.0,0
1724314277,18.5632517,73.8332417,535.0,23.402020202020203,99,31.626262626262626,7.0,-88.0,188.0,0
1724314278,18.5632517,73.8332417,535.0,23.087878787878786,99,31.626262626262626,6.0,-88.0,188.0,0
1724314279,18.5632517,73.8332417,535.0,23.16969696969697,99,31.626262626262626,7.0,-88.0,188.0,0
1724314280,18.5632517,73.8332417,535.0,23.304040404040403,99,31.626262626262626,7.0,-88.0,188.0,0
1724314281,18.5632517,73.8332417,535.0,23.270707070707072,99,31.626262626262626,7.0,-88.0,188.0,0
1724314282,18.5632517,73.8332417,535.0,23.255555555555556,99,31.626262626262626,7.0,-87.0,188.0,0
1724314283,18.5632517,73.8332417,535.0,23.252525252525253,99,31.626262626262626,7.0,-88.0,188.0,0
1724314284,18.5632517,73.8332417,535.0,23.32929292929293,99,31.626262626262626,7.0,-88.0,188.0,0
1724314285,18.5632517,73.8332417,535.0,23.299999999999997,99,31.626262626262626,7.0,-88.0,188.0,0
1724314286,18.5632517,73.8332417,535.0,23.4979797979798,99,31.616161616161616,7.0,-88.0,188.0,0
1724314287,18.5632517,73.8332417,535.0,23.31313131313131,99,31.616161616161616,7.0,-88.0,188.0,0
1724314288,18.5632517,73.8332417,535.0,23.27171717171717,99,31.616161616161616,7.0,-88.0,188.0,0
1724314289,18.5632517,73.8332417,535.0,23.219191919191918,99,31.626262626262626,6.0,-88.0,188.0,0
1724314290,18.5632517,73.8332417,535.0,23.283838383838383,99,31.636363636363637,7.0,-88.0,188.0,0
1724314291,18.5632517,73.8332417,535.0,23.21212121212121,99,32.303030303030305,7.0,-88.0,189.0,0
1724314292,18.5632517,73.8332417,535.0,23.22222222222222,99,32.303030303030305,7.0,-88.0,188.0,0
1724314293,18.5632517,73.8332417,535.0,23.26060606060606,99,32.303030303030305,6.0,-88.0,188.0,0
1724314294,18.5632517,73.8332417,535.0,23.241414141414143,99,32.303030303030305,6.0,-88.0,188.0,0
1724314295,18.5632517,73.8332417,535.0,23.36060606060606,99,32.303030303030305,6.0,-88.0,188.0,0
1724314296,18.5632517,73.8332417,535.0,23.332323232323233,99,32.95959595959596,6.0,-88.0,188.0,0
1724314297,18.5632517,73.8332417,535.0,21.40408163265306,98,33.295918367346935,7.0,-88.0,188.0,0
1724314298,18.5632517,73.8332417,535.0,22.503061224489798,98,33.295918367346935,6.0,-88.0,188.0,0
1724314299,18.5632517,73.8332417,535.0,22.603061224489796,98,33.295918367346935,6.0,-88.0,187.0,0
1724314300,18.5632517,73.8332417,535.0,22.997959183673473,98,33.214285714285715,6.0,-88.0,187.0,0
1724314301,18.5632517,73.8332417,535.0,22.983673469387757,98,33.19387755102041,6.0,-88.0,188.0,0
1724314302,18.5632517,73.8332417,535.0,23.001020408163264,98,33.204081632653065,6.0,-88.0,188.0,0
1724314303,18.5632517,73.8332417,535.0,23.143877551020406,98,33.204081632653065,6.0,-88.0,187.0,0
1724314304,18.5632517,73.8332417,535.0,23.08469387755102,98,33.204081632653065,6.0,-88.0,187.0,0
1724314305,18.5632517,73.8332417,535.0,23.122448979591837,98,33.03061224489796,5.0,-88.0,187.0,0
1724314306,18.5632517,73.8332417,535.0,23.15408163265306,98,33.03061224489796,6.0,-88.0,187.0,0
1724314307,18.5632517,73.8332417,535.0,22.99591836734694,98,33.03061224489796,6.0,-88.0,187.0,0
1724314308,18.5632517,73.8332417,535.0,22.95,98,33.03061224489796,6.0,-88.0,187.0,0
1724314309,18.5632517,73.8332417,535.0,23.020408163265305,98,32.80612244897959,6.0,-88.0,187.0,0
1724314310,18.5632517,73.8332417,535.0,23.144897959183673,98,32.80612244897959,6.0,-88.0,188.0,0
1724314311,18.5632517,73.8332417,535.0,23.603061224489796,98,32.80612244897959,6.0,-88.0,187.0,0
1724314312,18.5632517,73.8332417,535.0,23.49591836734694,98,32.816326530612244,6.0,-88.0,188.0,0
